~VERSION INFORMATION
 VERS.                 2.0:   CWLS LOG ASCII STANDARD - VERSION 2.0
 WRAP.                  NO:   SINGLE LINE PER DEPTH STEP
 CREA.                 06/02/2020 16:33:07
#CREATED USING IP VERSION 4.5.2019.2902 BY RMOTA ON 06/02/2020 16:33:07
~WELL INFORMATION
#MNEM.UNIT       DATA                          DESCRIPTION MNEMONIC
#---------      ---------------------------   --------------------------
 STRT    .M         500.8250                  : START DEPTH
 STOP    .M         3050.8250                 : STOP DEPTH
 STEP    .M         0.1000                    : STEP VALUE
 NULL    .      -999.0000                     : NULL VALUE
 DATE    .      06/02/2020                    : LAS file Creation Date
 WELL   .      7-MP-34D-BA     : Well Name
 COMP   .      PETROBRAS       : Company
 FLD    .      MASSAPE         : Field
 STATE  .      BAHIA           : State
 API    .      20240022160     : API Number
 UWI    .                      : Unique Well Identifier (UWI)
 LOC    .                      : Location
 PDAT   .      NM              : Permanent Datum
 EPDAT  .      0.0             : Elevation of Permanent Datum
 LGMEA  .      MR              : Log Measured from
 DRMEA  .      MR              : Drill Measured From
 APDAT  .      65.65           : Elevation Above Permanent Datum
 KB     .      65.95           : KB Elevation
 DF     .      65.65           : DF Elevation
 RWS    .      -999            : Def_Rw
 WST    .      -999            : Def_Rwt
 PROV   .                      : Province
 SRVC   .                      : Contractor
 GDAT   .      WGS 84          : Geodatum
 LONG   .      -38.435477499961: Longitude
 LATI   .      0               : Latitude
 COORDIN.                      : Grid System
 XCOORD .                      : X or East-West Coordinate
 YCOORD .                      : Y or North-South Coordinate
~CURVE INFORMATION
#MNEM              UNIT       API CODE   Curve Type Comments
#----------  --------------- ----------  ---------- -----------
 DEPTH      .M                         : Depth       
 CAL        .inch                      : Caliper     
 BS         .in                        : BitSize     
 GR         .gAPI                      : GammaRay    
 ILD        .ohm.m                     : DeepRes     
 RHOB       .G/CC                      : Density     
 NPHI       .dec                       : Neutron     
 DT         .uS/ft                     : Sonic       
 DRDN       .                          :             
 Lith_new   .                          :             
~A  DEPTH    CAL        BS        GR       ILD       RHOB      NPHI       DT       DRDN    Lith_new 
# ...
3044.8250    8.6268    8.5000   89.0127   19.6330    2.4755    0.1092   82.3000   -1.8482   49.0000 
3044.9250    8.6268    8.5000   89.0127   19.5343    2.4755    0.1092   82.3000   -1.8482   49.0000 
3045.0250    8.6268    8.5000   89.0127   19.4387    2.4755    0.1092   82.3000   -1.8482   49.0000 
3045.1250    8.6268    8.5000   89.0127   19.4741    2.4755    0.1092   82.3000   -1.8482   49.0000 
3045.2250    8.6268    8.5000   89.0127   19.6067    2.4755    0.1092   82.3000   -1.8482   49.0000 
3045.3250    8.6268    8.5000   89.0127   19.8306    2.4755    0.1092   82.3000   -1.8482   49.0000 
3045.4250    8.6268    8.5000   89.0127   20.0668    2.4755    0.1092   82.3000   -1.8482   49.0000 
3045.5250    8.6268    8.5000   89.0127   20.2796    2.4755    0.1092   82.3000   -1.8482   49.0000 
3045.6250    8.6268    8.5000   89.0127   20.4138    2.4755    0.1092   82.3000   -1.8482   49.0000 
3045.7250    8.6268    8.5000   89.0127   20.4903    2.4755    0.1092   82.3000   -1.8482   49.0000 
3045.8250    8.6268    8.5000   89.0127   20.5422    2.4755    0.1092   82.3000   -1.8482   49.0000 
3045.9250    8.6268    8.5000   89.0127   20.5727    2.4755    0.1092   82.3000   -1.8482   49.0000 
3046.0250    8.6268    8.5000   89.0127   20.6008    2.4755    0.1092   82.3000   -1.8482   49.0000 
3046.1250    8.6268    8.5000   89.0127   20.5918    2.4755    0.1092   82.3000   -1.8482   49.0000 
3046.2250    8.6268    8.5000   89.0127   20.5680    2.4755    0.1092   82.3000   -1.8482   49.0000 
3046.3250    8.6268    8.5000   89.0127   20.5021    2.4755    0.1092   82.3000   -1.8482   49.0000 
3046.4250    8.6268    8.5000   89.0127   20.4325    2.4755    0.1092   82.3000   -1.8482   49.0000 
3046.5250    8.6268    8.5000   89.0127   20.3842    2.4755    0.1092   82.3000   -1.8482   49.0000 
3046.6250    8.6268    8.5000   89.0127   20.3820    2.4755    0.1092   82.3000   -1.8482   49.0000 
3046.7250    8.6268    8.5000   89.0127   20.4143    2.4755    0.1092   82.3000   -1.8482   49.0000 
3046.8250    8.6268    8.5000   89.0127   20.4304    2.4755    0.1092   82.3000   -1.8482   49.0000 
3046.9250    8.6268    8.5000   89.0127   20.3943    2.4755    0.1092   82.3000   -1.8482   49.0000 
3047.0250    8.6268    8.5000   89.0127   20.3296    2.4755    0.1092   82.3000   -1.8482   49.0000 
3047.1250    8.6268    8.5000   89.0127   20.2835    2.4755    0.1092   82.3000   -1.8482   49.0000 
3047.2250    8.6268    8.5000   89.0127   20.2806    2.4755    0.1092   82.3000   -1.8482   49.0000 
3047.3250    8.6268    8.5000   89.0127   20.2671    2.4755    0.1092   82.3000   -1.8482   49.0000 
3047.4250    8.6268    8.5000   89.0127   20.2504    2.4755    0.1092   82.3000   -1.8482   49.0000 
3047.5250    8.6268    8.5000   89.0127   20.2297    2.4755    0.1092   82.3000   -1.8482   49.0000 
3047.6250    8.6268    8.5000   89.0127 -999.0000    2.4755    0.1092   82.3000   -1.8482   49.0000 
3047.7250    8.6268    8.5000   89.0127 -999.0000    2.4755    0.1092   82.3000   -1.8482   49.0000 
3047.8250    8.6268    8.5000   89.0127 -999.0000    2.4755    0.1092   82.3000   -1.8482   49.0000 
3047.9250    8.6268    8.5000   89.0127 -999.0000    2.4755    0.1092   82.3000   -1.8482   49.0000 
3048.0250    8.6268    8.5000   89.0127 -999.0000    2.4755    0.1092   82.3000   -1.8482   49.0000 
3048.1250    8.6268    8.5000   89.0127 -999.0000    2.4755    0.1092   82.3000   -1.8482   49.0000 
3048.2250    8.6268    8.5000   89.0127 -999.0000    2.4755    0.1092   82.3000   -1.8482   49.0000 
3048.3250    8.6268    8.5000   89.0127 -999.0000    2.4755    0.1092   82.3000   -1.8482   49.0000 
3048.4250    8.6268    8.5000   89.0127 -999.0000    2.4755    0.1092   82.3000   -1.8482   49.0000 
3048.5250    8.6268    8.5000   89.0127 -999.0000    2.4755    0.1092   82.3000   -1.8482   49.0000 
3048.6250    8.6268    8.5000   89.0127 -999.0000    2.4755    0.1092   82.3000   -1.8482   49.0000 
3048.7250    8.6268    8.5000   89.0127 -999.0000    2.4755    0.1092   82.3000   -1.8482   49.0000 
3048.8250    8.6268    8.5000   89.0127 -999.0000    2.4755    0.1092   82.3000   -1.8482   49.0000 
3048.9250    8.6268    8.5000   89.0127 -999.0000    2.4755    0.1092   82.3000   -1.8482   49.0000 
3049.0250    8.6268    8.5000   89.0127 -999.0000    2.4755    0.1092   82.3000   -1.8482   49.0000 
3049.1250    8.6268    8.5000   89.0127 -999.0000    2.4755    0.1092   82.3000   -1.8482   49.0000 
3049.2250    8.6268    8.5000   89.0127 -999.0000    2.4755    0.1092   82.3000   -1.8482   49.0000 
3049.3250    8.6268    8.5000   89.0127 -999.0000    2.4755    0.1092   82.3000   -1.8482   49.0000 
3049.4250    8.6268    8.5000   89.0127 -999.0000    2.4755    0.1092   82.3000   -1.8482   49.0000 
3049.5250    8.6268    8.5000   89.0127 -999.0000    2.4755    0.1092   82.3000   -1.8482   49.0000 
3049.6250    8.6268    8.5000   89.0127 -999.0000    2.4755    0.1092   82.3000   -1.8482   49.0000 
3049.7250    8.6268    8.5000   89.0127 -999.0000    2.4755    0.1092   82.3000   -1.8482   49.0000 
3049.8250    8.6268    8.5000   89.0127 -999.0000    2.4755    0.1092   82.3000   -1.8482   49.0000 
3049.9250    8.6268    8.5000   89.0127 -999.0000    2.4755    0.1092   82.3000   -1.8482   49.0000 
3050.0250    8.6268    8.5000   89.0127 -999.0000    2.4755    0.1092   82.3000   -1.8482   49.0000 
3050.1250    8.6268    8.5000   89.0127 -999.0000    2.4755    0.1092   82.3000   -1.8482   49.0000 
3050.2250    8.6268    8.5000   89.0127 -999.0000    2.4755    0.1092   82.3000   -1.8482   49.0000 
3050.3250    8.6268    8.5000   89.0127 -999.0000    2.4755    0.1092   82.3000   -1.8482   49.0000 
3050.4250    8.6268    8.5000   89.0127 -999.0000    2.4755    0.1092   82.3000   -1.8482   49.0000 
3050.5250    8.6268    8.5000   89.0127 -999.0000    2.4755    0.1092   82.3000   -1.8482   49.0000 
3050.6250    8.6268    8.5000   89.0127 -999.0000    2.4755    0.1092   82.3000   -1.8482   49.0000 
3050.7250    8.6268    8.5000   89.0127 -999.0000    2.4755    0.1092   82.3000   -1.8482   49.0000 
3050.8250    8.6268    8.5000   89.0127 -999.0000    2.4755    0.1092   82.3000   -1.8482   49.0000 
