~VERSION INFORMATION
 VERS.                 2.0:   CWLS LOG ASCII STANDARD - VERSION 2.0
 WRAP.                  NO:   SINGLE LINE PER DEPTH STEP
 CREA.                 30/01/2020 17:31:38
#CREATED USING IP VERSION 4.5.2019.2902 BY RMOTA ON 30/01/2020 17:31:38
~WELL INFORMATION
#MNEM.UNIT       DATA                          DESCRIPTION MNEMONIC
#---------      ---------------------------   --------------------------
 STRT    .M         5.9400                    : START DEPTH
 STOP    .M         3362.3976                 : STOP DEPTH
 STEP    .M         0.1524                    : STEP VALUE
 NULL    .      -999.0000                     : NULL VALUE
 DATE    .      30/01/2020                    : LAS file Creation Date
 WELL   .      7-MP-31D-BA        : Well Name
 COMP   .      PETROBRAS          : Company
 FLD    .      MASSAPE            : Field
 STATE  .      BAHIA              : State
 COUNT  .      BRASIL             : Country
 API    .      20240021426        : API Number
 UWI    .                         : Unique Well Identifier (UWI)
 LOC    .      N= 8.608.492,720 m : Location
 TOWN   .      CATU               : Township
 SCT    .      OH WIRELINE        : Section
 RANG   .      SCHLUMBERGER       : Range
 PDAT   .      NM                 : Permanent Datum
 EPDAT  .      0                  : Elevation of Permanent Datum
 LGMEA  .      MR                 : Log Measured from
 DRMEA  .      MR                 : Drill Measured From
 APDAT  .      66.4               : Elevation Above Permanent Datum
 KB     .      66.7               : KB Elevation
 DF     .      66.4               : DF Elevation
 GL     .      57                 : GL Elevation
 RWS    .      -999               : Def_Rw
 WST    .      -999               : Def_Rwt
 BHS    .      OPEN               : Completion Status
 PROV   .                         : Province
 SRVC   .                         : Contractor
 GDAT   .      WGS 84             : Geodatum
 LONG   .      -38.4314536115858  : Longitude
 LATI   .      -12.5867413889037  : Latitude
 COORDIN.                         : Grid System
 XCOORD .                         : X or East-West Coordinate
 YCOORD .                         : Y or North-South Coordinate
~CURVE INFORMATION
#MNEM              UNIT       API CODE   Curve Type Comments
#----------  --------------- ----------  ---------- -----------
 DEPTH      .M                         : Depth       
 CALI       .inch                      : Caliper     
 BS         .in                        : BitSize     
 GR         .gAPI                      : GammaRay    
 RT         .ohm.m                     : DeepRes     
 NPHI       .m3/m3                     : Neutron     
 RHOB       .g/cm3                     :             
 DT         .us/ft                     : Sonic       
 SP         .mV                        : SP          
 N_Res      .                          :             
 Res        .                          :             
 DRDN       .                          :             
 Lith_new   .                          :             
 DEPTH      .M                         : Depth       
~A  DEPTH    CALI       BS        GR        RT       NPHI      RHOB       DT        SP      N_Res      Res       DRDN    Lith_new   DEPTH   
# ...
2116.8324    8.7939    8.5000  106.9969    6.2376    0.2749    2.4890  168.4426  765.1324 -999.0000 -999.0000    4.0788   57.0000 2116.8324 
2116.9848    8.7701    8.5000  104.9024    6.0136    0.2163    2.5098  169.4006  765.2471 -999.0000 -999.0000    2.5331   57.0000 2116.9848 
2117.1372    8.8144    8.5000  100.1475    5.3013    0.1942    2.5213  169.1826  765.1279 -999.0000 -999.0000    1.9102   57.0000 2117.1372 
2117.2896    8.7931    8.5000   97.7147    4.1208    0.2566    2.5163  170.1145  765.1250 -999.0000 -999.0000    3.8259   57.0000 2117.2896 
2117.4420    8.9720    8.5000   93.3583    3.4766    0.2905    2.5159  170.7502  765.7963 -999.0000 -999.0000    5.0728   57.0000 2117.4420 
2117.5944    8.8866    8.5000   94.0547    2.9574    0.2990    2.5343  173.0839  765.6295 -999.0000 -999.0000    5.8366   57.0000 2117.5944 
2117.7468    8.8396    8.5000   90.9062    2.7948    0.2573    2.5632  172.4318  765.7471 -999.0000 -999.0000    5.0282   57.0000 2117.7468 
2117.8992    8.8609    8.5000   96.6847    3.0708    0.2339    2.5875  169.9377  765.2008 -999.0000 -999.0000    4.6701   57.0000 2117.8992 
2118.0516    8.9063    8.5000  100.2607    3.2429    0.2141    2.6014  167.1103  764.4552 -999.0000 -999.0000    4.2276   57.0000 2118.0516 
2118.2040    8.8626    8.5000  103.8577    3.5991    0.2180    2.6067  168.7215  765.2308 -999.0000 -999.0000    4.3865   57.0000 2118.2040 
2118.3564    8.8615    8.5000  102.0165    3.3291    0.2331    2.5957  174.4120  764.5787 -999.0000 -999.0000    4.5417   57.0000 2118.3564 
2118.5088    8.8839    8.5000  102.3769    2.9493    0.2490    2.5742  179.1969  764.9286 -999.0000 -999.0000    4.6558   57.0000 2118.5088 
2118.6612    8.9293    8.5000   99.5676    2.6677    0.2737    2.5583  183.1557  765.3647 -999.0000 -999.0000    5.2172   57.0000 2118.6612 
2118.8136    8.9304    8.5000  102.4364    2.4315    0.2743    2.5522  186.7298  765.3750 -999.0000 -999.0000    5.1884   57.0000 2118.8136 
2118.9660    8.9528    8.5000   97.7000    2.4704    0.2816    2.5554  186.4706  764.8258 -999.0000 -999.0000    5.5323   57.0000 2118.9660 
2119.1184    8.9646    8.5000  101.0093    2.7003    0.2574    2.5650  186.0552  764.7515 -999.0000 -999.0000    4.9724   57.0000 2119.1184 
2119.2708    8.9312    8.5000  106.6284    2.9012    0.2612    2.5803  185.8205  764.5670 -999.0000 -999.0000    5.4163   57.0000 2119.2708 
2119.4232    8.9304    8.5000  107.6215    2.8427    0.2501    2.5952  187.4585  765.0507 -999.0000 -999.0000    5.3260   57.0000 2119.4232 
2119.5756    8.8855    8.5000  111.1459    2.8286    0.2523    2.6032  186.9287  765.0625 -999.0000 -999.0000    5.5080   57.0000 2119.5756 
2119.7280    8.8957    8.5000  103.9128    2.9197    0.2641    2.6067  185.9667  765.1235 -999.0000 -999.0000    5.9222   57.0000 2119.7280 
2119.8804    8.8399    8.5000  107.5479    3.0088    0.2788    2.5948  183.2680  765.0640 -999.0000 -999.0000    6.0659   57.0000 2119.8804 
2120.0328    8.8385    8.5000  103.1918    2.9928    0.2862    2.5792  180.9592  764.7574 -999.0000 -999.0000    6.0294   57.0000 2120.0328 
2120.1852    8.8385    8.5000  104.5280    2.6595    0.2815    2.5665  175.2757  764.5059 -999.0000 -999.0000    5.6887   57.0000 2120.1852 
2120.3376    8.8834    8.5000   94.2796    3.0042    0.2835    2.5736  160.9494  764.3779 -999.0000 -999.0000    6.0327   57.0000 2120.3376 
2120.4900    8.7947    8.5000   91.7409    4.0950    0.2575    2.5931  155.8536  764.0089 -999.0000 -999.0000    5.5943   57.0000 2120.4900 
2120.6424    8.7589    8.5000   81.7453    6.0983    0.2126    2.6179  148.1685  764.7323 -999.0000 -999.0000    4.6186   57.0000 2120.6424 
2120.7948    8.7693    8.5000   76.6514   12.3708    0.1379    2.6401  134.0540  765.0551 -999.0000 -999.0000    2.5251   57.0000 2120.7948 
2120.9472    8.7920    8.5000   67.6385   29.1318    0.0979    2.6561  128.9216  765.0625 -999.0000 -999.0000    1.4589   57.0000 2120.9472 
2121.0996    8.7925    8.5000   59.9100   37.3603    0.0734    2.6621  125.6381  764.8795 -999.0000 -999.0000    0.6912   57.0000 2121.0996 
2121.2520    8.8150    8.5000   59.5397   29.0750    0.0799    2.6643  126.5681  765.0580 -999.0000 -999.0000    0.9712   57.0000 2121.2520 
2121.4044    8.8380    8.5000   66.2068   13.9423    0.0996    2.6672  135.5404  765.2455 -999.0000 -999.0000    1.6896   57.0000 2121.4044 
2121.5568    8.8721    8.5000   77.3556    9.3149    0.1443    2.6685  143.5671  765.2500 -999.0000 -999.0000    3.1379   57.0000 2121.5568 
2121.7092    8.8842    8.5000   89.4439    6.3742    0.1981    2.6543  145.9414  765.6161 -999.0000 -999.0000    4.5412   57.0000 2121.7092 
2121.8616    8.9069    8.5000   93.0882    4.8331    0.2190    2.6325  153.3091  765.3809 -999.0000 -999.0000    4.8310   57.0000 2121.8616 
2122.0140    8.8850    8.5000   93.1538    5.6725    0.1995    2.6213  154.9608  765.8022 -999.0000 -999.0000    4.0594   57.0000 2122.0140 
2122.1664    8.9069    8.5000   89.1463    6.9738    0.1682    2.6226  155.2041  765.8125 -999.0000 -999.0000    3.0911   57.0000 2122.1664 
2122.3188    8.8401    8.5000   91.8176    7.4093    0.1639    2.6269  155.7030  765.7515 -999.0000 -999.0000    3.0253   57.0000 2122.3188 
2122.4712    8.8609    8.5000   91.3756    7.5412    0.1667    2.6276  152.8579  766.0551 -999.0000 -999.0000    3.0768   57.0000 2122.4712 
2122.6236    8.8503    8.5000   91.3788    8.5539    0.1832    2.6258  153.7113  766.0625 -999.0000 -999.0000    3.6550   57.0000 2122.6236 
2122.7760    8.8388    8.5000   94.1578   10.3642    0.1978    2.6319  159.3712  766.1235 -999.0000 -999.0000    4.2500   57.0000 2122.7760 
2122.9284    8.8161    8.5000   90.8855   13.7286    0.2231    2.6339  162.9715  766.1860 -999.0000 -999.0000    5.1538   57.0000 2122.9284 
2123.0808    8.7931    8.5000   94.9492   15.0945    0.2244    2.6344  166.7831  766.1875 -999.0000 -999.0000    5.0939   57.0000 2123.0808 
2123.2332    8.7925    8.5000   92.8785   11.7059    0.2428    2.6200  168.9641  765.3942 -999.0000 -999.0000    5.3753   57.0000 2123.2332 
2123.3856    8.8374    8.5000   96.8589    8.2614    0.2559    2.6021  171.0310  765.1309 -999.0000 -999.0000    5.4700   57.0000 2123.3856 
2123.5380    8.8161    8.5000   94.2298    8.3029    0.2674    2.5917  171.5643  764.9420 -999.0000 -999.0000    5.7010   57.0000 2123.5380 
2123.6904    8.8380    8.5000   91.2502   10.1812    0.2679    2.5863  171.0239  764.2052 -999.0000 -999.0000    5.6413   57.0000 2123.6904 
2123.8428    8.8609    8.5000   93.9734    8.6433    0.2636    2.5867  172.0597  764.0045 -999.0000 -999.0000    5.5255   57.0000 2123.8428 
2123.9952    8.8615    8.5000   93.9865    7.6041    0.2550    2.5882  169.9227  765.4036 -999.0000 -999.0000    5.2942   57.0000 2123.9952 
2124.1476    8.8839    8.5000   98.2195    8.0876    0.2302    2.5926  168.3545  765.8036 -999.0000 -999.0000    4.5551   57.0000 2124.1476 
2124.3000    8.9069    8.5000   95.8958    7.9902    0.2223    2.5970  166.9335  766.2397 -999.0000 -999.0000    4.3588   57.0000 2124.3000 
2124.4524    8.8850    8.5000   95.6757    6.9241    0.2218    2.5941  167.4924  765.8228 -999.0000 -999.0000    4.2298   57.0000 2124.4524 
2124.6048    8.9293    8.5000   91.8625    7.0688    0.2304    2.5880  167.7678  766.4838 -999.0000 -999.0000    4.4135   57.0000 2124.6048 
2124.7572    8.9080    8.5000   93.7139    7.7435    0.2143    2.5850  169.4528  765.8287 -999.0000 -999.0000    3.8253   57.0000 2124.7572 
2124.9096    8.9299    8.5000   96.0024    5.5938    0.2168    2.5795  176.8595  766.5448 -999.0000 -999.0000    3.7582   57.0000 2124.9096 
2125.0620    8.9080    8.5000  101.8717    4.8638    0.2261    2.5666  181.6584  766.0743 -999.0000 -999.0000    3.7581   57.0000 2125.0620 
2125.2144    8.9074    8.5000  104.9857    4.2281    0.2514    2.5510  185.7598  766.4897 -999.0000 -999.0000    4.3222   57.0000 2125.2144 
2125.3668    8.8850    8.5000  103.9098    4.0032    0.2933    2.5448  192.2331  765.9508 -999.0000 -999.0000    5.6737   57.0000 2125.3668 
