~VERSION INFORMATION
 VERS.                 2.0:   CWLS LOG ASCII STANDARD - VERSION 2.0
 WRAP.                  NO:   SINGLE LINE PER DEPTH STEP
 CREA.                 06/02/2020 16:33:07
#CREATED USING IP VERSION 4.5.2019.2902 BY RMOTA ON 06/02/2020 16:33:07
~WELL INFORMATION
#MNEM.UNIT       DATA                          DESCRIPTION MNEMONIC
#---------      ---------------------------   --------------------------
 STRT    .M         500.8250                  : START DEPTH
 STOP    .M         3050.8250                 : STOP DEPTH
 STEP    .M         0.1000                    : STEP VALUE
 NULL    .      -999.0000                     : NULL VALUE
 DATE    .      06/02/2020                    : LAS file Creation Date
 WELL   .      7-MP-34D-BA     : Well Name
 COMP   .      PETROBRAS       : Company
 FLD    .      MASSAPE         : Field
 STATE  .      BAHIA           : State
 API    .      20240022160     : API Number
 UWI    .                      : Unique Well Identifier (UWI)
 LOC    .                      : Location
 PDAT   .      NM              : Permanent Datum
 EPDAT  .      0.0             : Elevation of Permanent Datum
 LGMEA  .      MR              : Log Measured from
 DRMEA  .      MR              : Drill Measured From
 APDAT  .      65.65           : Elevation Above Permanent Datum
 KB     .      65.95           : KB Elevation
 DF     .      65.65           : DF Elevation
 RWS    .      -999            : Def_Rw
 WST    .      -999            : Def_Rwt
 PROV   .                      : Province
 SRVC   .                      : Contractor
 GDAT   .      WGS 84          : Geodatum
 LONG   .      -38.435477499961: Longitude
 LATI   .      0               : Latitude
 COORDIN.                      : Grid System
 XCOORD .                      : X or East-West Coordinate
 YCOORD .                      : Y or North-South Coordinate
~CURVE INFORMATION
#MNEM              UNIT       API CODE   Curve Type Comments
#----------  --------------- ----------  ---------- -----------
 DEPTH      .M                         : Depth       
 CAL        .inch                      : Caliper     
 BS         .in                        : BitSize     
 GR         .gAPI                      : GammaRay    
 ILD        .ohm.m                     : DeepRes     
 RHOB       .G/CC                      : Density     
 NPHI       .dec                       : Neutron     
 DT         .uS/ft                     : Sonic       
 DRDN       .                          :             
 Lith_new   .                          :             
~A  DEPTH    CAL        BS        GR       ILD       RHOB      NPHI       DT       DRDN    Lith_new 
# ...
2532.8250    8.7337    8.5000  101.6861    6.0688    2.5635    0.2309   76.3327    3.9668   57.0000 
2532.9250    8.7872    8.5000  100.9945    5.5491    2.5681    0.2277   76.2990    3.9532   57.0000 
2533.0250    8.8331    8.5000   99.9690    5.0522    2.5795    0.2267   76.3694    4.1464   57.0000 
2533.1250    8.8866    8.5000   99.4660    4.6957    2.5970    0.2280   76.8592    4.5395   57.0000 
2533.2250    8.8789    8.5000   97.7131    4.5141    2.6110    0.2310   77.8918    4.9208   57.0000 
2533.3250    8.8407    8.5000   96.9234    4.4934    2.6126    0.2347   79.4128    5.0733   57.0000 
2533.4250    8.7567    8.5000   97.2228    4.5979    2.6029    0.2381   81.1418    4.9944   57.0000 
2533.5250    8.6955    8.5000   98.3007    4.7769    2.5936    0.2407   82.6413    4.8961   57.0000 
2533.6250    8.6879    8.5000  100.7346    4.9692    2.5934    0.2417   83.5852    4.9247   57.0000 
2533.7250    8.6650    8.5000  103.6479    5.1322    2.5982    0.2410   83.7505    4.9986   57.0000 
2533.8250    8.6879    8.5000  106.2203    5.2563    2.6000    0.2393   83.3296    4.9749   57.0000 
2533.9250    8.7337    8.5000  107.5836    5.3445    2.5997    0.2391   83.0117    4.9624   57.0000 
2534.0250    8.7872    8.5000  108.7362    5.3804    2.6024    0.2403   83.1434    5.0586   57.0000 
2534.1250    8.8789    8.5000  108.4981    5.3373    2.6018    0.2434   83.8224    5.1489   57.0000 
2534.2250    8.8789    8.5000  108.2135    5.2242    2.5937    0.2454   84.7153    5.0527   57.0000 
2534.3250    8.8407    8.5000  108.3847    5.0919    2.5791    0.2494   85.5153    4.8942   57.0000 
2534.4250    8.7872    8.5000  109.1830    4.9943    2.5689    0.2542   86.2648    4.8499   57.0000 
2534.5250    8.7261    8.5000  111.2377    4.9493    2.5572    0.2601   87.0827    4.8158   57.0000 
2534.6250    8.7185    8.5000  113.1212    4.9356    2.5488    0.2622   88.4015    4.7172   57.0000 
2534.7250    8.7414    8.5000  116.4770    4.9097    2.5399    0.2617   90.2250    4.5215   57.0000 
2534.8250    8.7719    8.5000  119.1599    4.8405    2.5437    0.2628   92.2464    4.6336   57.0000 
2534.9250    8.7643    8.5000  121.9249    4.7253    2.5548    0.2713   94.0571    5.1410   57.0000 
2535.0250    8.7261    8.5000  125.5212    4.5889    2.5787    0.2886   94.9230    6.1934   57.0000 
2535.1250    8.7185    8.5000  127.0278    4.4645    2.6036    0.3081   95.1327    7.3403   57.0000 
2535.2250    8.7414    8.5000  127.1324    4.3686    2.6147    0.3244   94.8372    8.1084   57.0000 
2535.3250    8.7949    8.5000  125.1909    4.2970    2.6022    0.3324   94.3541    8.1237   57.0000 
2535.4250    8.9095    8.5000  122.2381    4.2393    2.5845    0.3332   93.8250    7.7960   57.0000 
2535.5250    8.9477    8.5000  120.3548    4.1910    2.5768    0.3296   93.1148    7.5222   57.0000 
2535.6250    9.0012    8.5000  119.9286    4.1525    2.5824    0.3274   92.3786    7.5628   57.0000 
2535.7250    9.0470    8.5000  121.5917    4.1213    2.5780    0.3324   91.8005    7.6397   57.0000 
2535.8250    9.0547    8.5000  123.6280    4.0865    2.5693    0.3419   91.5617    7.7824   57.0000 
2535.9250    9.0699    8.5000  125.2601    4.0336    2.5615    0.3513   91.6745    7.9380   57.0000 
2536.0250    9.0547    8.5000  127.3408    3.9566    2.5605    0.3560   92.0194    8.0775   57.0000 
2536.1250    9.0623    8.5000  128.9477    3.8673    2.5563    0.3585   92.4638    8.0764   57.0000 
2536.2250    9.0623    8.5000  130.9891    3.7843    2.5378    0.3618   92.9827    7.8181   57.0000 
2536.3250    9.0776    8.5000  132.9210    3.7235    2.5165    0.3660   93.4694    7.5307   57.0000 
2536.4250    9.1081    8.5000  133.8464    3.6814    2.5046    0.3691   93.8531    7.3946   57.0000 
2536.5250    9.1081    8.5000  133.7296    3.6451    2.5161    0.3694   93.9990    7.6360   57.0000 
2536.6250    9.0317    8.5000  132.2521    3.6029    2.5417    0.3668   93.9500    8.0610   57.0000 
2536.7250    8.9171    8.5000  130.3121    3.5533    2.5675    0.3598   93.8352    8.3409   57.0000 
2536.8250    8.8178    8.5000  128.4200    3.5036    2.5839    0.3475   93.7551    8.2596   57.0000 
2536.9250    8.7643    8.5000  127.0910    3.4633    2.5875    0.3321   93.6969    7.8210   57.0000 
2537.0250    8.7949    8.5000  127.0466    3.4411    2.5804    0.3200   93.5699    7.2746   57.0000 
2537.1250    8.8331    8.5000  128.3648    3.4412    2.5705    0.3157   93.3286    6.9332   57.0000 
2537.2250    8.8713    8.5000  130.2019    3.4601    2.5653    0.3187   92.9464    6.9290   57.0000 
2537.3250    8.9095    8.5000  131.2846    3.4997    2.5671    0.3253   92.2571    7.1852   57.0000 
2537.4250    8.9248    8.5000  130.4208    3.5843    2.5686    0.3312   90.9796    7.4118   57.0000 
2537.5250    8.8789    8.5000  128.5120    3.7828    2.5690    0.3354   89.6439    7.5614   57.0000 
2537.6250    8.8713    8.5000  124.6512    4.2056    2.5694    0.3357   87.8668    7.5771   57.0000 
2537.7250    8.8407    8.5000  121.0766    5.0060    2.5669    0.3343   86.2015    7.4829   57.0000 
2537.8250    8.8331    8.5000  118.5662    6.2351    2.5546    0.3288   83.9862    7.0532   57.0000 
2537.9250    8.8866    8.5000  115.4982    7.5998    2.5368    0.3229   81.6117    6.4972   57.0000 
2538.0250    8.9630    8.5000  114.0998    8.2415    2.5246    0.3150   80.1418    5.9911   57.0000 
2538.1250    9.0623    8.5000  114.0096    7.9619    2.5289    0.3066   79.1607    5.7988   57.0000 
2538.2250    9.1234    8.5000  115.7988    7.5671    2.5386    0.2981   78.8852    5.7088   57.0000 
2538.3250    9.1387    8.5000  118.6612    7.7339    2.5491    0.2923   78.4898    5.7236   57.0000 
2538.4250    9.1311    8.5000  123.1261    8.4301    2.5562    0.2940   78.5362    5.9233   57.0000 
2538.5250    9.1005    8.5000  126.9872    8.7973    2.5702    0.3021   79.5679    6.4759   57.0000 
2538.6250    9.0470    8.5000  128.2532    8.2550    2.5830    0.3147   81.1454    7.1476   57.0000 
2538.7250    9.0165    8.5000  129.1486    7.3435    2.5877    0.3276   82.6138    7.6745   57.0000 
2538.8250    9.0165    8.5000  127.7918    6.4830    2.5826    0.3356   83.8454    7.8404   57.0000 
2538.9250    9.0394    8.5000  125.7980    6.0079    2.5741    0.3338   84.9276    7.6093   57.0000 
2539.0250    9.0241    8.5000  123.9619    5.8195    2.5722    0.3207   86.4719    7.1325   57.0000 
2539.1250    8.9553    8.5000  121.2115    5.7697    2.5734    0.3041   87.6071    6.6037   57.0000 
2539.2250    8.8866    8.5000  117.4868    5.7071    2.5744    0.2912   87.4872    6.1965   57.0000 
2539.3250    8.8102    8.5000  112.8553    5.5988    2.5705    0.2814   85.9883    5.7916   57.0000 
2539.4250    8.7337    8.5000  108.7693    5.4712    2.5669    0.2718   83.4903    5.3983   57.0000 
2539.5250    8.7261    8.5000  105.8482    5.3490    2.5724    0.2595   81.0571    5.0995   57.0000 
2539.6250    8.7261    8.5000  104.6569    5.2510    2.5803    0.2491   79.4653    4.9113   57.0000 
2539.7250    8.7414    8.5000  104.7698    5.2047    2.5841    0.2404   78.8954    4.6936   57.0000 
2539.8250    8.7796    8.5000  105.2358    5.2520    2.5795    0.2345   79.1974    4.4069   57.0000 
2539.9250    8.7949    8.5000  104.4345    5.4446    2.5776    0.2303   79.8041    4.2268   57.0000 
2540.0250    8.8025    8.5000  102.7454    5.8003    2.5805    0.2258   80.1740    4.1367   57.0000 
2540.1250    8.8254    8.5000  100.7941    6.2657    2.5792    0.2217   80.1490    3.9735   57.0000 
2540.2250    8.8254    8.5000   99.4810    6.6814    2.5764    0.2159   79.7745    3.7260   57.0000 
2540.3250    8.8178    8.5000   99.8093    6.8719    2.5759    0.2122   79.2689    3.5913   57.0000 
2540.4250    8.8178    8.5000  101.1721    6.7831    2.5850    0.2123   78.9357    3.7773   57.0000 
2540.5250    8.8025    8.5000  103.7548    6.4990    2.5911    0.2182   78.8500    4.0959   57.0000 
2540.6250    8.7949    8.5000  105.3774    6.1623    2.5871    0.2292   79.0724    4.3807   57.0000 
2540.7250    8.7872    8.5000  106.3433    5.8745    2.5768    0.2383   79.4464    4.4803   57.0000 
