~VERSION INFORMATION
 VERS.                 2.0:   CWLS LOG ASCII STANDARD - VERSION 2.0
 WRAP.                  NO:   SINGLE LINE PER DEPTH STEP
 CREA.                 06/02/2020 16:44:49
#CREATED USING IP VERSION 4.5.2019.2902 BY RMOTA ON 06/02/2020 16:44:49
~WELL INFORMATION
#MNEM.UNIT       DATA                          DESCRIPTION MNEMONIC
#---------      ---------------------------   --------------------------
 STRT    .M         1550.0001                 : START DEPTH
 STOP    .M         2926.1001                 : STOP DEPTH
 STEP    .M         0.1000                    : STEP VALUE
 NULL    .      -999.0000                     : NULL VALUE
 DATE    .      06/02/2020                    : LAS file Creation Date
 WELL   .      7-MP-47DP-BA    : Well Name
 COMP   .      PETROBRAS       : Company
 FLD    .      MASSAPE         : Field
 STATE  .      BAHIA           : State
 API    .      20240025025     : API Number
 UWI    .                      : Unique Well Identifier (UWI)
 LOC    .      20240025025     : Location
 PDAT   .      NM              : Permanent Datum
 EPDAT  .      0.0             : Elevation of Permanent Datum
 LGMEA  .      MR              : Log Measured from
 DRMEA  .      MR              : Drill Measured From
 APDAT  .      65.68           : Elevation Above Permanent Datum
 KB     .      -999.25         : KB Elevation
 DF     .      65.68           : DF Elevation
 GL     .      56.28           : GL Elevation
 RWS    .      -999            : Def_Rw
 WST    .      -999            : Def_Rwt
 PROV   .                      : Province
 SRVC   .                      : Contractor
 GDAT   .      WGS 84          : Geodatum
 LONG   .      -38.435024444394: Longitude
 LATI   .      0               : Latitude
 COORDIN.                      : Grid System
 XCOORD .                      : X or East-West Coordinate
 YCOORD .                      : Y or North-South Coordinate
~CURVE INFORMATION
#MNEM              UNIT       API CODE   Curve Type Comments
#----------  --------------- ----------  ---------- -----------
 DEPTH      .M                         : Depth       
 BS         .in                        : BitSize     
 CAL        .in                        : Caliper     
 GR         .api                       : GammaRay    
 ILD        .ohmm                      : DeepRes     
 NPHI       .decp                      : Neutron     
 RHOB       .g/cc                      : Density     
 DT         .uspf                      : Sonic       
 DRDN       .                          :             
 Lith_new   .                          :             
~A  DEPTH     BS       CAL        GR       ILD       NPHI      RHOB       DT       DRDN    Lith_new 
# ...
1974.0001    8.5000    8.9566   97.8364    2.1723    0.3039    2.5000   96.5795    5.1303   57.0000 
1974.1001    8.5000    8.9767  100.3090    2.0791    0.3062    2.5030   98.3980    5.2664   57.0000 
1974.2001    8.5000    8.9779  100.3090    2.0501    0.2996    2.5061   99.1214    5.1091   57.0000 
1974.3001    8.5000    8.9843   98.7117    2.0303    0.3074    2.5061   99.5004    5.3697   57.0000 
1974.4001    8.5000    9.0052   99.4273    2.0192    0.3056    2.5013  100.1521    5.2116   57.0000 
1974.5001    8.5000    9.0033  102.3280    2.0272    0.3102    2.4974  100.2234    5.2888   57.0000 
1974.6001    8.5000    9.0261  104.9156    2.0380    0.3194    2.4955  100.2547    5.5555   57.0000 
1974.7001    8.5000    9.0486  105.1583    2.0519    0.3176    2.4931   99.8355    5.4482   57.0000 
1974.8001    8.5000    9.0775  100.7722    2.0844    0.3105    2.4883   99.5155    5.1141   57.0000 
1974.9001    8.5000    9.0695   99.9384    2.1079    0.3046    2.4851   99.3595    4.8575   57.0000 
1975.0001    8.5000    9.0432  100.1397    2.1497    0.2956    2.4819   99.0047    4.4912   57.0000 
1975.1001    8.5000    8.9613   97.7949    2.3630    0.2818    2.4895   96.9191    4.1835   57.0000 
1975.2001    8.5000    8.9289   91.6134    2.5873    0.2669    2.5047   94.5352    3.9885   57.0000 
1975.3001    8.5000    8.9168   83.4833    2.9398    0.2372    2.5254   91.6685    3.4150   57.0000 
1975.4001    8.5000    8.9080   67.4115    4.3161    0.1484    2.5722   84.4622    1.3894   57.0000 
1975.5001    8.5000    8.9079   62.4232    5.6195    0.1208    2.5938   79.7925    0.9040   57.0000 
1975.6001    8.5000    8.8931   58.9970    7.7037    0.0954    2.6115   74.9651    0.4111   57.0000 
1975.7001    8.5000    8.8611   56.5037   16.5994    0.0543    2.6366   66.4249   -0.4588   25.0000 
1975.8001    8.5000    8.8577   55.5022   25.3525    0.0446    2.6433   62.9975   -0.6459   25.0000 
1975.9001    8.5000    8.8494   54.8745   37.6327    0.0402    2.6487   60.3414   -0.6876   25.0000 
1976.0001    8.5000    8.8566   56.1874   59.7187    0.0412    2.6482   57.2034   -0.6611   25.0000 
1976.1001    8.5000    8.8657   57.9556   57.8332    0.0424    2.6460   56.6982   -0.6653   25.0000 
1976.2001    8.5000    8.8744   57.8023   49.9866    0.0461    2.6431   56.7353   -0.6030   25.0000 
1976.3001    8.5000    8.8898   57.2432   41.5129    0.0523    2.6405   57.3440   -0.4451   25.0000 
1976.4001    8.5000    8.9077   64.8383   27.5803    0.0756    2.6337   59.2540    0.1955   54.0000 
1976.5001    8.5000    8.9160   73.3965   22.6509    0.0916    2.6270   60.4177    0.5942   57.0000 
1976.6001    8.5000    8.9267   80.1386   18.6539    0.1105    2.6180   62.3139    1.0433   57.0000 
1976.7001    8.5000    8.9573   81.0299   12.8542    0.1435    2.5913   67.2090    1.6090   57.0000 
1976.8001    8.5000    8.9695   78.1452   10.7287    0.1536    2.5782   69.5975    1.6833   57.0000 
1976.9001    8.5000    8.9862   76.7747    9.0099    0.1635    2.5679   71.7941    1.8085   57.0000 
1977.0001    8.5000    9.0083   82.1272    6.4660    0.1930    2.5523   75.9693    2.4780   57.0000 
1977.1001    8.5000    9.0086   86.0661    5.5363    0.2042    2.5467   77.9440    2.7388   57.0000 
1977.2001    8.5000    9.0086   89.5258    4.7792    0.2125    2.5428   79.6738    2.9408   57.0000 
1977.3001    8.5000    9.0007   93.4551    3.6639    0.2201    2.5346   82.9904    3.0289   57.0000 
1977.4001    8.5000    8.9874   95.0029    3.2676    0.2245    2.5298   84.8948    3.0786   57.0000 
1977.5001    8.5000    8.9794   96.1577    2.9561    0.2328    2.5250   87.0422    3.2590   57.0000 
1977.6001    8.5000    8.9398   98.9849    2.5251    0.2493    2.5141   90.4193    3.5930   57.0000 
1977.7001    8.5000    8.9417   99.9384    2.3965    0.2469    2.5128   91.4056    3.4846   57.0000 
1977.8001    8.5000    8.9490   99.4081    2.3223    0.2502    2.5156   91.7534    3.6514   57.0000 
1977.9001    8.5000    8.9626   99.1590    2.2986    0.2457    2.5193   91.7723    3.5763   57.0000 
1978.0001    8.5000    8.9999   97.6495    2.3790    0.2389    2.5361   91.1571    3.6854   57.0000 
1978.1001    8.5000    9.0037   97.4291    2.4565    0.2330    2.5424   90.2697    3.6126   57.0000 
1978.2001    8.5000    9.0144   96.6864    2.5257    0.2300    2.5457   89.3596    3.5807   57.0000 
1978.3001    8.5000    9.0048   97.5904    2.5011    0.2512    2.5474   89.9943    4.3214   57.0000 
1978.4001    8.5000    9.0022  100.2020    2.3820    0.2641    2.5429   91.0793    4.6620   57.0000 
1978.5001    8.5000    9.0060  102.5404    2.2177    0.2796    2.5373   92.3528    5.0655   57.0000 
1978.6001    8.5000    8.9934  103.7623    1.9075    0.2873    2.5238   94.6725    5.0514   57.0000 
1978.7001    8.5000    8.9874  102.8327    1.8164    0.2803    2.5190   95.8835    4.7236   57.0000 
1978.8001    8.5000    8.9775  101.7545    1.7807    0.2743    2.5165   96.4336    4.4750   57.0000 
1978.9001    8.5000    8.9657   98.4961    1.8709    0.2584    2.5191   95.4631    3.9929   57.0000 
1979.0001    8.5000    8.9626   97.5473    1.9736    0.2466    2.5226   93.9000    3.6713   57.0000 
1979.1001    8.5000    8.9657   97.5138    2.0968    0.2384    2.5263   92.0540    3.4734   57.0000 
1979.2001    8.5000    8.9855   97.2023    2.3795    0.2335    2.5351   88.4469    3.4850   57.0000 
1979.3001    8.5000    8.9953   94.3799    2.5500    0.2279    2.5437   86.5296    3.4719   57.0000 
1979.4001    8.5000    8.9938   91.1694    2.7525    0.2219    2.5510   84.5499    3.4174   57.0000 
1979.5001    8.5000    8.9923   89.0322    2.9676    0.2148    2.5562   83.2143    3.2821   57.0000 
1979.6001    8.5000    8.9931   92.4680    3.2330    0.2059    2.5574   82.1786    3.0105   57.0000 
1979.7001    8.5000    8.9942   94.8926    3.1943    0.2141    2.5503   83.0505    3.1424   57.0000 
1979.8001    8.5000    8.9988   96.8142    3.0516    0.2243    2.5419   84.3528    3.3156   57.0000 
1979.9001    8.5000    8.9946   98.9130    2.6589    0.2464    2.5267   86.6009    3.7467   57.0000 
1980.0001    8.5000    8.9855  100.3649    2.4924    0.2528    2.5213   87.4152    3.8530   57.0000 
1980.1001    8.5000    8.9763   99.9337    2.3788    0.2535    2.5191   88.2341    3.8328   57.0000 
1980.2001    8.5000    8.9496   93.7953    2.3631    0.2468    2.5278   88.1243    3.7818   57.0000 
1980.3001    8.5000    8.9218   90.5033    2.4762    0.2311    2.5351   86.9364    3.4037   57.0000 
1980.4001    8.5000    8.8995   90.0385    2.6674    0.2156    2.5436   85.5554    3.0593   57.0000 
1980.5001    8.5000    8.8851   95.4629    3.1794    0.1980    2.5544   83.5144    2.6877   57.0000 
1980.6001    8.5000    8.8829   97.4052    3.4099    0.2022    2.5542   82.5949    2.8219   57.0000 
1980.7001    8.5000    8.9012   95.8909    3.5834    0.2127    2.5534   81.7188    3.1566   57.0000 
1980.8001    8.5000    8.9083   91.7221    3.9512    0.2042    2.5565   80.4464    2.9349   57.0000 
1980.9001    8.5000    8.9136   84.9081    4.2824    0.1888    2.5599   78.3575    2.4892   57.0000 
1981.0001    8.5000    8.9188   85.5262    4.7627    0.1733    2.5669   76.9134    2.1166   57.0000 
1981.1001    8.5000    8.9334   86.4367    5.3793    0.1567    2.5736   75.2521    1.6930   57.0000 
1981.2001    8.5000    8.9377   85.7402    6.7543    0.1354    2.5802   72.6842    1.1194   57.0000 
1981.3001    8.5000    8.9331   84.7915    7.2608    0.1394    2.5805   72.3134    1.2571   57.0000 
1981.4001    8.5000    8.9325   84.9161    7.4713    0.1489    2.5762   72.2177    1.4872   57.0000 
1981.5001    8.5000    8.9203   90.9633    6.7565    0.1722    2.5629   74.8700    1.9970   57.0000 
1981.6001    8.5000    8.9173   96.5219    6.0499    0.1841    2.5550   76.6403    2.2360   57.0000 
1981.7001    8.5000    8.9127  103.1250    5.3516    0.1979    2.5471   78.0747    2.5380   57.0000 
1981.8001    8.5000    8.8928  114.8650    4.4352    0.2065    2.5386   80.5946    2.6562   57.0000 
1981.9001    8.5000    8.8959  118.2576    4.2759    0.2032    2.5369   80.8389    2.5112   57.0000 
