~VERSION INFORMATION
 VERS.                 2.0:   CWLS LOG ASCII STANDARD - VERSION 2.0
 WRAP.                  NO:   SINGLE LINE PER DEPTH STEP
 CREA.                 30/01/2020 17:28:45
#CREATED USING IP VERSION 4.5.2019.2902 BY RMOTA ON 30/01/2020 17:28:45
~WELL INFORMATION
#MNEM.UNIT       DATA                          DESCRIPTION MNEMONIC
#---------      ---------------------------   --------------------------
 STRT    .M         5.0000                    : START DEPTH
 STOP    .M         2977.0000                 : STOP DEPTH
 STEP    .M         0.1000                    : STEP VALUE
 NULL    .      -999.0000                     : NULL VALUE
 DATE    .      30/01/2020                    : LAS file Creation Date
 WELL   .      7-MP-53D-BA      : Well Name
 COMP   .      PETROBRAS        : Company
 FLD    .      MASSAPE          : Field
 STATE  .      BAHIA            : State
 API    .      20240027945      : API Number
 UWI    .                       : Unique Well Identifier (UWI)
 LOC    .                       : Location
 TOWN   .      -999.25          : Township
 SCT    .      -999.25          : Section
 RANG   .      -999.25          : Range
 PDAT   .      NM               : Permanent Datum
 EPDAT  .      0.00             : Elevation of Permanent Datum
 LGMEA  .      MR               : Log Measured from
 DRMEA  .      MR               : Drill Measured From
 APDAT  .      64.90            : Elevation Above Permanent Datum
 KB     .      -999.25          : KB Elevation
 DF     .      64.90            : DF Elevation
 GL     .      56.80            : GL Elevation
 RWS    .      -999             : Def_Rw
 WST    .      -999             : Def_Rwt
 PROV   .                       : Province
 SRVC   .                       : Contractor
 GDAT   .      WGS 84           : Geodatum
 LONG   .      -38.4325436115265: Longitude
 LATI   .      0                : Latitude
 COORDIN.                       : Grid System
 XCOORD .                       : X or East-West Coordinate
 YCOORD .                       : Y or North-South Coordinate
~CURVE INFORMATION
#MNEM              UNIT       API CODE   Curve Type Comments
#----------  --------------- ----------  ---------- -----------
 DEPTH      .M                         : Depth       
 DEPTH      .M                         : Depth       
 DRDN       .                          :             
 GR         .api                       : GammaRay    
 CAL        .in                        : Caliper     
 Res        .                          :             
 N_Res      .                          :             
 ILD        .ohmm                      : DeepRes     
 RHOB       .g/cc                      : Density     Loaded from DLIS: 7-mp-53d-ba_raw-3.dlis
 NPHI       .dec                       : Neutron     Loaded from DLIS: 7-mp-53d-ba_raw-3.dlis
 Lith_new   .                          :             
~A  DEPTH   DEPTH      DRDN       GR       CAL       Res      N_Res      ILD       RHOB      NPHI    Lith_new 
# ...
2822.8000 2822.8000    2.0354  102.6876    8.5930    0.0000    1.0000    9.5126    2.5773    0.1647   57.0000 
2822.9000 2822.9000    2.2078  101.6122    8.6033    0.0000    1.0000   10.7501    2.5771    0.1700   57.0000 
2823.0000 2823.0000    1.3077   87.9854    8.5604    0.0000    1.0000   14.2268    2.5612    0.1525   57.0000 
2823.1000 2823.1000    0.2443   78.4011    8.5565    0.0000    1.0000   16.3752    2.5465    0.1294   54.0000 
2823.2000 2823.2000   -1.0764   70.6144    8.5544    1.0000    0.0000   18.6312    2.5239    0.1034   49.0000 
2823.3000 2823.3000   -2.8431   57.0033    8.5117    1.0000    0.0000   22.6394    2.4953    0.0675   49.0000 
2823.4000 2823.4000   -3.1455   51.8933    8.5080    1.0000    0.0000   24.0349    2.4924    0.0602   49.0000 
2823.5000 2823.5000   -3.2984   47.1286    8.5324    1.0000    0.0000   24.9036    2.4984    0.0520   49.0000 
2823.6000 2823.6000   -3.3355   44.7266    8.8058    1.0000    0.0000   25.2917    2.5072    0.0456   49.0000 
2823.7000 2823.7000   -3.1956   41.4534    9.2527    1.0000    0.0000   25.0780    2.5259    0.0386   49.0000 
2823.8000 2823.8000   -3.0592   40.8490    9.3124    1.0000    0.0000   24.7052    2.5335    0.0381   49.0000 
2823.9000 2823.9000   -2.9081   41.2807    8.7994    1.0000    0.0000   24.2902    2.5401    0.0387   49.0000 
2824.0000 2824.0000   -2.6951   44.3263    8.5841    1.0000    0.0000   23.6043    2.5405    0.0448   49.0000 
2824.1000 2824.1000   -2.6109   45.4959    8.5842    1.0000    0.0000   23.2672    2.5388    0.0484   49.0000 
2824.2000 2824.2000   -2.6354   46.6341    8.5861    1.0000    0.0000   22.6713    2.5361    0.0493   49.0000 
2824.3000 2824.3000   -2.4560   50.1428    8.5693    1.0000    0.0000   19.9660    2.5304    0.0581   49.0000 
2824.4000 2824.4000   -2.2661   53.8557    8.5835    1.0000    0.0000   17.9604    2.5294    0.0644   49.0000 
2824.5000 2824.5000   -2.0285   58.1807    8.5916    1.0000    0.0000   15.8991    2.5306    0.0708   49.0000 
2824.6000 2824.6000   -1.2534   66.9487    8.6035    1.0000    0.0000   12.9185    2.5439    0.0861   49.0000 
2824.7000 2824.7000   -0.7017   72.0980    8.6074    0.0000    1.0000   12.2579    2.5553    0.0958   25.0000 
2824.8000 2824.8000   -0.1389   76.1405    8.6058    0.0000    1.0000   12.0659    2.5657    0.1064   54.0000 
2824.9000 2824.9000    0.1638   76.4702    8.6229    0.0000    1.0000   12.3910    2.5665    0.1150   54.0000 
2825.0000 2825.0000   -0.1155   71.8860    8.6422    0.0000    1.0000   12.5118    2.5519    0.1154   54.0000 
2825.1000 2825.1000   -0.4782   67.2077    8.6328    0.0000    1.0000   12.3557    2.5311    0.1170   25.0000 
2825.2000 2825.2000   -1.1720   64.2720    8.6087    1.0000    0.0000   11.9009    2.5091    0.1094   49.0000 
2825.3000 2825.3000   -1.6608   66.5327    8.6026    1.0000    0.0000   10.7321    2.4857    0.1088   49.0000 
2825.4000 2825.4000   -1.2748   69.8923    8.6011    1.0000    0.0000   10.1954    2.4820    0.1226   49.0000 
2825.5000 2825.5000   -0.7926   74.3743    8.6026    0.0000    1.0000    9.6440    2.4849    0.1353   25.0000 
2825.6000 2825.6000    0.1278   80.2772    8.6100    0.0000    1.0000    8.3320    2.5022    0.1525   54.0000 
2825.7000 2825.7000    0.4737   84.0764    8.5973    0.0000    1.0000    7.6513    2.5224    0.1508   57.0000 
2825.8000 2825.8000    0.7803   91.0075    8.5952    0.0000    1.0000    7.0833    2.5424    0.1480   57.0000 
2825.9000 2825.9000    2.2521  107.5936    8.6050    0.0000    1.0000    6.5358    2.5762    0.1718   57.0000 
2826.0000 2826.0000    2.8745  113.6691    8.5940    0.0000    1.0000    6.6158    2.5843    0.1857   57.0000 
2826.1000 2826.1000    2.8988  114.3913    8.5974    0.0000    1.0000    6.9647    2.5932    0.1810   57.0000 
2826.2000 2826.2000    2.3230  108.2058    8.6156    0.0000    1.0000    8.5634    2.5926    0.1641   57.0000 
2826.3000 2826.3000    1.8580  102.0361    8.5822    0.0000    1.0000    9.7260    2.5845    0.1550   57.0000 
2826.4000 2826.4000    1.0889   94.5555    8.5807    0.0000    1.0000   10.8919    2.5659    0.1431   57.0000 
2826.5000 2826.5000    0.0033   80.8659    8.5718    0.0000    1.0000   12.4264    2.5361    0.1284   54.0000 
2826.6000 2826.6000   -0.4012   76.2268    8.5714    0.0000    1.0000   12.7735    2.5288    0.1207   25.0000 
2826.7000 2826.7000   -0.6201   73.3460    8.5641    0.0000    1.0000   13.0302    2.5317    0.1124   25.0000 
2826.8000 2826.8000   -0.7976   71.1403    8.5710    0.0000    1.0000   13.2994    2.5367    0.1041   25.0000 
2826.9000 2826.9000   -0.7800   68.5421    8.5652    0.0000    1.0000   13.5003    2.5445    0.0999   25.0000 
2827.0000 2827.0000   -0.7348   70.0885    8.5696    0.0000    1.0000   12.9683    2.5451    0.1009   25.0000 
2827.1000 2827.1000   -0.6041   73.3225    8.5708    0.0000    1.0000   11.9125    2.5505    0.1016   25.0000 
2827.2000 2827.2000    0.1728   87.3889    8.5643    0.0000    1.0000    9.2874    2.5752    0.1101   54.0000 
2827.3000 2827.3000    0.8824   93.1190    8.5693    0.0000    1.0000    8.1702    2.5932    0.1206   57.0000 
2827.4000 2827.4000    1.6744   98.9198    8.5696    0.0000    1.0000    7.2824    2.6071    0.1360   57.0000 
2827.5000 2827.5000    2.8562  105.4349    8.5887    0.0000    1.0000    6.1422    2.6227    0.1621   57.0000 
2827.6000 2827.6000    3.4529  109.5952    8.5962    0.0000    1.0000    5.8209    2.6236    0.1794   57.0000 
2827.7000 2827.7000    3.8592  113.1667    8.6086    0.0000    1.0000    5.6289    2.6200    0.1938   57.0000 
2827.8000 2827.8000    3.9052  118.0413    8.6115    0.0000    1.0000    5.5749    2.6056    0.2038   57.0000 
2827.9000 2827.9000    3.6062  119.7132    8.6267    0.0000    1.0000    5.6906    2.5955    0.2009   57.0000 
2828.0000 2828.0000    3.3139  122.4998    8.6212    0.0000    1.0000    5.8847    2.5891    0.1960   57.0000 
2828.1000 2828.1000    2.9186  122.0681    8.6288    0.0000    1.0000    6.4570    2.5800    0.1896   57.0000 
2828.2000 2828.2000    2.9090  117.9863    8.6762    0.0000    1.0000    6.8131    2.5786    0.1901   57.0000 
2828.3000 2828.3000    2.7115  111.2279    8.6333    0.0000    1.0000    7.1984    2.5780    0.1845   57.0000 
2828.4000 2828.4000    2.4695  106.6673    8.6352    0.0000    1.0000    7.5990    2.5769    0.1779   57.0000 
2828.5000 2828.5000    2.0965  101.6358    8.6282    0.0000    1.0000    8.3891    2.5796    0.1651   57.0000 
2828.6000 2828.6000    1.8119  101.0471    8.6283    0.0000    1.0000    8.7646    2.5741    0.1599   57.0000 
2828.7000 2828.7000    1.5453   99.8304    8.6193    0.0000    1.0000    9.1502    2.5679    0.1556   57.0000 
2828.8000 2828.8000    0.8856   96.5493    8.6148    0.0000    1.0000   10.1213    2.5494    0.1469   57.0000 
2828.9000 2828.9000    0.8062   95.0814    8.6158    0.0000    1.0000   10.7289    2.5479    0.1454   57.0000 
2829.0000 2829.0000    0.7572   92.8050    8.6165    0.0000    1.0000   11.3157    2.5505    0.1424   57.0000 
2829.1000 2829.1000    0.6628   85.9759    8.6104    0.0000    1.0000   11.8405    2.5635    0.1318   57.0000 
2829.2000 2829.2000    0.5717   82.6477    8.6028    0.0000    1.0000   11.6516    2.5675    0.1267   57.0000 
2829.3000 2829.3000    0.5301   79.3117    8.6085    0.0000    1.0000   11.2551    2.5665    0.1260   57.0000 
2829.4000 2829.4000    0.2443   78.3070    8.5971    0.0000    1.0000   10.3811    2.5678    0.1167   54.0000 
2829.5000 2829.5000    0.1380   79.3352    8.5940    0.0000    1.0000   10.0247    2.5663    0.1144   54.0000 
2829.6000 2829.6000    0.1273   80.1280    8.5951    0.0000    1.0000    9.7182    2.5659    0.1143   54.0000 
2829.7000 2829.7000    0.1791   79.2411    8.5951    0.0000    1.0000    9.1171    2.5454    0.1281   54.0000 
2829.8000 2829.8000    0.3253   78.3462    8.5976    0.0000    1.0000    8.7892    2.5375    0.1373   57.0000 
2829.9000 2829.9000    0.2702   79.0762    8.6002    0.0000    1.0000    8.4804    2.5359    0.1366   54.0000 
2830.0000 2830.0000    0.5477   80.5990    8.6069    0.0000    1.0000    8.2629    2.5437    0.1402   57.0000 
