~VERSION INFORMATION
 VERS.                 2.0:   CWLS LOG ASCII STANDARD - VERSION 2.0
 WRAP.                  NO:   SINGLE LINE PER DEPTH STEP
 CREA.                 06/02/2020 16:07:36
#CREATED USING IP VERSION 4.5.2019.2902 BY RMOTA ON 06/02/2020 16:07:36
~WELL INFORMATION
#MNEM.UNIT       DATA                          DESCRIPTION MNEMONIC
#---------      ---------------------------   --------------------------
 STRT    .M         18.4404                   : START DEPTH
 STOP    .M         3544.2144                 : STOP DEPTH
 STEP    .M         0.1524                    : STEP VALUE
 NULL    .      -999.0000                     : NULL VALUE
 DATE    .      06/02/2020                    : LAS file Creation Date
 WELL   .      7-MP-25-BA         : Well Name
 COMP   .      PETROBRAS          : Company
 FLD    .      MASSAPE            : Field
 STATE  .      20240021268        : State
 COUNT  .      BRASIL             : Country
 API    .      20240021268        : API Number
 UWI    .                         : Unique Well Identifier (UWI)
 LOC    .      N= 8.607.478,570 m : Location
 TOWN   .      CTU                : Township
 SCT    .      OH WIRELINE        : Section
 RANG   .      SCHLUMBERGER       : Range
 PDAT   .      NM                 : Permanent Datum
 EPDAT  .      0                  : Elevation of Permanent Datum
 LGMEA  .      MR                 : Log Measured from
 DRMEA  .      MR                 : Drill Measured From
 APDAT  .      65.76              : Elevation Above Permanent Datum
 KB     .      66.06              : KB Elevation
 DF     .      65.76              : DF Elevation
 GL     .      56.36              : GL Elevation
 RWS    .      -999               : Def_Rw
 WST    .      -999               : Def_Rwt
 BHS    .      OPEN               : Completion Status
 PROV   .                         : Province
 MDEC   .      -23.10323          : Magnetic Declination
 SRVC   .                         : Contractor
 GDAT   .      WGS 84             : Geodatum
 LONG   .      -38.4344958333174  : Longitude
 LATI   .      -12.5959183332655  : Latitude
 COORDIN.                         : Grid System
 XCOORD .                         : X or East-West Coordinate
 YCOORD .                         : Y or North-South Coordinate
~CURVE INFORMATION
#MNEM              UNIT       API CODE   Curve Type Comments
#----------  --------------- ----------  ---------- -----------
 DEPTH      .M                         : Depth       
 BS         .in                        : BitSize     
 GR         .gAPI                      : GammaRay    
 CAL        .inch                      : Caliper     
 RT         .ohm.m                     : DeepRes     
 NPHI       .m3/m3                     : Neutron     
 RHOB       .g/cm3                     : Density     
 DT         .us/ft                     : Sonic       
 SP         .mV                        : SP          
 DRDN       .                          :             
 Lith_new   .                          :             
~A  DEPTH     BS        GR       CAL        RT       NPHI      RHOB       DT        SP       DRDN    Lith_new 
# ...
2977.7436    8.5000   67.1513 -999.0000   25.3329    0.0728    2.5406  107.7543  927.7500   -1.7609   49.0000 
2977.8960    8.5000   61.4988 -999.0000   33.9272    0.0558    2.5182  106.4860  927.7500   -2.7763   49.0000 
2978.0484    8.5000   53.3833 -999.0000   50.6797    0.0509    2.5121  106.1619  927.6875   -3.0631   49.0000 
2978.2008    8.5000   53.3833 -999.0000   84.5002    0.0501    2.5151  107.0932  928.0000   -3.0271   49.0000 
2978.3532    8.5000   54.7022 -999.0000  116.8698    0.0480    2.5234  108.1919  927.6875   -2.9316   49.0000 
2978.5056    8.5000   63.0064 -999.0000   80.0654    0.0502    2.5388  108.1919  927.9375   -2.5488   49.0000 
2978.6580    8.5000   73.0092 -999.0000   53.1390    0.0726    2.5644  110.5336  927.3125   -1.2924   49.0000 
2978.8104    8.5000   83.0897 -999.0000   42.2280    0.0953    2.5975  110.6045  927.5000    0.1269   54.0000 
2978.9628    8.5000   81.7287 -999.0000   31.2467    0.1068    2.6159  110.6177  927.3750    0.8786   57.0000 
2979.1152    8.5000   80.7497 -999.0000   24.7200    0.0952    2.6101  109.2766  927.1875    0.3762   57.0000 
2979.2676    8.5000   69.3729 -999.0000   28.0004    0.0809    2.5838  109.3313  927.0000   -0.6261   25.0000 
2979.4200    8.5000   64.2856 -999.0000   33.3104    0.0699    2.5411  110.1025  926.6875   -1.8471   49.0000 
2979.5724    8.5000   56.5829 -999.0000   42.2555    0.0690    2.5086  112.1550  926.8750   -2.5271   49.0000 
2979.7248    8.5000   57.9097 -999.0000   34.7896    0.0714    2.4898  112.6174  926.6250   -2.8257   49.0000 
2979.8772    8.5000   60.5476 -999.0000   30.6845    0.0806    2.4934  113.0328  926.6875   -2.4444   49.0000 
2980.0296    8.5000   53.3757 -999.0000   26.9120    0.0754    2.5009  112.6473  926.6875   -2.4698   49.0000 
2980.1820    8.5000   51.6771 -999.0000   30.9159    0.0691    2.5209  112.3486  926.8750   -2.2792   49.0000 
2980.3344    8.5000   56.1992 -999.0000   34.9443    0.0735    2.5315  111.9974  926.6875   -1.9202   49.0000 
2980.4868    8.5000   67.1457 -999.0000   31.3122    0.0835    2.5380  111.7209  926.5625   -1.4571   49.0000 
2980.6392    8.5000   74.5062 -999.0000   27.9884    0.0900    2.5328  111.2992  926.6250   -1.3446   49.0000 
2980.7916    8.5000   64.7085 -999.0000   26.5515    0.0772    2.5292  110.5811  926.8125   -1.8437   49.0000 
2980.9440    8.5000   57.5366 -999.0000   28.0002    0.0605    2.5255  110.5953  926.9375   -2.4733   49.0000 
2981.0964    8.5000   53.3845 -999.0000   32.2070    0.0582    2.5344  111.5599  926.5000   -2.3741   49.0000 
2981.2488    8.5000   61.2981 -999.0000   33.6309    0.0720    2.5587  112.5897  926.3750   -1.4275   49.0000 
2981.4012    8.5000   71.6784 -999.0000   26.2633    0.0912    2.5987  112.2565  926.9375    0.0146   54.0000 
2981.5536    8.5000   84.1347 -999.0000   21.3737    0.1204    2.6257  113.2443  926.5625    1.5267   57.0000 
2981.7060    8.5000   96.0051 -999.0000   19.9792    0.1153    2.6363  112.9816  926.5625    1.5700   57.0000 
2981.8584    8.5000   93.7828 -999.0000   21.8184    0.1020    2.6204  109.2318  926.3750    0.8087   57.0000 
2982.0108    8.5000   82.9893 -999.0000   25.0337    0.0679    2.6138  107.4103  926.3750   -0.4594   25.0000 
2982.1632    8.5000   72.6263 -999.0000   30.5802    0.0573    2.6154  105.5006  926.2500   -0.7799   25.0000 
2982.3156    8.5000   70.1687 -999.0000   37.9118    0.0503    2.6239  104.0220  925.8750   -0.8460   25.0000 
2982.4680    8.5000   68.8497 -999.0000   47.5020    0.0433    2.6153  103.5462  925.1875   -1.2483   49.0000 
2982.6204    8.5000   66.2119 -999.0000   42.7773    0.0377    2.6024  102.7477  925.3125   -1.6969   49.0000 
2982.7728    8.5000   66.9681 -999.0000   41.8130    0.0434    2.5887  103.4876  925.5625   -1.7789   49.0000 
2982.9252    8.5000   71.1133 -999.0000   41.1211    0.0506    2.5847  104.5534  925.7500   -1.6197   49.0000 
2983.0776    8.5000   71.9065 -999.0000   34.3475    0.0616    2.5866  105.5794  925.4375   -1.2153   49.0000 
2983.2300    8.5000   74.3203 -999.0000   29.9834    0.0729    2.5993  107.9059  924.9375   -0.5832   25.0000 
2983.3824    8.5000   73.9435 -999.0000   28.0460    0.0734    2.6131  109.0113  924.8750   -0.2937   54.0000 
2983.5348    8.5000   78.0956 -999.0000   26.0314    0.0816    2.6193  109.8086  924.5625    0.1062   54.0000 
2983.6872    8.5000   81.0679 -999.0000   22.5682    0.0879    2.6248  110.8455  924.7500    0.4267   57.0000 
2983.8396    8.5000   82.2401 -999.0000   22.4968    0.0969    2.6067  111.0795  924.5000    0.3623   57.0000 
2983.9920    8.5000   77.2948 -999.0000   22.8232    0.0816    2.5935  111.3290  924.5000   -0.4108   25.0000 
2984.1444    8.5000   68.8493 -999.0000   23.2688    0.0744    2.5880  111.6633  924.5625   -0.7608   25.0000 
2984.2968    8.5000   77.1535 -999.0000   23.3405    0.0772    2.6074  111.7697  924.4375   -0.2765   54.0000 
2984.4492    8.5000   81.7284 -999.0000   21.8645    0.0892    2.6307  112.0269  924.1250    0.5873   57.0000 
2984.6016    8.5000   90.7876 -999.0000   20.8738    0.0989    2.6382  111.9482  924.0625    1.0599   57.0000 
2984.7540    8.5000   88.4710 -999.0000   20.2963    0.1050    2.6441  111.5376  923.9375    1.3830   57.0000 
2984.9064    8.5000   88.4640 -999.0000   22.2293    0.1097    2.6252  111.7267  923.5000    1.1604   57.0000 
2985.0588    8.5000   83.7457 -999.0000   22.3221    0.1054    2.6044  111.6056  924.1250    0.6031   57.0000 
2985.2112    8.5000   72.8174 -999.0000   23.4192    0.0956    2.5861  111.0678  923.9375   -0.0923   54.0000 
2985.3636    8.5000   66.9667 -999.0000   23.1268    0.0889    2.5913  110.0025  923.8750   -0.2106   54.0000 
2985.5160    8.5000   67.9103 -999.0000   22.9445    0.0884    2.6172  107.1141  923.8750    0.2889   54.0000 
2985.6684    8.5000   73.1861 -999.0000   24.3153    0.0868    2.6267  105.9174  923.8125    0.4263   57.0000 
2985.8208    8.5000   71.3488 -999.0000   32.1768    0.0774    2.6147  104.7155  923.4375   -0.1259   54.0000 
2985.9732    8.5000   66.1201 -999.0000   43.9366    0.0579    2.5841  104.7116  923.5625   -1.3877   49.0000 
2986.1256    8.5000   62.0787 -999.0000   49.8436    0.0482    2.5633  105.2998  923.4375   -2.1288   49.0000 
2986.2780    8.5000   72.7356 -999.0000   41.1019    0.0638    2.5553  105.2201  923.1250   -1.7668   49.0000 
2986.4304    8.5000   72.8685 -999.0000   33.3674    0.0881    2.5477  106.8636  923.0625   -1.1085   49.0000 
2986.5828    8.5000   71.4028 -999.0000   28.8054    0.0936    2.5426  107.6197  923.0625   -1.0275   49.0000 
2986.7352    8.5000   59.5946 -999.0000   35.0968    0.0839    2.5399  107.8695  923.1250   -1.4035   49.0000 
2986.8876    8.5000   53.9072 -999.0000   46.3327    0.0623    2.5350  106.7596  923.0625   -2.2228   49.0000 
2987.0400    8.5000   53.0081 -999.0000   46.1566    0.0584    2.5209  106.2980  922.7500   -2.6361   49.0000 
2987.1924    8.5000   51.3067 -999.0000   58.5933    0.0537    2.5094  107.0505  922.8750   -3.0244   49.0000 
2987.3448    8.5000   54.5098 -999.0000   65.3778    0.0587    2.4952  107.7283  922.8125   -3.1388   49.0000 
2987.4972    8.5000   53.6484 -999.0000   71.3467    0.0558    2.4949  107.6592  922.8750   -3.2434   49.0000 
2987.6496    8.5000   57.6630 -999.0000   64.8016    0.0592    2.4915  108.0154  922.8125   -3.1965   49.0000 
2987.8020    8.5000   55.9672 -999.0000   57.8077    0.0614    2.4986  109.7639  922.8750   -2.9811   49.0000 
2987.9544    8.5000   54.6088 -999.0000   53.3296    0.0784    2.5028  109.1656  922.8750   -2.3287   49.0000 
2988.1068    8.5000   51.6983 -999.0000   52.1380    0.0818    2.5093  108.7866  922.5000   -2.0871   49.0000 
2988.2592    8.5000   53.6135 -999.0000   49.9042    0.0792    2.5036  110.5918  922.8125   -2.2900   49.0000 
2988.4116    8.5000   52.6302 -999.0000   46.2003    0.0697    2.4961  111.9797  922.6875   -2.7552   49.0000 
2988.5640    8.5000   52.6302 -999.0000   44.0994    0.0707    2.4903  113.1571  922.7500   -2.8381   49.0000 
2988.7164    8.5000   52.4415 -999.0000   38.5792    0.0727    2.4990  114.2283  922.5625   -2.5973   49.0000 
