~VERSION INFORMATION
 VERS.                 2.0:   CWLS LOG ASCII STANDARD - VERSION 2.0
 WRAP.                  NO:   SINGLE LINE PER DEPTH STEP
 CREA.                 06/02/2020 16:33:07
#CREATED USING IP VERSION 4.5.2019.2902 BY RMOTA ON 06/02/2020 16:33:07
~WELL INFORMATION
#MNEM.UNIT       DATA                          DESCRIPTION MNEMONIC
#---------      ---------------------------   --------------------------
 STRT    .M         500.8250                  : START DEPTH
 STOP    .M         3050.8250                 : STOP DEPTH
 STEP    .M         0.1000                    : STEP VALUE
 NULL    .      -999.0000                     : NULL VALUE
 DATE    .      06/02/2020                    : LAS file Creation Date
 WELL   .      7-MP-34D-BA     : Well Name
 COMP   .      PETROBRAS       : Company
 FLD    .      MASSAPE         : Field
 STATE  .      BAHIA           : State
 API    .      20240022160     : API Number
 UWI    .                      : Unique Well Identifier (UWI)
 LOC    .                      : Location
 PDAT   .      NM              : Permanent Datum
 EPDAT  .      0.0             : Elevation of Permanent Datum
 LGMEA  .      MR              : Log Measured from
 DRMEA  .      MR              : Drill Measured From
 APDAT  .      65.65           : Elevation Above Permanent Datum
 KB     .      65.95           : KB Elevation
 DF     .      65.65           : DF Elevation
 RWS    .      -999            : Def_Rw
 WST    .      -999            : Def_Rwt
 PROV   .                      : Province
 SRVC   .                      : Contractor
 GDAT   .      WGS 84          : Geodatum
 LONG   .      -38.435477499961: Longitude
 LATI   .      0               : Latitude
 COORDIN.                      : Grid System
 XCOORD .                      : X or East-West Coordinate
 YCOORD .                      : Y or North-South Coordinate
~CURVE INFORMATION
#MNEM              UNIT       API CODE   Curve Type Comments
#----------  --------------- ----------  ---------- -----------
 DEPTH      .M                         : Depth       
 CAL        .inch                      : Caliper     
 BS         .in                        : BitSize     
 GR         .gAPI                      : GammaRay    
 ILD        .ohm.m                     : DeepRes     
 RHOB       .G/CC                      : Density     
 NPHI       .dec                       : Neutron     
 DT         .uS/ft                     : Sonic       
 DRDN       .                          :             
 Lith_new   .                          :             
~A  DEPTH    CAL        BS        GR       ILD       RHOB      NPHI       DT       DRDN    Lith_new 
# ...
1516.8250   12.7843   12.2500   72.2770    6.3233 -999.0000 -999.0000   73.3832 -999.0000 -999.0000 
1516.9250   12.7802   12.2500   76.7167    6.0883 -999.0000 -999.0000   74.1225 -999.0000 -999.0000 
1517.0250   12.7612   12.2500   81.9463    5.7981 -999.0000 -999.0000   75.3709 -999.0000 -999.0000 
1517.1250   12.7502   12.2500   87.6758    5.4887 -999.0000 -999.0000   76.9536 -999.0000 -999.0000 
1517.2250   12.7378   12.2500   93.0780    5.1947 -999.0000 -999.0000   78.7536 -999.0000 -999.0000 
1517.3250   12.7417   12.2500   98.2265    4.9353 -999.0000 -999.0000   80.5408 -999.0000 -999.0000 
1517.4250   12.7398   12.2500  102.0438    4.7220 -999.0000 -999.0000   82.2020 -999.0000 -999.0000 
1517.5250   12.7309   12.2500  105.3225    4.5686 -999.0000 -999.0000   83.5658 -999.0000 -999.0000 
1517.6250   12.7219   12.2500  107.3019    4.4830 -999.0000 -999.0000   84.5724 -999.0000 -999.0000 
1517.7250   12.7104   12.2500  107.2328    4.4582 -999.0000 -999.0000   85.0383 -999.0000 -999.0000 
1517.8250   12.7095   12.2500  105.4079    4.4766 -999.0000 -999.0000   85.0025 -999.0000 -999.0000 
1517.9250   12.7051   12.2500  102.0188    4.5192 -999.0000 -999.0000   84.5571 -999.0000 -999.0000 
1518.0250   12.6583   12.2500   99.1355    4.5709 -999.0000 -999.0000   83.9066 -999.0000 -999.0000 
1518.1250   12.6069   12.2500   96.8954    4.6239 -999.0000 -999.0000   83.1949 -999.0000 -999.0000 
1518.2250   12.5508   12.2500   96.6761    4.6758 -999.0000 -999.0000   82.4837 -999.0000 -999.0000 
1518.3250   12.4872   12.2500   97.6965    4.7256 -999.0000 -999.0000   81.6934 -999.0000 -999.0000 
1518.4250   12.4611   12.2500   98.8679    4.7739 -999.0000 -999.0000   80.9990 -999.0000 -999.0000 
1518.5250   12.4169   12.2500  100.3561    4.8263 -999.0000 -999.0000   80.5867 -999.0000 -999.0000 
1518.6250   12.3857   12.2500  100.9259    4.8980 -999.0000 -999.0000   80.5408 -999.0000 -999.0000 
1518.7250   12.3665   12.2500  100.3095    5.0105 -999.0000 -999.0000   80.8602 -999.0000 -999.0000 
1518.8250   12.3514   12.2500   98.6348    5.1815 -999.0000 -999.0000   81.1867 -999.0000 -999.0000 
1518.9250   12.3568   12.2500   95.7990    5.4073 -999.0000 -999.0000   81.2301 -999.0000 -999.0000 
1519.0250   12.3571   12.2500   92.2597    5.6441 -999.0000 -999.0000   80.7148 -999.0000 -999.0000 
1519.1250   12.3125   12.2500   89.7873    5.8094 -999.0000 -999.0000   79.6888 -999.0000 -999.0000 
1519.2250   12.2637   12.2500   88.6185    5.8371 -999.0000 -999.0000   78.3270 -999.0000 -999.0000 
1519.3250   12.2093   12.2500   89.0069    5.7344 -999.0000 -999.0000   77.1026 -999.0000 -999.0000 
1519.4250   12.1734   12.2500   91.5863    5.5690 -999.0000 -999.0000   76.2628 -999.0000 -999.0000 
1519.5250   12.1686   12.2500   93.9914    5.3975 -999.0000 -999.0000   76.0265 -999.0000 -999.0000 
1519.6250   12.1635   12.2500   96.6329    5.2443 -999.0000 -999.0000   76.4602 -999.0000 -999.0000 
1519.7250   12.1575   12.2500   99.4411    5.1140 -999.0000 -999.0000   77.2301 -999.0000 -999.0000 
1519.8250   12.1529   12.2500  101.6692    5.0154 -999.0000 -999.0000   78.1944 -999.0000 -999.0000 
1519.9250   12.1526   12.2500  104.8848    4.9673 -999.0000 -999.0000   78.9571 -999.0000 -999.0000 
1520.0250   12.1518   12.2500  107.3045    4.9865 -999.0000 -999.0000   79.2872 -999.0000 -999.0000 
1520.1250   12.1518   12.2500  107.8656    5.0792 -999.0000 -999.0000   79.3260 -999.0000 -999.0000 
1520.2250   12.1518   12.2500  106.7770    5.2370 -999.0000 -999.0000   79.1821 -999.0000 -999.0000 
1520.3250   12.1516   12.2500  103.3171    5.4457 -999.0000 -999.0000   79.2265 -999.0000 -999.0000 
1520.4250   12.1520   12.2500   99.8796    5.6818 -999.0000 -999.0000   79.4694 -999.0000 -999.0000 
1520.5250   12.1508   12.2500   97.1992    5.9155 -999.0000 -999.0000   79.7015 -999.0000 -999.0000 
1520.6250   12.1463   12.2500   95.3855    6.1198 -999.0000 -999.0000   79.7847 -999.0000 -999.0000 
1520.7250   12.1427   12.2500   95.0463    6.2888 -999.0000 -999.0000   79.6536 -999.0000 -999.0000 
1520.8250   12.1386   12.2500   94.0285    6.4209 -999.0000 -999.0000   79.3719 -999.0000 -999.0000 
1520.9250   12.1372   12.2500   92.8061    6.4973 -999.0000 -999.0000   79.1036 -999.0000 -999.0000 
1521.0250   12.1404   12.2500   90.6178    6.4910 -999.0000 -999.0000   78.6847 -999.0000 -999.0000 
1521.1250   12.1553   12.2500   86.6140    6.3894 -999.0000 -999.0000   78.0107 -999.0000 -999.0000 
1521.2250   12.1618   12.2500   83.4251    6.2246 -999.0000 -999.0000   77.0878 -999.0000 -999.0000 
1521.3250   12.1439   12.2500   80.6394    6.0475 -999.0000 -999.0000   75.9964 -999.0000 -999.0000 
1521.4250   12.1211   12.2500   79.7856    5.9082 -999.0000 -999.0000   75.1245 -999.0000 -999.0000 
1521.5250   12.0861   12.2500   80.8120    5.8279 -999.0000 -999.0000   74.4883 -999.0000 -999.0000 
1521.6250   12.0693   12.2500   80.6912    5.8130 -999.0000 -999.0000   74.2566 -999.0000 -999.0000 
1521.7250   12.0753   12.2500   78.8041    5.8448 -999.0000 -999.0000   74.1066 -999.0000 -999.0000 
1521.8250   12.0843   12.2500   74.5750    5.8907 -999.0000 -999.0000   73.9602 -999.0000 -999.0000 
1521.9250   12.0934   12.2500   69.7140    5.9586 -999.0000 -999.0000   73.5010 -999.0000 -999.0000 
1522.0250   12.1050   12.2500   66.6771    6.0658 -999.0000 -999.0000   72.5291 -999.0000 -999.0000 
1522.1250   12.1089   12.2500   66.6399    6.2116 -999.0000 -999.0000   71.2316 -999.0000 -999.0000 
1522.2250   12.1120   12.2500   68.1498    6.3485 -999.0000 -999.0000   69.6235 -999.0000 -999.0000 
1522.3250   12.1150   12.2500   70.9441    6.4466 -999.0000 -999.0000   68.2357 -999.0000 -999.0000 
1522.4250   12.1166   12.2500   72.4911    6.4811 -999.0000 -999.0000   67.1495 -999.0000 -999.0000 
1522.5250   12.1170   12.2500   72.7052    6.4671 -999.0000 -999.0000   66.6296 -999.0000 -999.0000 
1522.6250   12.1168   12.2500   73.1377    6.4268 -999.0000 -999.0000   66.6342 -999.0000 -999.0000 
1522.7250   12.1164   12.2500   72.0422    6.3808 -999.0000 -999.0000   67.0617 -999.0000 -999.0000 
1522.8250   12.1165   12.2500   70.9752    6.3361 -999.0000 -999.0000   66.2112 -999.0000 -999.0000 
1522.9250   12.1168   12.2500   69.5629    6.2880 -999.0000 -999.0000   63.0036 -999.0000 -999.0000 
1523.0250   12.1198   12.2500   68.3984    6.2331 -999.0000 -999.0000   57.4265 -999.0000 -999.0000 
1523.1250   12.1236   12.2500   67.7717    6.1696 -999.0000 -999.0000   50.3602 -999.0000 -999.0000 
1523.2250   12.1311   12.2500   68.8153    6.1029 -999.0000 -999.0000   45.4357 -999.0000 -999.0000 
1523.3250   12.1435   12.2500   71.4863    6.0273 -999.0000 -999.0000   43.1750 -999.0000 -999.0000 
1523.4250   12.1558   12.2500   73.1472    5.9402 -999.0000 -999.0000   45.4194 -999.0000 -999.0000 
1523.5250   12.1698   12.2500   75.0161    5.8459 -999.0000 -999.0000   50.9337 -999.0000 -999.0000 
1523.6250   12.1780   12.2500   75.1870    5.7650 -999.0000 -999.0000   59.0556 -999.0000 -999.0000 
1523.7250   12.1838   12.2500   73.9552    5.7110 -999.0000 -999.0000   66.6949 -999.0000 -999.0000 
1523.8250   12.1915   12.2500   73.8749    5.6845 -999.0000 -999.0000   71.6311 -999.0000 -999.0000 
1523.9250   12.1996   12.2500   74.7485    5.6759 -999.0000 -999.0000   73.7908 -999.0000 -999.0000 
1524.0250   12.2119   12.2500   78.0988    5.6803 -999.0000 -999.0000   73.6592 -999.0000 -999.0000 
1524.1250   12.2212   12.2500   82.6499    5.6956 -999.0000 -999.0000   73.2806 -999.0000 -999.0000 
1524.2250   12.2283   12.2500   87.2977    5.7182 -999.0000 -999.0000   73.0679 -999.0000 -999.0000 
1524.3250   12.2322   12.2500   90.8724    5.7473 -999.0000 -999.0000   73.0883 -999.0000 -999.0000 
1524.4250   12.2337   12.2500   91.9877    5.7805 -999.0000 -999.0000   73.5260 -999.0000 -999.0000 
1524.5250   12.2340   12.2500   92.2493    5.8150 -999.0000 -999.0000   74.4597 -999.0000 -999.0000 
1524.6250   12.2351   12.2500   91.7417    5.8395 -999.0000 -999.0000   75.6393 -999.0000 -999.0000 
1524.7250   12.2418   12.2500   91.6226    5.8425 -999.0000 -999.0000   76.8801 -999.0000 -999.0000 
