~VERSION INFORMATION
 VERS.                 2.0:   CWLS LOG ASCII STANDARD - VERSION 2.0
 WRAP.                  NO:   SINGLE LINE PER DEPTH STEP
 CREA.                 06/02/2020 16:33:07
#CREATED USING IP VERSION 4.5.2019.2902 BY RMOTA ON 06/02/2020 16:33:07
~WELL INFORMATION
#MNEM.UNIT       DATA                          DESCRIPTION MNEMONIC
#---------      ---------------------------   --------------------------
 STRT    .M         500.8250                  : START DEPTH
 STOP    .M         3050.8250                 : STOP DEPTH
 STEP    .M         0.1000                    : STEP VALUE
 NULL    .      -999.0000                     : NULL VALUE
 DATE    .      06/02/2020                    : LAS file Creation Date
 WELL   .      7-MP-34D-BA     : Well Name
 COMP   .      PETROBRAS       : Company
 FLD    .      MASSAPE         : Field
 STATE  .      BAHIA           : State
 API    .      20240022160     : API Number
 UWI    .                      : Unique Well Identifier (UWI)
 LOC    .                      : Location
 PDAT   .      NM              : Permanent Datum
 EPDAT  .      0.0             : Elevation of Permanent Datum
 LGMEA  .      MR              : Log Measured from
 DRMEA  .      MR              : Drill Measured From
 APDAT  .      65.65           : Elevation Above Permanent Datum
 KB     .      65.95           : KB Elevation
 DF     .      65.65           : DF Elevation
 RWS    .      -999            : Def_Rw
 WST    .      -999            : Def_Rwt
 PROV   .                      : Province
 SRVC   .                      : Contractor
 GDAT   .      WGS 84          : Geodatum
 LONG   .      -38.435477499961: Longitude
 LATI   .      0               : Latitude
 COORDIN.                      : Grid System
 XCOORD .                      : X or East-West Coordinate
 YCOORD .                      : Y or North-South Coordinate
~CURVE INFORMATION
#MNEM              UNIT       API CODE   Curve Type Comments
#----------  --------------- ----------  ---------- -----------
 DEPTH      .M                         : Depth       
 CAL        .inch                      : Caliper     
 BS         .in                        : BitSize     
 GR         .gAPI                      : GammaRay    
 ILD        .ohm.m                     : DeepRes     
 RHOB       .G/CC                      : Density     
 NPHI       .dec                       : Neutron     
 DT         .uS/ft                     : Sonic       
 DRDN       .                          :             
 Lith_new   .                          :             
~A  DEPTH    CAL        BS        GR       ILD       RHOB      NPHI       DT       DRDN    Lith_new 
 500.8250 -999.0000 -999.0000 -999.0000 -999.0000 -999.0000 -999.0000 -999.0000 -999.0000 -999.0000 
 500.9250   12.7776   12.2500   59.8582    8.2058 -999.0000 -999.0000   58.0454 -999.0000 -999.0000 
 501.0250   12.7774   12.2500   61.9438    8.5488 -999.0000 -999.0000   57.9653 -999.0000 -999.0000 
 501.1250   12.7757   12.2500   62.9953    9.4241 -999.0000 -999.0000   57.6694 -999.0000 -999.0000 
 501.2250   12.7757   12.2500   63.2905   11.1484 -999.0000 -999.0000   57.4485 -999.0000 -999.0000 
 501.3250   12.7757   12.2500   62.8485   14.3906 -999.0000 -999.0000   57.4056 -999.0000 -999.0000 
 501.4250   12.7760   12.2500   61.9611   20.6511 -999.0000 -999.0000   57.6735 -999.0000 -999.0000 
 501.5250   12.7765   12.2500   61.0288   33.5815 -999.0000 -999.0000   58.1046 -999.0000 -999.0000 
 501.6250   12.7773   12.2500   60.1750   63.0036 -999.0000 -999.0000   58.3138 -999.0000 -999.0000 
 501.7250   12.7774   12.2500   59.7572  138.5501 -999.0000 -999.0000   58.3122 -999.0000 -999.0000 
 501.8250   12.7771   12.2500   59.2772  361.8561 -999.0000 -999.0000   58.2577 -999.0000 -999.0000 
 501.9250   12.7768   12.2500   58.1869 1134.0370 -999.0000 -999.0000   58.3332 -999.0000 -999.0000 
 502.0250   12.7760   12.2500   57.5050 4292.9302 -999.0000 -999.0000   58.7138 -999.0000 -999.0000 
 502.1250   12.7759   12.2500   56.4794 19565.4141 -999.0000 -999.0000   59.1786 -999.0000 -999.0000 
 502.2250   12.7771   12.2500   55.6921 20000.0000 -999.0000 -999.0000   59.6510 -999.0000 -999.0000 
 502.3250   12.7783   12.2500   56.3042 20000.0000 -999.0000 -999.0000   60.0434 -999.0000 -999.0000 
 502.4250   12.7784   12.2500   57.0802 20000.0000 -999.0000 -999.0000   60.2168 -999.0000 -999.0000 
 502.5250   12.7781   12.2500   58.8827 20000.0000 -999.0000 -999.0000   60.1602 -999.0000 -999.0000 
 502.6250   12.7775   12.2500   61.2032 20000.0000 -999.0000 -999.0000   60.0077 -999.0000 -999.0000 
 502.7250   12.7759   12.2500   63.0428 3791.1392 -999.0000 -999.0000   59.8602 -999.0000 -999.0000 
 502.8250   12.7749   12.2500   63.6634  299.9579 -999.0000 -999.0000   59.8393 -999.0000 -999.0000 
 502.9250   12.7727   12.2500   62.8606   28.6051 -999.0000 -999.0000   60.0245 -999.0000 -999.0000 
 503.0250   12.7694   12.2500   60.6887    3.3269 -999.0000 -999.0000   61.4515 -999.0000 -999.0000 
 503.1250   12.7660   12.2500   58.0963    0.4743 -999.0000 -999.0000   65.5959 -999.0000 -999.0000 
 503.2250   12.7617   12.2500   56.6132    0.0831 -999.0000 -999.0000   72.7061 -999.0000 -999.0000 
 503.3250   12.7573   12.2500   55.8406    0.0179 -999.0000 -999.0000   82.0520 -999.0000 -999.0000 
 503.4250   12.7532   12.2500   55.7888    0.0048 -999.0000 -999.0000   89.9719 -999.0000 -999.0000 
 503.5250   12.7500   12.2500   56.1427    0.0016 -999.0000 -999.0000   95.0474 -999.0000 -999.0000 
 503.6250   12.7480   12.2500   56.0366    0.0010 -999.0000 -999.0000   97.0031 -999.0000 -999.0000 
 503.7250   12.7438   12.2500   56.2981    0.0010 -999.0000 -999.0000   96.7439 -999.0000 -999.0000 
 503.8250   12.7610   12.2500   57.5861    0.0010 -999.0000 -999.0000   96.0842 -999.0000 -999.0000 
 503.9250   12.8064   12.2500   58.9665    0.0010 -999.0000 -999.0000   97.2480 -999.0000 -999.0000 
 504.0250   12.8365   12.2500   61.3093    0.0010 -999.0000 -999.0000  101.6597 -999.0000 -999.0000 
 504.1250   12.8231   12.2500   64.8306    0.0010 -999.0000 -999.0000  108.6597 -999.0000 -999.0000 
 504.2250   12.7867   12.2500   68.0695    0.0010 -999.0000 -999.0000  115.6816 -999.0000 -999.0000 
 504.3250   12.7064   12.2500   71.6270    0.0010 -999.0000 -999.0000  118.7276 -999.0000 -999.0000 
 504.4250   12.6794   12.2500   74.7278    0.0010 -999.0000 -999.0000  119.0724 -999.0000 -999.0000 
 504.5250   12.6681   12.2500   75.4175    0.0025 -999.0000 -999.0000  117.1939 -999.0000 -999.0000 
 504.6250   12.6632   12.2500   76.2722    0.0086 -999.0000 -999.0000  115.3862 -999.0000 -999.0000 
 504.7250   12.7190   12.2500   76.4094    0.0365 -999.0000 -999.0000  113.7163 -999.0000 -999.0000 
 504.8250   12.8375   12.2500   76.6054    0.1932 -999.0000 -999.0000  111.5811 -999.0000 -999.0000 
 504.9250   12.9157   12.2500   77.8450    1.2683 -999.0000 -999.0000  109.5332 -999.0000 -999.0000 
 505.0250   12.9479   12.2500   77.6309   10.3071 -999.0000 -999.0000  108.2031 -999.0000 -999.0000 
 505.1250   12.9376   12.2500   78.3448  103.1549 -999.0000 -999.0000  108.0245 -999.0000 -999.0000 
 505.2250   12.9020   12.2500   78.3051 1259.3365 -999.0000 -999.0000  109.6046 -999.0000 -999.0000 
 505.3250   12.9279   12.2500   78.0945 18057.8047 -999.0000 -999.0000  111.1265 -999.0000 -999.0000 
 505.4250   12.9616   12.2500   78.9629 20000.0000 -999.0000 -999.0000  112.1199 -999.0000 -999.0000 
 505.5250   12.9568   12.2500   78.5382 20000.0000 -999.0000 -999.0000  112.4673 -999.0000 -999.0000 
 505.6250   12.9409   12.2500   78.3077 5729.6440 -999.0000 -999.0000  112.4725 -999.0000 -999.0000 
 505.7250   12.9273   12.2500   77.6836 1236.6473 -999.0000 -999.0000  112.9097 -999.0000 -999.0000 
 505.8250   12.9185   12.2500   76.7107  323.7859 -999.0000 -999.0000  113.4485 -999.0000 -999.0000 
 505.9250   12.9139   12.2500   76.5553  102.4594 -999.0000 -999.0000  113.6908 -999.0000 -999.0000 
 506.0250   12.9170   12.2500   76.6045   38.8811 -999.0000 -999.0000  113.6719 -999.0000 -999.0000 
 506.1250   12.9313   12.2500   78.2930   17.5132 -999.0000 -999.0000  113.8439 -999.0000 -999.0000 
 506.2250   12.9724   12.2500   79.8245    9.2458 -999.0000 -999.0000  114.5791 -999.0000 -999.0000 
 506.3250   13.0103   12.2500   80.4477    6.6315 -999.0000 -999.0000  116.2087 -999.0000 -999.0000 
 506.4250   13.0448   12.2500   81.5259    3.5557 -999.0000 -999.0000  118.8321 -999.0000 -999.0000 
 506.5250   13.0610   12.2500   81.3680    2.6033 -999.0000 -999.0000  124.2582 -999.0000 -999.0000 
 506.6250   13.0508   12.2500   81.4206    2.2433 -999.0000 -999.0000  131.5969 -999.0000 -999.0000 
 506.7250   13.0404   12.2500   82.2580    2.0749 -999.0000 -999.0000  137.8735 -999.0000 -999.0000 
 506.8250   13.0448   12.2500   81.7737    2.0136 -999.0000 -999.0000  140.2816 -999.0000 -999.0000 
 506.9250   13.0908   12.2500   79.7347    1.9875 -999.0000 -999.0000  135.0755 -999.0000 -999.0000 
 507.0250   13.1494   12.2500   77.6232    1.9799 -999.0000 -999.0000  127.2663 -999.0000 -999.0000 
 507.1250   13.2679   12.2500   75.2423    1.9735 -999.0000 -999.0000  120.9653 -999.0000 -999.0000 
 507.2250   13.4239   12.2500   73.4148    1.9690 -999.0000 -999.0000  120.3847 -999.0000 -999.0000 
 507.3250   13.5561   12.2500   73.3526    1.9626 -999.0000 -999.0000  126.6505 -999.0000 -999.0000 
 507.4250   13.7036   12.2500   72.6845    1.9551 -999.0000 -999.0000  135.5301 -999.0000 -999.0000 
 507.5250   13.7824   12.2500   71.9749    1.9504 -999.0000 -999.0000  144.6000 -999.0000 -999.0000 
 507.6250   13.8137   12.2500   71.3222    1.9468 -999.0000 -999.0000  152.2724 -999.0000 -999.0000 
 507.7250   13.8393   12.2500   69.9212    1.9370 -999.0000 -999.0000  158.1444 -999.0000 -999.0000 
 507.8250   13.8251   12.2500   68.5797    1.9317 -999.0000 -999.0000  163.7694 -999.0000 -999.0000 
 507.9250   13.8185   12.2500   66.9844    1.9228 -999.0000 -999.0000  169.1735 -999.0000 -999.0000 
 508.0250   13.8161   12.2500   65.5721    1.8930 -999.0000 -999.0000  173.8403 -999.0000 -999.0000 
 508.1250   13.8105   12.2500   64.7831    1.8606 -999.0000 -999.0000  176.6597 -999.0000 -999.0000 
 508.2250   13.8252   12.2500   64.5535    1.8257 -999.0000 -999.0000  177.2270 -999.0000 -999.0000 
 508.3250   13.8268   12.2500   65.2924    1.7971 -999.0000 -999.0000  175.1607 -999.0000 -999.0000 
 508.4250   13.8318   12.2500   68.0842    1.7869 -999.0000 -999.0000  172.3031 -999.0000 -999.0000 
 508.5250   13.8247   12.2500   72.1389    1.7837 -999.0000 -999.0000  169.1051 -999.0000 -999.0000 
 508.6250   13.7735   12.2500   78.0056    1.7868 -999.0000 -999.0000  165.5077 -999.0000 -999.0000 
 508.7250   13.7048   12.2500   84.3488    1.8009 -999.0000 -999.0000  161.7000 -999.0000 -999.0000 
