~VERSION INFORMATION
 VERS.                 2.0:   CWLS LOG ASCII STANDARD - VERSION 2.0
 WRAP.                  NO:   SINGLE LINE PER DEPTH STEP
 CREA.                 06/02/2020 16:07:36
#CREATED USING IP VERSION 4.5.2019.2902 BY RMOTA ON 06/02/2020 16:07:36
~WELL INFORMATION
#MNEM.UNIT       DATA                          DESCRIPTION MNEMONIC
#---------      ---------------------------   --------------------------
 STRT    .M         18.4404                   : START DEPTH
 STOP    .M         3544.2144                 : STOP DEPTH
 STEP    .M         0.1524                    : STEP VALUE
 NULL    .      -999.0000                     : NULL VALUE
 DATE    .      06/02/2020                    : LAS file Creation Date
 WELL   .      7-MP-25-BA         : Well Name
 COMP   .      PETROBRAS          : Company
 FLD    .      MASSAPE            : Field
 STATE  .      20240021268        : State
 COUNT  .      BRASIL             : Country
 API    .      20240021268        : API Number
 UWI    .                         : Unique Well Identifier (UWI)
 LOC    .      N= 8.607.478,570 m : Location
 TOWN   .      CTU                : Township
 SCT    .      OH WIRELINE        : Section
 RANG   .      SCHLUMBERGER       : Range
 PDAT   .      NM                 : Permanent Datum
 EPDAT  .      0                  : Elevation of Permanent Datum
 LGMEA  .      MR                 : Log Measured from
 DRMEA  .      MR                 : Drill Measured From
 APDAT  .      65.76              : Elevation Above Permanent Datum
 KB     .      66.06              : KB Elevation
 DF     .      65.76              : DF Elevation
 GL     .      56.36              : GL Elevation
 RWS    .      -999               : Def_Rw
 WST    .      -999               : Def_Rwt
 BHS    .      OPEN               : Completion Status
 PROV   .                         : Province
 MDEC   .      -23.10323          : Magnetic Declination
 SRVC   .                         : Contractor
 GDAT   .      WGS 84             : Geodatum
 LONG   .      -38.4344958333174  : Longitude
 LATI   .      -12.5959183332655  : Latitude
 COORDIN.                         : Grid System
 XCOORD .                         : X or East-West Coordinate
 YCOORD .                         : Y or North-South Coordinate
~CURVE INFORMATION
#MNEM              UNIT       API CODE   Curve Type Comments
#----------  --------------- ----------  ---------- -----------
 DEPTH      .M                         : Depth       
 BS         .in                        : BitSize     
 GR         .gAPI                      : GammaRay    
 CAL        .inch                      : Caliper     
 RT         .ohm.m                     : DeepRes     
 NPHI       .m3/m3                     : Neutron     
 RHOB       .g/cm3                     : Density     
 DT         .us/ft                     : Sonic       
 SP         .mV                        : SP          
 DRDN       .                          :             
 Lith_new   .                          :             
~A  DEPTH     BS        GR       CAL        RT       NPHI      RHOB       DT        SP       DRDN    Lith_new 
# ...
3500.6280    8.5000  116.6545 -999.0000    7.0068    0.2569 -999.0000  152.4151  288.3125 -999.0000 -999.0000 
3500.7804    8.5000  104.7683 -999.0000    6.2758    0.2911 -999.0000  156.5793  287.8125 -999.0000 -999.0000 
3500.9328    8.5000  109.3529 -999.0000    5.5795    0.2858 -999.0000  154.9986  286.9375 -999.0000 -999.0000 
3501.0852    8.5000  106.8059 -999.0000    5.1021    0.2952 -999.0000  150.8311  287.3750 -999.0000 -999.0000 
3501.2376    8.5000  109.8098 -999.0000    4.8706    0.2781 -999.0000  147.8084  287.0625 -999.0000 -999.0000 
3501.3900    8.5000  106.9232 -999.0000    5.0838    0.2639 -999.0000  148.8018  286.4375 -999.0000 -999.0000 
3501.5424    8.5000  105.1045 -999.0000    5.3063    0.2486 -999.0000  148.6367  285.0625 -999.0000 -999.0000 
3501.6948    8.5000  104.4778 -999.0000    5.4586    0.2286 -999.0000  149.1674  285.1250 -999.0000 -999.0000 
3501.8472    8.5000  104.8175 -999.0000    5.7466    0.2512 -999.0000  152.7144  285.3750 -999.0000 -999.0000 
3501.9996    8.5000  108.5040 -999.0000    6.0216    0.2662 -999.0000  154.6716  283.5625 -999.0000 -999.0000 
3502.1520    8.5000  111.8434 -999.0000    5.9432    0.2787 -999.0000  165.4821  282.9375 -999.0000 -999.0000 
3502.3044    8.5000  110.3152 -999.0000    5.5300    0.2791 -999.0000  165.4821  281.8125 -999.0000 -999.0000 
3502.4568    8.5000  108.2776 -999.0000    5.1384    0.2799 -999.0000  167.8965  280.5625 -999.0000 -999.0000 
3502.6092    8.5000  107.0823 -999.0000    4.7122    0.2734 -999.0000  169.7052  281.5000 -999.0000 -999.0000 
3502.7616    8.5000  106.0634 -999.0000    4.4026    0.2778 -999.0000  169.5869  284.5000 -999.0000 -999.0000 
3502.9140    8.5000  108.1011 -999.0000    4.2783    0.2920 -999.0000  168.8498  281.7500 -999.0000 -999.0000 
3503.0664    8.5000  109.5228 -999.0000    4.3454    0.3005 -999.0000  167.1806  279.5000 -999.0000 -999.0000 
3503.2188    8.5000  112.0160 -999.0000    4.4525    0.2847 -999.0000  166.4024  278.5000 -999.0000 -999.0000 
3503.3712    8.5000  119.2760 -999.0000    4.5731    0.2661 -999.0000  163.0947  278.3750 -999.0000 -999.0000 
3503.5236    8.5000  122.1627 -999.0000    4.9136    0.2799 -999.0000  164.1860  277.9375 -999.0000 -999.0000 
3503.6760    8.5000  127.1052 -999.0000    5.2559    0.2991 -999.0000  160.3451  275.2500 -999.0000 -999.0000 
3503.8284    8.5000  124.8404 -999.0000    5.5538    0.2967 -999.0000  158.7022  276.0625 -999.0000 -999.0000 
3503.9808    8.5000  128.0667 -999.0000    5.8980    0.2879 -999.0000  159.8364  276.2500 -999.0000 -999.0000 
3504.1332    8.5000 -999.0000 -999.0000    6.3310    0.2816 -999.0000  157.9220  278.1875 -999.0000 -999.0000 
3504.2856    8.5000 -999.0000 -999.0000    6.6967    0.2844 -999.0000  157.6410  278.4375 -999.0000 -999.0000 
3504.4380    8.5000 -999.0000 -999.0000    6.8740    0.2619 -999.0000  157.7639  280.1250 -999.0000 -999.0000 
3504.5904    8.5000 -999.0000 -999.0000    7.0302    0.2512 -999.0000  159.1876  279.2500 -999.0000 -999.0000 
3504.7428    8.5000 -999.0000 -999.0000    7.5318    0.2458 -999.0000  159.6951  277.5000 -999.0000 -999.0000 
3504.8952    8.5000 -999.0000 -999.0000    7.3093    0.2384 -999.0000  158.6720  275.3750 -999.0000 -999.0000 
3505.0476    8.5000 -999.0000 -999.0000    5.8797    0.2405 -999.0000  157.1324  275.2500 -999.0000 -999.0000 
3505.2000    8.5000 -999.0000 -999.0000    4.9030    0.2473 -999.0000  156.9500  275.4375 -999.0000 -999.0000 
3505.3524    8.5000 -999.0000 -999.0000    5.0481    0.2830 -999.0000  151.2271  276.6250 -999.0000 -999.0000 
3505.5048    8.5000 -999.0000 -999.0000    5.3245    0.2731 -999.0000  146.4812  277.0625 -999.0000 -999.0000 
3505.6572    8.5000 -999.0000 -999.0000    5.0669    0.2680 -999.0000  141.6488  275.5625 -999.0000 -999.0000 
3505.8096    8.5000 -999.0000 -999.0000    5.1914    0.2431 -999.0000  138.5740  275.6875 -999.0000 -999.0000 
3505.9620    8.5000 -999.0000 -999.0000    5.9479    0.2450 -999.0000  134.1658  276.1250 -999.0000 -999.0000 
3506.1144    8.5000 -999.0000 -999.0000    6.9882    0.2317 -999.0000  130.7713  274.3125 -999.0000 -999.0000 
3506.2668    8.5000 -999.0000 -999.0000    8.1284    0.2298 -999.0000  130.5902  274.3750 -999.0000 -999.0000 
3506.4192    8.5000 -999.0000 -999.0000    9.4681    0.2248 -999.0000  132.8906  276.1250 -999.0000 -999.0000 
3506.5716    8.5000 -999.0000 -999.0000   10.9776    0.2198 -999.0000  133.8950  276.3750 -999.0000 -999.0000 
3506.7240    8.5000 -999.0000 -999.0000   12.3365    0.2210 -999.0000  136.6419  274.9375 -999.0000 -999.0000 
3506.8764    8.5000 -999.0000 -999.0000   12.2469    0.2486 -999.0000  140.1894  273.6875 -999.0000 -999.0000 
3507.0288    8.5000 -999.0000 -999.0000    9.8969    0.2647 -999.0000  145.2259  272.8750 -999.0000 -999.0000 
3507.1812    8.5000 -999.0000 -999.0000    8.2100    0.2497 -999.0000  147.0577  272.5000 -999.0000 -999.0000 
3507.3336    8.5000 -999.0000 -999.0000    7.1446    0.2128 -999.0000  148.2483  271.4375 -999.0000 -999.0000 
3507.4860    8.5000 -999.0000 -999.0000    6.9252    0.2088 -999.0000  146.7273  271.2500 -999.0000 -999.0000 
3507.6384    8.5000 -999.0000 -999.0000    6.7470    0.2200 -999.0000  145.7567  270.8125 -999.0000 -999.0000 
3507.7908    8.5000 -999.0000 -999.0000    5.8059    0.2336 -999.0000  139.8289  270.8125 -999.0000 -999.0000 
3507.9432    8.5000 -999.0000 -999.0000    4.9793    0.2172 -999.0000  134.2926  272.5625 -999.0000 -999.0000 
3508.0956    8.5000 -999.0000 -999.0000    5.3690    0.1831 -999.0000  129.1774  271.7500 -999.0000 -999.0000 
3508.2480    8.5000 -999.0000 -999.0000    7.3105    0.1379 -999.0000  124.9789  272.1875 -999.0000 -999.0000 
3508.4004    8.5000 -999.0000 -999.0000   10.4193    0.1209 -999.0000  124.4307  273.8750 -999.0000 -999.0000 
3508.5528    8.5000 -999.0000 -999.0000   12.0912    0.1458 -999.0000  125.2995  274.5000 -999.0000 -999.0000 
3508.7052    8.5000 -999.0000 -999.0000   13.0605    0.1718 -999.0000  126.4372  274.9375 -999.0000 -999.0000 
3508.8576    8.5000 -999.0000 -999.0000   10.6026    0.1882 -999.0000  127.5332  274.0625 -999.0000 -999.0000 
3509.0100    8.5000 -999.0000 -999.0000    9.9906    0.1727 -999.0000  128.3499  273.6875 -999.0000 -999.0000 
3509.1624    8.5000 -999.0000 -999.0000   10.8786    0.1601 -999.0000  125.7757  274.1875 -999.0000 -999.0000 
3509.3148    8.5000 -999.0000 -999.0000   12.2561    0.1380 -999.0000  126.1586  273.4375 -999.0000 -999.0000 
3509.4672    8.5000 -999.0000 -999.0000   13.7760    0.0970 -999.0000  123.9798  274.0000 -999.0000 -999.0000 
3509.6196    8.5000 -999.0000 -999.0000   15.1029    0.0663 -999.0000  120.8343  274.1875 -999.0000 -999.0000 
3509.7720    8.5000 -999.0000 -999.0000   17.5995    0.0824 -999.0000  124.3502  274.9375 -999.0000 -999.0000 
3509.9244    8.5000 -999.0000 -999.0000   22.7920    0.1337 -999.0000  126.2385  277.0000 -999.0000 -999.0000 
3510.0768    8.5000 -999.0000 -999.0000   15.6627    0.1918 -999.0000  133.8983  276.3750 -999.0000 -999.0000 
3510.2292    8.5000 -999.0000 -999.0000    9.2133    0.2148 -999.0000  137.2481  273.3125 -999.0000 -999.0000 
3510.3816    8.5000 -999.0000 -999.0000    6.9342    0.2320 -999.0000  144.9071  273.4375 -999.0000 -999.0000 
3510.5340    8.5000 -999.0000 -999.0000    6.2258    0.2466 -999.0000  145.4639  273.8125 -999.0000 -999.0000 
3510.6864    8.5000 -999.0000 -999.0000    5.7508    0.2498 -999.0000  143.3974  276.6250 -999.0000 -999.0000 
3510.8388    8.5000 -999.0000 -999.0000    5.4265    0.2416 -999.0000  140.4465  276.3125 -999.0000 -999.0000 
3510.9912    8.5000 -999.0000 -999.0000    5.1581    0.2219 -999.0000  137.2991  275.4375 -999.0000 -999.0000 
3511.1436    8.5000 -999.0000 -999.0000    5.1651    0.2017 -999.0000  130.2460  274.8750 -999.0000 -999.0000 
3511.2960    8.5000 -999.0000 -999.0000    5.8913    0.1883 -999.0000  127.1757  274.6250 -999.0000 -999.0000 
3511.4484    8.5000 -999.0000 -999.0000    7.0650    0.1803 -999.0000  124.7591  274.2500 -999.0000 -999.0000 
3511.6008    8.5000 -999.0000 -999.0000    8.5489    0.1785 -999.0000  124.6953  272.1875 -999.0000 -999.0000 
