~VERSION INFORMATION
 VERS.                 2.0:   CWLS LOG ASCII STANDARD - VERSION 2.0
 WRAP.                  NO:   SINGLE LINE PER DEPTH STEP
 CREA.                 30/01/2020 17:31:38
#CREATED USING IP VERSION 4.5.2019.2902 BY RMOTA ON 30/01/2020 17:31:38
~WELL INFORMATION
#MNEM.UNIT       DATA                          DESCRIPTION MNEMONIC
#---------      ---------------------------   --------------------------
 STRT    .M         5.9400                    : START DEPTH
 STOP    .M         3362.3976                 : STOP DEPTH
 STEP    .M         0.1524                    : STEP VALUE
 NULL    .      -999.0000                     : NULL VALUE
 DATE    .      30/01/2020                    : LAS file Creation Date
 WELL   .      7-MP-31D-BA        : Well Name
 COMP   .      PETROBRAS          : Company
 FLD    .      MASSAPE            : Field
 STATE  .      BAHIA              : State
 COUNT  .      BRASIL             : Country
 API    .      20240021426        : API Number
 UWI    .                         : Unique Well Identifier (UWI)
 LOC    .      N= 8.608.492,720 m : Location
 TOWN   .      CATU               : Township
 SCT    .      OH WIRELINE        : Section
 RANG   .      SCHLUMBERGER       : Range
 PDAT   .      NM                 : Permanent Datum
 EPDAT  .      0                  : Elevation of Permanent Datum
 LGMEA  .      MR                 : Log Measured from
 DRMEA  .      MR                 : Drill Measured From
 APDAT  .      66.4               : Elevation Above Permanent Datum
 KB     .      66.7               : KB Elevation
 DF     .      66.4               : DF Elevation
 GL     .      57                 : GL Elevation
 RWS    .      -999               : Def_Rw
 WST    .      -999               : Def_Rwt
 BHS    .      OPEN               : Completion Status
 PROV   .                         : Province
 SRVC   .                         : Contractor
 GDAT   .      WGS 84             : Geodatum
 LONG   .      -38.4314536115858  : Longitude
 LATI   .      -12.5867413889037  : Latitude
 COORDIN.                         : Grid System
 XCOORD .                         : X or East-West Coordinate
 YCOORD .                         : Y or North-South Coordinate
~CURVE INFORMATION
#MNEM              UNIT       API CODE   Curve Type Comments
#----------  --------------- ----------  ---------- -----------
 DEPTH      .M                         : Depth       
 CALI       .inch                      : Caliper     
 BS         .in                        : BitSize     
 GR         .gAPI                      : GammaRay    
 RT         .ohm.m                     : DeepRes     
 NPHI       .m3/m3                     : Neutron     
 RHOB       .g/cm3                     :             
 DT         .us/ft                     : Sonic       
 SP         .mV                        : SP          
 N_Res      .                          :             
 Res        .                          :             
 DRDN       .                          :             
 Lith_new   .                          :             
 DEPTH      .M                         : Depth       
~A  DEPTH    CALI       BS        GR        RT       NPHI      RHOB       DT        SP      N_Res      Res       DRDN    Lith_new   DEPTH   
# ...
 674.8236   12.1570   12.2500   63.8908    9.3663    0.2571    2.4226   92.0652  254.9390 -999.0000 -999.0000    1.8515   57.0000  674.8236 
 674.9760   12.1082   12.2500   51.4516   13.2374    0.1925    2.4127   87.5599  254.6324 -999.0000 -999.0000   -0.2473   54.0000  674.9760 
 675.1284   12.1070   12.2500   51.3986   22.8571    0.1598    2.4382   86.7850  254.2589 -999.0000 -999.0000   -0.6556   25.0000  675.1284 
 675.2808   12.1070   12.2500   66.9392   20.6487    0.1713    2.4736   88.7995  254.0059 -999.0000 -999.0000    0.3763   57.0000  675.2808 
 675.4332   12.1194   12.2500   84.6855   12.7335    0.2758    2.4911   95.5068  253.9390 -999.0000 -999.0000    4.0247   57.0000  675.4332 
 675.5856   12.1073   12.2500   96.0395    8.6505    0.3395    2.4874  105.4977  254.2426 -999.0000 -999.0000    6.0375   57.0000  675.5856 
 675.7380   12.1317   12.2500   98.5283    6.7935    0.3731    2.4872  107.8894  254.2500 -999.0000 -999.0000    7.1712   57.0000  675.7380 
 675.8904   12.1076   12.2500   97.0766    5.9119    0.3661    2.4821  110.2157  254.7992 -999.0000 -999.0000    6.8195   57.0000  675.8904 
 676.0428   12.1070   12.2500  101.0299    5.5680    0.3524    2.4775  109.9473  255.6058 -999.0000 -999.0000    6.2047   57.0000  676.0428 
 676.1952   12.1317   12.2500   96.8342    5.6254    0.3781    2.4562  108.5890  256.0522 -999.0000 -999.0000    6.5857   57.0000  676.1952 
 676.3476   12.1076   12.2500   86.7696    6.0629    0.3163    2.4423  103.0833  256.0015 -999.0000 -999.0000    4.3087   57.0000  676.3476 
 676.5000   12.0823   12.2500   71.4328    7.2608    0.2635    2.4267   98.8802  255.5728 -999.0000 -999.0000    2.2302   57.0000  676.5000 
 676.6524   12.0817   12.2500   66.6825   10.5016    0.2092    2.4188   95.3077  255.6845 -999.0000 -999.0000    0.3069   57.0000  676.6524 
 676.8048   12.0817   12.2500   68.2810   13.3161    0.2359    2.4096   93.2673  255.5044 -999.0000 -999.0000    0.9903   57.0000  676.8048 
 676.9572   12.0817   12.2500   64.8068   12.1041    0.2579    2.4037   94.6692  255.9272 -999.0000 -999.0000    1.6483   57.0000  676.9572 
 677.1096   12.0817   12.2500   58.2980   11.9081    0.2336    2.3979   89.8134  255.9985 -999.0000 -999.0000    0.6912   57.0000  677.1096 
 677.2620   12.0570   12.2500   53.4289   14.7091    0.1988    2.3923   88.6365  255.5118 -999.0000 -999.0000   -0.5429   25.0000  677.2620 
 677.4144   12.0564   12.2500   59.7254   18.4839    0.1898    2.3894   89.9766  255.1339 -999.0000 -999.0000   -0.9210   25.0000  677.4144 
 677.5668   12.0564   12.2500   66.9234   17.1080    0.2132    2.3864   92.2712  254.4537 -999.0000 -999.0000   -0.1562   54.0000  677.5668 
 677.7192   12.0441   12.2500   73.8782   13.9015    0.2551    2.3849   96.3872  254.8036 -999.0000 -999.0000    1.1576   57.0000  677.7192 
 677.8716   12.0561   12.2500   69.4562   10.8821    0.2732    2.3773   98.1785  254.8735 -999.0000 -999.0000    1.5980   57.0000  677.8716 
 678.0240   12.0317   12.2500   60.4969   10.1243    0.2871    2.3682   97.2610  254.8750 -999.0000 -999.0000    1.8710   57.0000  678.0240 
 678.1764   12.0064   12.2500   52.4645   10.8233    0.2560    2.3654   93.9879  254.5699 -999.0000 -999.0000    0.8850   57.0000  678.1764 
 678.3288   12.0059   12.2500   48.9477   12.6854    0.2253    2.3778   89.9343  254.5015 -999.0000 -999.0000    0.1920   54.0000  678.3288 
 678.4812   11.9071   12.2500   46.1789   15.2108    0.1871    2.3934   87.3822  254.4390 -999.0000 -999.0000   -0.8373   25.0000  678.4812 
 678.6336   11.9047   12.2500   47.7334   16.8386    0.1747    2.3959   87.5053  253.8883 -999.0000 -999.0000   -1.2964   49.0000  678.6336 
 678.7860   11.9788   12.2500   47.0648   16.5679    0.1816    2.3887   89.6188  253.5089 -999.0000 -999.0000   -1.2147   49.0000  678.7860 
 678.9384   12.2028   12.2500   51.9793   15.1621    0.2034    2.3860   92.9782  253.1949 -999.0000 -999.0000   -0.4932   25.0000  678.9384 
 679.0908   12.1588   12.2500   49.8587   13.4594    0.2114    2.3875   93.3968  253.0655 -999.0000 -999.0000   -0.1939   54.0000  679.0908 
 679.2432   12.0094   12.2500   50.9816   11.6094    0.2094    2.3823   93.7135  253.5507 -999.0000 -999.0000   -0.4639   25.0000  679.2432 
 679.3956   11.9935   12.2500   55.5272   10.1715    0.2242    2.3709   96.3635  253.1353 -999.0000 -999.0000   -0.1424   54.0000  679.3956 
 679.5480   11.9562   12.2500   61.8402    9.0755    0.2603    2.3751  100.2794  253.2470 -999.0000 -999.0000    1.2912   57.0000  679.5480 
 679.7004   11.9553   12.2500   64.2295    7.8359    0.2984    2.4008  102.4644  253.3110 -999.0000 -999.0000    3.1868   57.0000  679.7004 
 679.8528   11.9553   12.2500   65.7523    6.8662    0.2829    2.4327  101.1364  253.1905 -999.0000 -999.0000    3.2638   57.0000  679.8528 
 680.0052   11.9800   12.2500   62.8318    6.5971    0.2481    2.4514   98.6353  253.4316 -999.0000 -999.0000    2.3455   57.0000  680.0052 
 680.1576   12.0299   12.2500   66.3112    7.2057    0.2199    2.4517   95.6028  252.7662 -999.0000 -999.0000    1.3299   57.0000  680.1576 
 680.3100   12.0311   12.2500   66.6465    7.8154    0.2157    2.4515   94.8342  252.7500 -999.0000 -999.0000    1.2572   57.0000  680.3100 
 680.4624   12.0064   12.2500   75.9650    8.0959    0.2343    2.4640   95.5854  253.2382 -999.0000 -999.0000    2.2398   57.0000  680.4624 
 680.6148   12.0182   12.2500   81.3083    7.9606    0.2690    2.4922   97.3991  252.9449 -999.0000 -999.0000    4.0233   57.0000  680.6148 
 680.7672   12.0061   12.2500   90.1638    7.9077    0.2973    2.5200   96.9577  253.0595 -999.0000 -999.0000    5.4583   57.0000  680.7672 
 680.9196   11.9812   12.2500   86.4534    8.1701    0.2798    2.5319   95.5654  253.4286 -999.0000 -999.0000    4.9446   57.0000  680.9196 
 681.0720   12.0299   12.2500   88.2714    8.8253    0.2683    2.5208   93.5793  253.8647 -999.0000 -999.0000    4.2575   57.0000  681.0720 
 681.2244   12.0064   12.2500   83.3082    9.5893    0.2619    2.5046   92.2264  253.6309 -999.0000 -999.0000    3.6844   57.0000  681.2244 
 681.3768   12.0305   12.2500   90.5377   10.1904    0.2723    2.4740   93.0477  253.7470 -999.0000 -999.0000    3.2707   57.0000  681.3768 
 681.5292   12.0558   12.2500   90.5088    9.7725    0.2681    2.4192   93.5751  253.8110 -999.0000 -999.0000    1.8620   57.0000  681.5292 
 681.6816   11.9083   12.2500   89.7862    9.6283    0.2720    2.3531   94.9481  253.8735 -999.0000 -999.0000    0.7714   57.0000  681.6816 
 681.8340   11.8553   12.2500   83.7056    9.4746    0.2765    2.3310   93.3382  254.1801 -999.0000 -999.0000    0.9835   57.0000  681.8340 
 681.9864   12.0517   12.2500   80.6638    9.7881    0.2769    2.3796   93.1607  254.2485 -999.0000 -999.0000    2.2818   57.0000  681.9864 
 682.1388   12.1305   12.2500   82.2936   10.3212    0.2653    2.4479   91.3304  254.5551 -999.0000 -999.0000    3.2386   57.0000  682.1388 
 682.2912   12.2311   12.2500   74.2358   11.2183    0.2302    2.4983   87.4836  254.2574 -999.0000 -999.0000    2.8059   57.0000  682.2912 
 682.4436   12.3446   12.2500   62.0460   12.7511    0.1926    2.5130   86.5438  254.3110 -999.0000 -999.0000    1.7506   57.0000  682.4436 
 682.5960   12.4090   12.2500   52.9156   13.8195    0.1953    2.5193   86.0512  254.5566 -999.0000 -999.0000    1.8636   57.0000  682.5960 
 682.7484   12.3611   12.2500   53.6504   15.4858    0.2147    2.5062   86.1582  254.1964 -999.0000 -999.0000    2.1436   57.0000  682.7484 
 682.9008   12.2365   12.2500   53.6733   16.9187    0.1996    2.4882   85.4949  253.8214 -999.0000 -999.0000    1.3438   57.0000  682.9008 
 683.0532   12.1594   12.2500   51.3677   17.8803    0.1514    2.4825   85.1758  253.2633 -999.0000 -999.0000   -0.3058   25.0000  683.0532 
 683.2056   12.1823   12.2500   49.3312   19.1142    0.1318    2.4884   82.8226  252.6398 -999.0000 -999.0000   -0.7529   25.0000  683.2056 
 683.3580   12.2076   12.2500   54.8667   14.3035    0.1540    2.4963   85.3059  253.1132 -999.0000 -999.0000    0.0333   54.0000  683.3580 
