~VERSION INFORMATION
 VERS.                 2.0:   CWLS LOG ASCII STANDARD - VERSION 2.0
 WRAP.                  NO:   SINGLE LINE PER DEPTH STEP
 CREA.                 06/02/2020 16:35:30
#CREATED USING IP VERSION 4.5.2019.2902 BY RMOTA ON 06/02/2020 16:35:30
~WELL INFORMATION
#MNEM.UNIT       DATA                          DESCRIPTION MNEMONIC
#---------      ---------------------------   --------------------------
 STRT    .M         15.6972                   : START DEPTH
 STOP    .M         2951.2260                 : STOP DEPTH
 STEP    .M         0.1524                    : STEP VALUE
 NULL    .      -999.0000                     : NULL VALUE
 DATE    .      06/02/2020                    : LAS file Creation Date
 WELL   .      7-MP-36D-BA       : Well Name
 COMP   .      PETROBRAS         : Company
 FLD    .      MASSAPE           : Field
 STATE  .      20240022534       : State
 COUNT  .      BRASIL            : Country
 API    .      20240022534       : API Number
 UWI    .                        : Unique Well Identifier (UWI)
 LOC    .      N= 8607444.13 M   : Location
 PDAT   .      NM                : Permanent Datum
 EPDAT  .      0                 : Elevation of Permanent Datum
 LGMEA  .      MR                : Log Measured from
 DRMEA  .      MR                : Drill Measured From
 APDAT  .      65.81             : Elevation Above Permanent Datum
 KB     .      66.11             : KB Elevation
 DF     .      65.81             : DF Elevation
 GL     .      56.41             : GL Elevation
 RWS    .      -999              : Def_Rw
 WST    .      -999              : Def_Rwt
 BHS    .      OPEN              : Completion Status
 PROV   .                        : Province
 SRVC   .                        : Contractor
 GDAT   .      WGS 84            : Geodatum
 LONG   .      -38.4351329444514 : Longitude
 LATI   .      -12.5962309720781 : Latitude
 COORDIN.                        : Grid System
 XCOORD .                        : X or East-West Coordinate
 YCOORD .                        : Y or North-South Coordinate
~CURVE INFORMATION
#MNEM              UNIT       API CODE   Curve Type Comments
#----------  --------------- ----------  ---------- -----------
 DEPTH      .M                         : Depth       
 BS         .in                        : BitSize     Loaded from DLIS: 7-mp-36d-ba_raw-1.dlis
 DCAL       .in                        :             Loaded from DLIS: 7-mp-36d-ba_raw-1.dlis
 GR         .gAPI                      : GammaRay    Loaded from DLIS: 7-mp-36d-ba_raw-1.dlis
 RT         .ohm.m                     : DeepRes     Loaded from DLIS: 7-mp-36d-ba_raw-1.dlis
 NPHI       .m3/m3                     : Neutron     Loaded from DLIS: 7-mp-36d-ba_raw-1.dlis
 RHOB       .g/cm3                     : Density     Loaded from DLIS: 7-mp-36d-ba_raw-1.dlis
 DT         .us/ft                     : Sonic       Loaded from DLIS: 7-mp-36d-ba_raw-1.dlis
 SP         .mV                        : SP          Loaded from DLIS: 7-mp-36d-ba_raw-1.dlis
 DRDN       .                          :             
 Lith_new   .                          :             
~A  DEPTH     BS       DCAL       GR        RT       NPHI      RHOB       DT        SP       DRDN    Lith_new 
# ...
 994.7148   12.2500    1.1961   40.3712   16.6738    0.2588    2.2697   88.0512  267.6250   -1.4911   49.0000 
 994.8672   12.2500    0.1795   54.7613   14.1992    0.3626    2.2585   93.2804  266.6875    2.6205   57.0000 
 995.0196   12.2500   -0.1481   70.2660    9.0722    0.3815    2.3167   94.4521  266.0000    4.5178   57.0000 
 995.1720   12.2500    0.5861   68.4581    7.9421    0.3045    2.3914   95.1301  269.5000    3.3477   57.0000 
 995.3244   12.2500    1.0380   57.0918    8.6026    0.2147    2.3904   97.9109  270.5000   -0.4356   25.0000 
 995.4768   12.2500    1.5802   44.3161   10.6390    0.1857    2.3227   91.8983  269.5625   -2.8845   49.0000 
 995.6292   12.2500    1.4898   40.3184   11.9052    0.2626    2.2347   87.0101  269.1250   -2.0670   49.0000 
 995.7816   12.2500    0.3376   41.1604   13.0872    0.3367    2.1988   87.9332  268.7500    0.2048   54.0000 
 995.9340   12.2500   -0.2724   42.9437   13.1610    0.3546    2.2076   88.0342  267.3125    1.1202   57.0000 
 996.0864   12.2500    0.4958   47.5118   13.4826    0.2892    2.2486   86.0407  263.6250   -0.0678   54.0000 
 996.2388   12.2500    1.0832   48.4264   13.7079    0.2308    2.2740   91.1582  262.8125   -1.7783   49.0000 
 996.3912   12.2500    1.5124   51.5318   14.1912    0.2286    2.2881   92.8810  261.1875   -1.4306   49.0000 
 996.5436   12.2500    1.7270   62.6660   12.1945    0.2481    2.3110   89.2545  259.0000   -0.4743   25.0000 
 996.6960   12.2500    0.8798   66.6713   10.5175    0.2975    2.3054   90.6158  262.5625    0.9304   57.0000 
 996.8484   12.2500   -0.1707   61.4210    9.6232    0.3191    2.2796   89.9570  263.8750    0.9702   57.0000 
 997.0008   12.2500    0.2360   45.4279   10.9139    0.3162    2.2487   86.4136  263.2500    0.4272   57.0000 
 997.1532   12.2500    0.9024   37.8348   12.8842    0.2558    2.2513   86.6720  263.5625   -1.3014   49.0000 
 997.3056   12.2500    1.5802   38.9898   13.9992    0.2177    2.2764   89.0226  261.0000   -2.0332   49.0000 
 997.4580   12.2500    1.6931   40.7474   13.4462    0.2046    2.2937   86.1386  259.5000   -2.3298   49.0000 
 997.6104   12.2500    1.2187   41.2669   12.8231    0.2726    2.2787   84.1537  258.5000   -0.4829   25.0000 
 997.7628   12.2500    0.3602   38.6656   12.3199    0.3227    2.2674   85.2986  257.3750    1.0740   57.0000 
 997.9152   12.2500    0.0439   34.6741   12.5962    0.3158    2.2622   85.0184  256.7500    0.7799   57.0000 
 998.0676   12.2500    0.6539   33.8144   13.6439    0.2547    2.2668   81.8647  258.1250   -1.1967   49.0000 
 998.2200   12.2500    1.0154   39.2103   14.2186    0.2266    2.2605   86.7878  256.8750   -2.2530   49.0000 
 998.3724   12.2500    1.3317   47.7743   16.2674    0.2135    2.2627   83.3192  254.6250   -2.5484   49.0000 
 998.5248   12.2500    1.3769   56.2145   16.2276    0.2571    2.2889   89.2008  252.8125   -0.3519   25.0000 
 998.6772   12.2500    0.6991   69.0780   14.9948    0.3741    2.3444   95.9726  251.8750    4.8038   57.0000 
 998.8296   12.2500   -0.0126   78.7920    9.6736    0.4647    2.4091   97.3411  254.1250    9.0329   57.0000 
 998.9820   12.2500    0.4054   74.1270    6.8193    0.4280    2.4326   96.0322  260.6875    7.8935   57.0000 
 999.1344   12.2500    0.8121   58.5794    6.2502    0.2797    2.4071   92.4776  265.0000    2.0777   57.0000 
 999.2868   12.2500    1.2865   42.2846    9.1717    0.1835    2.3462   84.7180  265.1875   -2.3325   49.0000 
 999.4392   12.2500    1.4446   38.4708   12.9078    0.1888    2.2957   83.1055  266.4375   -3.1589   49.0000 
 999.5916   12.2500    0.9476   35.1990   16.6335    0.2489    2.2498   83.7501  267.7500   -1.8470   49.0000 
 999.7440   12.2500   -0.1142   36.5057   15.5353    0.2873    2.2516   84.8880  270.0625   -0.2635   54.0000 
 999.8964   12.2500    0.0326   35.6694   14.7262    0.3054    2.2770   84.5638  266.8750    0.9108   57.0000 
1000.0488   12.2500    0.7104   37.6757   14.5233    0.2573    2.2955   88.5721  265.6250   -0.4881   25.0000 
1000.2012   12.2500    1.3769   35.1056   14.3192    0.2193    2.2959   85.5006  263.8125   -1.8418   49.0000 
1000.3536   12.2500    1.5576   32.1627   14.6944    0.1719    2.2742   83.3341  261.8750   -4.0176   49.0000 
1000.5060   12.2500    1.4333   32.3022   14.9371    0.2131    2.2374   81.0235  261.4375   -3.3877   49.0000 
1000.6584   12.2500    0.6652   31.0541   15.2864    0.2552    2.2053   81.9868  260.8750   -2.4927   49.0000 
1000.8108   12.2500   -0.1594   31.7773   14.7227    0.3022    2.2057   81.0100  259.6250   -0.6995   25.0000 
1000.9632   12.2500    0.3602   31.7972   14.3075    0.2723    2.2279   81.2990  258.8125   -1.2090   49.0000 
1001.1156   12.2500    0.9928   31.7332   13.6229    0.2255    2.2410   85.1834  258.3750   -2.6449   49.0000 
1001.2680   12.2500    1.4672   30.8146   13.1823    0.1729    2.2569   79.0981  259.8750   -3.7592   49.0000 
1001.4204   12.2500    1.5576   29.9319   13.1264    0.1461    2.3193   73.0000  260.3750   -3.3091   49.0000 
1001.5728   12.2500    0.6878   29.7117   14.4559    0.1755    2.3838   72.1007  261.6875   -1.0519   49.0000 
1001.7252   12.2500   -0.2724   32.8197   15.9203    0.2367    2.4216   72.5609  264.5000    1.2462   57.0000 
1001.8776   12.2500    0.2134   31.1755   16.1887    0.2740    2.3824   78.7287  269.0625    1.3531   57.0000 
1002.0300   12.2500    0.8008   36.2790   15.3537    0.2515    2.3176   83.6262  269.1875   -0.6907   25.0000 
1002.1824   12.2500    1.3769   36.6003   15.2618    0.1955    2.2586   86.5622  267.7500   -3.6445   49.0000 
1002.3348   12.2500    1.5802   40.4139   14.9812    0.1884    2.2277   84.7804  265.8750   -4.2914   49.0000 
1002.4872   12.2500    1.3543   38.3568   14.3056    0.2534    2.1939   95.4752  265.3125   -2.9406   49.0000 
1002.6396   12.2500    0.3150   37.2925   14.0767    0.3434    2.1848   83.4974  263.6250    0.3153   57.0000 
1002.7920   12.2500   -0.1368   36.7501   13.1138    0.3775    2.2093   84.2223  263.2500    1.9744   57.0000 
1002.9444   12.2500    0.6313   36.4995   13.1102    0.3309    2.2484   83.0154  264.5000    1.2958   57.0000 
1003.0968   12.2500    1.1735   36.6850   13.5040    0.2523    2.2727   86.3142  264.0000   -1.1766   49.0000 
1003.2492   12.2500    1.6028   35.9405   14.4046    0.1964    2.2669   84.4506  263.9375   -3.1581   49.0000 
1003.4016   12.2500    1.6254   34.8931   13.8807    0.2133    2.2476   82.1030  262.9375   -3.2304   49.0000 
1003.5540   12.2500    0.6991   36.4965   13.3874    0.2699    2.2173   83.5673  259.7500   -1.6624   49.0000 
1003.7064   12.2500   -0.2272   34.8907   12.7057    0.3117    2.2209   83.4186  258.6250   -0.1758   54.0000 
1003.8588   12.2500    0.4506   40.0894   12.2187    0.2913    2.2361   82.6052  258.3125   -0.3264   25.0000 
1004.0112   12.2500    1.0041   37.5773   12.5757    0.2325    2.2544   83.1367  258.8125   -2.2301   49.0000 
1004.1636   12.2500    1.4107   39.1631   12.8338    0.1876    2.2340   84.9056  259.7500   -4.1896   49.0000 
1004.3160   12.2500    1.6254   34.6699   12.7743    0.1864    2.2161   82.6993  260.5000   -4.6869   49.0000 
1004.4684   12.2500    1.0832   34.9480   12.3536    0.2441    2.1858   82.9856  260.4375   -3.1933   49.0000 
1004.6208   12.2500   -0.1142   36.0739   12.0121    0.2828    2.2010   84.6306  259.3125   -1.3581   49.0000 
1004.7732   12.2500    0.3150   34.4469   11.3857    0.2778    2.2386   82.4003  259.3750   -0.5516   25.0000 
1004.9256   12.2500    0.7443   34.5123   11.6145    0.2335    2.2980   83.7013  259.3125   -1.0213   49.0000 
1005.0780   12.2500    1.2187   36.2589   11.7013    0.1988    2.3137   87.3421  258.3750   -2.0808   49.0000 
1005.2304   12.2500    1.6028   39.3109   11.9287    0.2020    2.3001   83.3711  256.6250   -2.5675   49.0000 
1005.3828   12.2500    1.6254   37.5362   11.2808    0.2431    2.2461   85.0905  254.8750   -2.2526   49.0000 
1005.5352   12.2500    0.2473   31.2543   10.8474    0.2982    2.2255   84.6669  251.0000   -0.5720   25.0000 
1005.6876   12.2500    0.0439   33.4965   10.0631    0.3079    2.2278   84.1141  247.3750   -0.0683   54.0000 
