~VERSION INFORMATION
 VERS.                 2.0:   CWLS LOG ASCII STANDARD - VERSION 2.0
 WRAP.                  NO:   SINGLE LINE PER DEPTH STEP
 CREA.                 06/02/2020 16:35:30
#CREATED USING IP VERSION 4.5.2019.2902 BY RMOTA ON 06/02/2020 16:35:30
~WELL INFORMATION
#MNEM.UNIT       DATA                          DESCRIPTION MNEMONIC
#---------      ---------------------------   --------------------------
 STRT    .M         15.6972                   : START DEPTH
 STOP    .M         2951.2260                 : STOP DEPTH
 STEP    .M         0.1524                    : STEP VALUE
 NULL    .      -999.0000                     : NULL VALUE
 DATE    .      06/02/2020                    : LAS file Creation Date
 WELL   .      7-MP-36D-BA       : Well Name
 COMP   .      PETROBRAS         : Company
 FLD    .      MASSAPE           : Field
 STATE  .      20240022534       : State
 COUNT  .      BRASIL            : Country
 API    .      20240022534       : API Number
 UWI    .                        : Unique Well Identifier (UWI)
 LOC    .      N= 8607444.13 M   : Location
 PDAT   .      NM                : Permanent Datum
 EPDAT  .      0                 : Elevation of Permanent Datum
 LGMEA  .      MR                : Log Measured from
 DRMEA  .      MR                : Drill Measured From
 APDAT  .      65.81             : Elevation Above Permanent Datum
 KB     .      66.11             : KB Elevation
 DF     .      65.81             : DF Elevation
 GL     .      56.41             : GL Elevation
 RWS    .      -999              : Def_Rw
 WST    .      -999              : Def_Rwt
 BHS    .      OPEN              : Completion Status
 PROV   .                        : Province
 SRVC   .                        : Contractor
 GDAT   .      WGS 84            : Geodatum
 LONG   .      -38.4351329444514 : Longitude
 LATI   .      -12.5962309720781 : Latitude
 COORDIN.                        : Grid System
 XCOORD .                        : X or East-West Coordinate
 YCOORD .                        : Y or North-South Coordinate
~CURVE INFORMATION
#MNEM              UNIT       API CODE   Curve Type Comments
#----------  --------------- ----------  ---------- -----------
 DEPTH      .M                         : Depth       
 BS         .in                        : BitSize     Loaded from DLIS: 7-mp-36d-ba_raw-1.dlis
 DCAL       .in                        :             Loaded from DLIS: 7-mp-36d-ba_raw-1.dlis
 GR         .gAPI                      : GammaRay    Loaded from DLIS: 7-mp-36d-ba_raw-1.dlis
 RT         .ohm.m                     : DeepRes     Loaded from DLIS: 7-mp-36d-ba_raw-1.dlis
 NPHI       .m3/m3                     : Neutron     Loaded from DLIS: 7-mp-36d-ba_raw-1.dlis
 RHOB       .g/cm3                     : Density     Loaded from DLIS: 7-mp-36d-ba_raw-1.dlis
 DT         .us/ft                     : Sonic       Loaded from DLIS: 7-mp-36d-ba_raw-1.dlis
 SP         .mV                        : SP          Loaded from DLIS: 7-mp-36d-ba_raw-1.dlis
 DRDN       .                          :             
 Lith_new   .                          :             
~A  DEPTH     BS       DCAL       GR        RT       NPHI      RHOB       DT        SP       DRDN    Lith_new 
# ...
1384.0968   12.2500    0.6087   85.1050    4.3781    0.1891    2.5391   79.6488  197.0625    2.0275   57.0000 
1384.2492   12.2500    0.6539   83.6001    4.3863    0.1860    2.5287   79.1754  197.3125    1.7064   57.0000 
1384.4016   12.2500    0.5635   85.2258    4.4341    0.1901    2.5323   78.6046  197.0625    2.0858   57.0000 
1384.5540   12.2500    0.5184   78.9445    4.4510    0.1847    2.5453   76.5899  194.7500    2.1728   57.0000 
1384.7064   12.2500    0.5184   81.3839    4.4588    0.2054    2.5658   76.2272  194.0000    3.3135   57.0000 
1384.8588   12.2500    0.6878   77.9518    4.4821    0.2032    2.5783   77.7532  194.8125    3.3656   57.0000 
1385.0112   12.2500    1.0606   82.4252    4.5464    0.2062    2.5778   79.2952  194.3750    3.3324   57.0000 
1385.1636   12.2500    0.6878   82.2133    4.6538    0.2122    2.5609   80.0267  194.3750    3.1955   57.0000 
1385.3160   12.2500    0.4280   85.2841    4.8105    0.2128    2.5490   76.6513  194.0000    3.0104   57.0000 
1385.4684   12.2500    0.3376   84.0186    5.0023    0.2166    2.5432   74.5013  193.6875    3.0770   57.0000 
1385.6208   12.2500    0.3489   85.8250    5.3577    0.2044    2.5500   74.3663  193.7500    2.9039   57.0000 
1385.7732   12.2500    0.6313   85.6443    5.7131    0.1976    2.5598   74.6967  194.6250    2.8174   57.0000 
1385.9256   12.2500    0.5410   89.8024    5.5020    0.2027    2.5704   79.1741  193.6250    3.2574   57.0000 
1386.0780   12.2500    0.4280   92.3313    5.1438    0.2017    2.5816   80.6376  193.6875    3.4062   57.0000 
1386.2304   12.2500    0.3602   86.1897    4.7951    0.2175    2.5817   80.8700  192.8125    3.8029   57.0000 
1386.3828   12.2500    0.2924   84.9242    4.5028    0.2142    2.5708   80.5468  191.6875    3.5135   57.0000 
1386.5352   12.2500    0.3376   78.0600    4.4094    0.2169    2.5533   80.2981  193.0625    3.0853   57.0000 
1386.6876   12.2500    0.4732   87.8416    4.3744    0.2120    2.5411   80.3470  195.0625    2.9946   57.0000 
1386.8400   12.2500    0.5635   88.3585    4.3360    0.2142    2.5539   81.8074  195.4375    3.3049   57.0000 
1386.9924   12.2500    0.4732   94.1389    4.2373    0.2152    2.5738   81.8461  193.8125    3.8202   57.0000 
1387.1448   12.2500    0.3602   90.7040    4.0993    0.2218    2.5888   81.7089  193.3125    4.2038   57.0000 
1387.2972   12.2500    0.2698   85.1798    4.0341    0.2034    2.6043   79.1748  192.3750    4.0021   57.0000 
1387.4496   12.2500    0.3376   77.5930    4.1599    0.1859    2.6190   78.2540  193.6875    3.6106   57.0000 
1387.6020   12.2500    0.4732   72.6915    4.3695    0.1709    2.6166   78.5136  194.7500    2.9523   57.0000 
1387.7544   12.2500    0.4732   82.5800    4.5282    0.1737    2.6026   78.9627  192.8125    2.7549   57.0000 
1387.9068   12.2500    0.4280   90.1667    4.4524    0.1709    2.5908   79.7251  193.3125    2.4342   57.0000 
1388.0592   12.2500    0.3602   89.4442    4.2711    0.1666    2.5847   77.5184  192.8125    2.2565   57.0000 
1388.2116   12.2500    0.3263   77.8738    4.3296    0.1543    2.5822   76.3621  194.3125    1.6780   57.0000 
1388.3640   12.2500    0.3489   72.0934    4.4931    0.1571    2.5605   75.4629  194.1250    1.3223   57.0000 
1388.5164   12.2500    0.4506   72.4547    4.5950    0.1685    2.5482   76.0759  192.6875    1.5067   57.0000 
1388.6688   12.2500    0.4732   76.0705    4.7520    0.1756    2.5335   76.9551  191.7500    1.4466   57.0000 
1388.8212   12.2500    0.4845   76.2511    4.8491    0.1962    2.5246   78.5707  192.9375    1.9668   57.0000 
1388.9736   12.2500    0.4054   81.6947    4.7947    0.1969    2.5164   79.4213  192.8125    1.8751   57.0000 
1389.1260   12.2500    0.3150   84.0206    4.5657    0.2025    2.5173   78.4662  192.6875    2.1184   57.0000 
1389.2784   12.2500    0.4506   88.8978    4.4737    0.2094    2.5272   80.8605  194.6875    2.6387   57.0000 
1389.4308   12.2500    0.4958   89.9825    4.5346    0.2242    2.5355   81.1819  194.8750    3.1467   57.0000 
1389.5832   12.2500    0.5410   88.8987    4.5154    0.2416    2.5289   81.6441  193.9375    3.6059   57.0000 
1389.7356   12.2500    0.5184   88.7180    4.2061    0.2366    2.5219   82.2569  193.7500    3.2663   57.0000 
1389.8880   12.2500    0.4958   86.2176    4.0451    0.2089    2.5218   79.3854  194.8125    2.4559   57.0000 
1390.0404   12.2500    0.3602   86.4219    4.0776    0.1916    2.5287   78.5588  196.1875    2.0054   57.0000 
1390.1928   12.2500    0.4054   86.0606    4.1741    0.1951    2.5372   78.2423  195.7500    2.2854   57.0000 
1390.3452   12.2500    0.4280   84.5616    4.2574    0.2024    2.5351   78.4658  195.1250    2.4083   57.0000 
1390.4976   12.2500    0.4280   81.3074    4.2647    0.2042    2.5370   78.6280  194.6875    2.5956   57.0000 
1390.6500   12.2500    0.4280   77.6947    4.2994    0.1858    2.5436   77.5762  195.8750    2.1142   57.0000 
1390.8024   12.2500    0.4280   78.6207    4.4880    0.1941    2.5477   75.5681  195.5625    2.4339   57.0000 
1390.9548   12.2500    0.3376   74.4452    4.7004    0.1815    2.5489   75.6940  194.8125    2.0513   57.0000 
1391.1072   12.2500    0.3602   66.8585    4.8773    0.1737    2.5513   74.9660  193.9375    1.8064   57.0000 
1391.2596   12.2500    0.4054   65.2314    5.0191    0.1591    2.5530   74.5342  195.0000    1.3812   57.0000 
1391.4120   12.2500    0.4167   67.5797    5.0705    0.1689    2.5513   76.2239  195.4375    1.6007   57.0000 
1391.5644   12.2500    0.4393   76.0696    5.0486    0.1839    2.5392   77.6601  195.5000    1.8383   57.0000 
1391.7168   12.2500    0.4958   72.0923    4.9570    0.1824    2.5325   79.3596  194.6250    1.7199   57.0000 
1391.8692   12.2500    0.4506   69.3827    4.6242    0.1778    2.5304   78.7601  193.6875    1.4966   57.0000 
1392.0216   12.2500    0.4054   69.7440    4.3250    0.1687    2.5264   78.5451  195.5000    1.1469   57.0000 
1392.1740   12.2500    0.4619   68.1967    4.1779    0.1677    2.5328   78.1305  195.5625    1.3646   57.0000 
1392.3264   12.2500    0.5297   72.3720    4.1301    0.1758    2.5406   78.2974  194.8125    1.6753   57.0000 
1392.4788   12.2500    0.5635   69.1506    4.2442    0.1788    2.5453   77.8243  195.1250    1.9461   57.0000 
1392.6312   12.2500    0.6087   75.0368    4.3400    0.1908    2.5488   77.7763  195.7500    2.2445   57.0000 
1392.7836   12.2500    0.5974   72.8330    4.1918    0.1885    2.5457   77.3383  195.4375    2.2567   57.0000 
1392.9360   12.2500    0.5748   73.5254    4.0472    0.1777    2.5489   76.9894  194.6250    1.8473   57.0000 
1393.0884   12.2500    0.5861   74.0678    3.9801    0.1671    2.5420   76.9273  195.4375    1.4504   57.0000 
1393.2408   12.2500    0.6539   79.3218    3.9462    0.1670    2.5535   76.2353  193.9375    1.7104   57.0000 
1393.3932   12.2500    0.7217   81.6701    3.9701    0.1765    2.5660   77.2249  192.9375    2.2885   57.0000 
1393.5456   12.2500    0.8008   83.4779    4.0341    0.1925    2.5740   79.1417  193.4375    2.9174   57.0000 
1393.6980   12.2500    0.7895   78.6007    4.0631    0.1870    2.5755   78.9386  194.1875    2.7513   57.0000 
1393.8504   12.2500    0.7556   78.4201    4.0505    0.1920    2.5657   78.2733  194.6250    2.6053   57.0000 
1394.0028   12.2500    0.6991   71.1886    4.1310    0.1772    2.5532   77.6653  194.8125    1.8937   57.0000 
1394.1552   12.2500    0.7669   72.4531    4.2971    0.1832    2.5506   76.7540  195.3125    2.0899   57.0000 
1394.3076   12.2500    0.8685   74.8013    4.4857    0.1698    2.5571   78.1120  194.0625    1.9869   57.0000 
1394.4600   12.2500    0.9024   81.3097    4.5631    0.1861    2.5835   78.5275  193.4375    2.8929   57.0000 
1394.6124   12.2500    0.9363   81.3097    4.6388    0.2031    2.5671   79.2786  193.1250    3.0133   57.0000 
1394.7648   12.2500    0.9024   78.4195    4.5639    0.2189    2.5615   79.6906  193.4375    3.4934   57.0000 
1394.9172   12.2500    0.8572   75.8885    4.4764    0.2061    2.5623   77.7105  194.6875    3.2374   57.0000 
1395.0696   12.2500    0.9476   77.1529    4.5319    0.1952    2.5827   79.2088  195.1875    3.2110   57.0000 
