~VERSION INFORMATION
 VERS.                 2.0:   CWLS LOG ASCII STANDARD - VERSION 2.0
 WRAP.                  NO:   SINGLE LINE PER DEPTH STEP
 CREA.                 28/08/2020 11:52:07
#CREATED USING IP VERSION 4.5.2019.2902 BY CANDIDO ON 28/08/2020 11:52:07
~WELL INFORMATION
#MNEM.UNIT       DATA                          DESCRIPTION MNEMONIC
#---------      ---------------------------   --------------------------
 STRT    .M         639.0000                  : START DEPTH
 STOP    .M         3007.1000                 : STOP DEPTH
 STEP    .M         0.1000                    : STEP VALUE
 NULL    .      -999.0000                     : NULL VALUE
 DATE    .      28/08/2020                    : LAS file Creation Date
 WELL   .      7-MP-55D-BA     : Well Name
 COMP   .      PETROBRAS       : Company
 FLD    .      MASSAPE         : Field
 STATE  .      BAHIA           : State
 COUNT  .      -999.25         : Country
 API    .      20240028408     : API Number
 UWI    .                      : Unique Well Identifier (UWI)
 LOC    .      -999.25         : Location
 TOWN   .      -999.25         : Township
 SCT    .      -999.25         : Section
 RANG   .      -999.25         : Range
 PDAT   .      NM              : Permanent Datum
 EPDAT  .      0.00            : Elevation of Permanent Datum
 LGMEA  .      MR              : Log Measured from
 DRMEA  .      MR              : Drill Measured From
 APDAT  .      65.67           : Elevation Above Permanent Datum
 KB     .      65.97           : KB Elevation
 DF     .      65.67           : DF Elevation
 GL     .      56.27           : GL Elevation
 RWS    .      -999            : Def_Rw
 WST    .      -999            : Def_Rwt
 PROV   .                      : Province
 SRVC   .                      : Contractor
 GDAT   .      WGS 84          : Geodatum
 LONG   .      -38.435231944455: Longitude
 LATI   .      0               : Latitude
 COORDIN.                      : Grid System
 XCOORD .                      : X or East-West Coordinate
 YCOORD .                      : Y or North-South Coordinate
~CURVE INFORMATION
#MNEM                UNIT       API CODE   Curve Type Comments
#----------    --------------- ----------  ---------- -----------
 DEPTH        .M                         : Depth       
 TVD          .M                         : Depth       
 TVDSS        .M                         : Depth       
 GR           .api                       : GammaRay    
 CAL          .in                        : Caliper     
 BS           .in                        : BitSize     
 Lith_new     .                          :             
 RT           .ohmm                      : DeepRes     
 NPHI         .decp                      : Neutron     
 RHOB         .g/cc                      : Density     
 Res          .                          :             
 N_Res        .                          :             
 VCLGR        .Dec                       : Vcl         
 Phi_Gaymard  .                          :             
 Phie_Gaymard .                          :             
 SwArch       .Dec                       :             
 SwSim        .Dec                       :             
~A  DEPTH    TVD      TVDSS       GR       CAL        BS     Lith_new     RT       NPHI      RHOB      Res      N_Res     VCLGR   Phi_Gaym~ Phie_Gay~   SwArch    SwSim   
# ...
2819.8000 2806.3138 -2740.6438   45.8917    8.6476    8.5000   49.0000   41.2606    0.0606    2.5274    1.0000    0.0000    0.0608    0.0716    0.0673    0.1780    0.1671 
2819.9000 2806.4136 -2740.7436   56.4791    8.6429    8.5000   49.0000   36.9672    0.0630    2.5575    1.0000    0.0000    0.1766    0.0621    0.0512    0.2877    0.2213 
2820.0000 2806.5133 -2740.8433   62.8911    8.6430    8.5000   49.0000   35.1821    0.0632    2.5662    1.0000    0.0000    0.2626    0.0595    0.0439    0.4352    0.2533 
2820.1000 2806.6131 -2740.9431   68.1505    8.6625    8.5000   49.0000   33.8369    0.0643    2.5705    1.0000    0.0000    0.3440    0.0588    0.0386    0.6283    0.2543 
2820.2000 2806.7129 -2741.0429   70.2421    8.6656    8.5000   49.0000   32.2415    0.0720    2.5599    1.0000    0.0000    0.3793    0.0661    0.0410    0.5582    0.2372 
2820.3000 2806.8126 -2741.1426   67.4330    8.6619    8.5000   49.0000   31.8389    0.0779    2.5525    1.0000    0.0000    0.3322    0.0715    0.0478    0.4113    0.2300 
2820.4000 2806.9124 -2741.2424   64.1430    8.6519    8.5000   49.0000   31.7288    0.0816    2.5461    1.0000    0.0000    0.2811    0.0755    0.0543    0.3184    0.2154 
2820.5000 2807.0122 -2741.3422   62.3034    8.6732    8.5000   49.0000   32.0360    0.0823    2.5458    1.0000    0.0000    0.2542    0.0759    0.0566    0.2873    0.2077 
2820.6000 2807.1119 -2741.4419   64.9292    8.6638    8.5000   49.0000   34.4908    0.0815    2.5528    1.0000    0.0000    0.2929    0.0734    0.0519    0.3321    0.2101 
2820.7000 2807.2117 -2741.5417   67.3566    8.6489    8.5000   25.0000   36.9090    0.0882    2.5547    0.0000    1.0000    0.3310    0.0767    0.0513    0.3353    0.1934 
2820.8000 2807.3115 -2741.6415   68.6619    8.6704    8.5000   49.0000   40.3003    0.0858    2.5518    1.0000    0.0000    0.3524    0.0761    0.0493    0.3415    0.1800 
2820.9000 2807.4112 -2741.7412   63.0743    8.6398    8.5000   49.0000   50.2199    0.0831    2.5331    1.0000    0.0000    0.2653    0.0803    0.0590    0.2178    0.1461 
2821.0000 2807.5110 -2741.8410   57.8837    8.6376    8.5000   49.0000   56.4354    0.0704    2.5162    1.0000    0.0000    0.1943    0.0800    0.0645    0.1797    0.1365 
2821.1000 2807.6108 -2741.9408   51.7694    8.6428    8.5000   49.0000   62.8880    0.0629    2.4957    1.0000    0.0000    0.1214    0.0848    0.0745    0.1415    0.1216 
2821.2000 2807.7105 -2742.0405   43.3192    8.6306    8.5000   49.0000   74.1016    0.0586    2.4684    1.0000    0.0000    0.0369    0.0946    0.0911    0.1045    0.1003 
2821.3000 2807.8103 -2742.1403   41.1285    8.6370    8.5000   49.0000   78.1557    0.0555    2.4644    1.0000    0.0000    0.0177    0.0954    0.0937    0.0994    0.0975 
2821.4000 2807.9100 -2742.2401   40.5102    8.6314    8.5000   49.0000   81.3208    0.0547    2.4688    1.0000    0.0000    0.0125    0.0933    0.0921    0.0984    0.0970 
2821.5000 2808.0098 -2742.3398   40.7315    8.6193    8.5000   49.0000   85.5194    0.0550    2.4765    1.0000    0.0000    0.0143    0.0901    0.0888    0.0983    0.0967 
2821.6000 2808.1096 -2742.4396   40.4491    8.6212    8.5000   49.0000   87.0921    0.0546    2.4781    1.0000    0.0000    0.0120    0.0893    0.0882    0.0978    0.0964 
2821.7000 2808.2093 -2742.5393   39.7850    8.6264    8.5000   49.0000   88.4276    0.0530    2.4775    1.0000    0.0000    0.0064    0.0890    0.0885    0.0970    0.0963 
2821.8000 2808.3091 -2742.6391   39.4262    8.6267    8.5000   49.0000   89.6533    0.0525    2.4770    1.0000    0.0000    0.0035    0.0891    0.0888    0.0960    0.0956 
2821.9000 2808.4089 -2742.7389   39.2659    8.6192    8.5000   49.0000   91.4380    0.0518    2.4750    1.0000    0.0000    0.0022    0.0898    0.0896    0.0947    0.0945 
2822.0000 2808.5086 -2742.8386   39.7239    8.6215    8.5000   49.0000   91.0420    0.0505    2.4724    1.0000    0.0000    0.0059    0.0905    0.0900    0.0956    0.0949 
2822.1000 2808.6084 -2742.9384   41.3575    8.6218    8.5000   49.0000   88.7761    0.0517    2.4666    1.0000    0.0000    0.0197    0.0933    0.0915    0.0966    0.0943 
2822.2000 2808.7082 -2743.0382   46.8458    8.6039    8.5000   49.0000   79.2717    0.0546    2.4562    1.0000    0.0000    0.0701    0.0986    0.0917    0.1058    0.0974 
2822.3000 2808.8079 -2743.1379   49.2580    8.6129    8.5000   49.0000   75.3019    0.0567    2.4528    1.0000    0.0000    0.0945    0.1007    0.0912    0.1105    0.0989 
2822.4000 2808.9077 -2743.2377   50.1511    8.6092    8.5000   49.0000   73.8433    0.0559    2.4512    1.0000    0.0000    0.1038    0.1011    0.0906    0.1137    0.1006 
2822.5000 2809.0075 -2743.3375   48.5252    8.6168    8.5000   49.0000   75.5001    0.0569    2.4557    1.0000    0.0000    0.0869    0.0995    0.0908    0.1097    0.0991 
2822.6000 2809.1072 -2743.4372   47.6550    8.6188    8.5000   49.0000   76.2627    0.0571    2.4591    1.0000    0.0000    0.0781    0.0981    0.0904    0.1084    0.0990 
2822.7000 2809.2070 -2743.5370   46.9298    8.6186    8.5000   49.0000   76.1154    0.0575    2.4627    1.0000    0.0000    0.0709    0.0967    0.0898    0.1081    0.0996 
2822.8000 2809.3067 -2743.6367   45.7161    8.6089    8.5000   49.0000   72.8124    0.0589    2.4724    1.0000    0.0000    0.0591    0.0930    0.0875    0.1107    0.1035 
2822.9000 2809.4065 -2743.7365   45.1589    8.6151    8.5000   49.0000   70.4842    0.0591    2.4760    1.0000    0.0000    0.0539    0.0916    0.0866    0.1127    0.1061 
2823.0000 2809.5063 -2743.8363   45.2123    8.6080    8.5000   49.0000   68.2783    0.0637    2.4784    1.0000    0.0000    0.0544    0.0921    0.0871    0.1118    0.1054 
2823.1000 2809.6060 -2743.9360   48.2733    8.6021    8.5000   49.0000   64.5542    0.0640    2.4692    1.0000    0.0000    0.0843    0.0960    0.0879    0.1173    0.1072 
2823.2000 2809.7058 -2744.0358   50.3266    8.5937    8.5000   49.0000   62.8886    0.0629    2.4653    1.0000    0.0000    0.1057    0.0973    0.0870    0.1229    0.1095 
2823.3000 2809.8056 -2744.1356   52.0213    8.5874    8.5000   49.0000   61.2835    0.0667    2.4632    1.0000    0.0000    0.1242    0.0994    0.0870    0.1241    0.1087 
2823.4000 2809.9053 -2744.2353   51.6243    8.5919    8.5000   49.0000   59.7407    0.0694    2.4639    1.0000    0.0000    0.1198    0.1000    0.0880    0.1226    0.1083 
2823.5000 2810.0051 -2744.3351   50.6244    8.5934    8.5000   49.0000   56.7783    0.0686    2.4649    1.0000    0.0000    0.1089    0.0993    0.0885    0.1246    0.1118 
2823.6000 2810.1048 -2744.4348   50.7694    8.5834    8.5000   49.0000   55.3546    0.0692    2.4653    1.0000    0.0000    0.1105    0.0994    0.0884    0.1262    0.1132 
2823.7000 2810.2046 -2744.5346   51.0137    8.5744    8.5000   49.0000   53.8534    0.0715    2.4667    1.0000    0.0000    0.1131    0.0996    0.0884    0.1270    0.1139 
2823.8000 2810.3044 -2744.6344   52.1434    8.5851    8.5000   49.0000   50.2045    0.0701    2.4710    1.0000    0.0000    0.1256    0.0974    0.0852    0.1380    0.1221 
2823.9000 2810.4041 -2744.7341   52.2121    8.5844    8.5000   49.0000   47.9590    0.0673    2.4694    1.0000    0.0000    0.1263    0.0970    0.0848    0.1439    0.1273 
2824.0000 2810.5039 -2744.8339   52.3342    8.5793    8.5000   49.0000   45.4010    0.0690    2.4678    1.0000    0.0000    0.1277    0.0983    0.0857    0.1457    0.1293 
2824.1000 2810.6036 -2744.9336   55.4792    8.5893    8.5000   49.0000   39.4242    0.0709    2.4693    1.0000    0.0000    0.1643    0.0984    0.0822    0.1665    0.1430 
2824.2000 2810.7034 -2745.0334   57.4638    8.5843    8.5000   49.0000   36.3445    0.0714    2.4725    1.0000    0.0000    0.1889    0.0973    0.0789    0.1844    0.1543 
2824.3000 2810.8032 -2745.1332   60.1889    8.5874    8.5000   49.0000   33.5211    0.0691    2.4745    1.0000    0.0000    0.2247    0.0956    0.0741    0.2080    0.1670 
2824.4000 2810.9029 -2745.2329   67.7383    8.6028    8.5000   49.0000   29.2532    0.0735    2.4814    1.0000    0.0000    0.3372    0.0945    0.0626    0.2731    0.1883 
