~VERSION INFORMATION
 VERS.                 2.0:   CWLS LOG ASCII STANDARD - VERSION 2.0
 WRAP.                  NO:   SINGLE LINE PER DEPTH STEP
 CREA.                 06/02/2020 16:08:49
#CREATED USING IP VERSION 4.5.2019.2902 BY RMOTA ON 06/02/2020 16:08:49
~WELL INFORMATION
#MNEM.UNIT       DATA                          DESCRIPTION MNEMONIC
#---------      ---------------------------   --------------------------
 STRT    .M         -0.4572                   : START DEPTH
 STOP    .M         3564.6360                 : STOP DEPTH
 STEP    .M         0.1524                    : STEP VALUE
 NULL    .      -999.0000                     : NULL VALUE
 DATE    .      06/02/2020                    : LAS file Creation Date
 WELL   .      7-MP-28D-BA        : Well Name
 COMP   .      PETROBRAS          : Company
 FLD    .      MASSAPE            : Field
 STATE  .      BAHIA              : State
 COUNT  .      BRASIL             : Country
 API    .      20240021354        : API Number
 UWI    .                         : Unique Well Identifier (UWI)
 LOC    .      N= 8.609.866,070 m : Location
 TOWN   .      CATU               : Township
 SCT    .      OH WIRELINE        : Section
 RANG   .      SCHLUMBERGER       : Range
 PDAT   .      NM                 : Permanent Datum
 EPDAT  .      0                  : Elevation of Permanent Datum
 LGMEA  .      MR                 : Log Measured from
 DRMEA  .      MR                 : Drill Measured From
 APDAT  .      105.72             : Elevation Above Permanent Datum
 KB     .      106.02             : KB Elevation
 DF     .      105.72             : DF Elevation
 GL     .      96.31999           : GL Elevation
 RWS    .      -999               : Def_Rw
 WST    .      -999               : Def_Rwt
 BHS    .      OPEN               : Completion Status
 PROV   .                         : Province
 SRVC   .                         : Contractor
 GDAT   .      WGS 84             : Geodatum
 LONG   .      -38.4270011107127  : Longitude
 LATI   .      -12.5743130556742  : Latitude
 COORDIN.                         : Grid System
 XCOORD .                         : X or East-West Coordinate
 YCOORD .                         : Y or North-South Coordinate
~CURVE INFORMATION
#MNEM              UNIT       API CODE   Curve Type Comments
#----------  --------------- ----------  ---------- -----------
 DEPTH      .M                         : Depth       
 BS         .in                        : BitSize     
 GR         .gAPI                      : GammaRay    
 CAL        .in                        : Caliper     
 RT         .ohm.m                     : DeepRes     
 NPHI       .m3/m3                     : Neutron     
 RHOB       .g/cm3                     :             
 DT         .us/ft                     : Sonic       
 SP         .mV                        : SP          Loaded from DLIS: 7-mp-28d-ba_raw-2p.dlis
 DRDN       .                          :             
 Lith_new   .                          :             
~A  DEPTH     BS        GR       CAL        RT       NPHI      RHOB       DT        SP       DRDN    Lith_new 
# ...
 744.9312   12.2500   47.6180   12.0566   19.4268    0.2092    2.3090   98.1160  204.1250   -2.0643   49.0000 
 745.0836   12.2500   45.7674   12.0566   22.1365    0.2251    2.2734  101.6758  203.8750   -2.2915   49.0000 
 745.2360   12.2500   43.3077   12.0325   24.1217    0.2490    2.2354  104.9891  204.0000   -2.2407   49.0000 
 745.3884   12.2500   40.9951   11.8877   25.0584    0.2528    2.1991  108.9691  203.0000   -2.7968   49.0000 
 745.5408   12.2500   37.9559   11.9480   25.0412    0.2599    2.1863  109.1486  202.0000   -2.5325   49.0000 
 745.6932   12.2500   35.5500   12.1049   26.1733    0.2245    2.2129  106.9536  201.0000   -2.9834   49.0000 
 745.8456   12.2500   37.4840   12.2014   26.7204    0.2022    2.2575  102.9995  201.2500   -2.8150   49.0000 
 745.9980   12.2500   37.0534   12.2497   27.5726    0.1689    2.2922  101.0627  200.3125   -3.3935   49.0000 
 746.1504   12.2500   39.2569   12.2738   24.2614    0.1786    2.3037  100.0036  198.9375   -2.9643   49.0000 
 746.3028   12.2500   39.8378   12.1290   22.7035    0.1867    2.2945  102.0257  199.0000   -3.0316   49.0000 
 746.4552   12.2500   41.9480   12.2255   22.1458    0.2009    2.2709  105.5744  198.8750   -3.0270   49.0000 
 746.6076   12.2500   41.7456   12.2979   22.5985    0.2107    2.2533  106.7984  198.0000   -2.9948   49.0000 
 746.7600   12.2500   41.9809   12.3945   22.6089    0.2463    2.2441  107.3743  197.5000   -1.9478   49.0000 
 746.9124   12.2500   39.7148   12.3824   22.0862    0.2676    2.2345  106.6495  196.4375   -1.5087   49.0000 
 747.0648   12.2500   37.1054   12.3462   22.2573    0.2699    2.2063  105.2207  196.0625   -2.1241   49.0000 
 747.2172   12.2500   35.7174   12.3221   23.9579    0.2542    2.1761  103.8100  195.3750   -3.1372   49.0000 
 747.3696   12.2500   36.7311   12.1652   25.1815    0.2470    2.1655  103.9574  195.0625   -3.4455   49.0000 
 747.5220   12.2500   37.3169   12.2738   27.8928    0.2531    2.1749  104.8438  195.0625   -2.9654   49.0000 
 747.6744   12.2500   36.8820   12.4186   27.3420    0.2495    2.1872  105.9869  195.8750   -2.8873   49.0000 
 747.8268   12.2500   37.8473   12.4669   24.0393    0.2392    2.1898  107.1740  196.8125   -3.2511   49.0000 
 747.9792   12.2500   35.4129   12.5393   22.6262    0.2440    2.1836  108.5058  196.3750   -3.2591   49.0000 
 748.1316   12.2500   35.9888   12.2859   22.3682    0.2735    2.1745  109.0148  195.8125   -2.4287   49.0000 
 748.2840   12.2500   34.8208   12.0084   21.7714    0.2999    2.1804  108.0880  196.3750   -1.2536   49.0000 
 748.4364   12.2500   35.4945   12.0325   21.7938    0.2708    2.2157   99.0805  196.0625   -1.3022   49.0000 
 748.5888   12.2500   33.0871   12.3945   21.8028    0.2219    2.2745   96.0030  195.5625   -1.7259   49.0000 
 748.7412   12.2500   33.4925   12.5875   22.3790    0.1957    2.3121   93.9842  195.8750   -2.2027   49.0000 
 748.8936   12.2500   39.5070   12.6358   23.1849    0.2133    2.2923   93.3360  195.6875   -2.3428   49.0000 
 749.0460   12.2500   40.7003   12.3221   21.7181    0.2466    2.2446  100.5862  195.6875   -2.1979   49.0000 
 749.1984   12.2500   42.2964   12.1773   21.2232    0.2552    2.2132  102.1074  195.0000   -2.2776   49.0000 
 749.3508   12.2500   40.7083   12.1411   22.4387    0.2496    2.2256  100.5382  194.6250   -1.9358   49.0000 
 749.5032   12.2500   52.0402   12.3703   23.9042    0.2285    2.2737   98.0220  193.9375   -1.4854   49.0000 
 749.6556   12.2500   67.0683   12.4427   16.5929    0.2393    2.3476   96.3297  193.8125    0.4851   57.0000 
 749.8080   12.2500   86.9310   12.5634   13.3204    0.2607    2.4281   92.8382  193.3750    2.7352   57.0000 
 749.9604   12.2500   93.8683   12.5393   10.8969    0.2759    2.4894   90.1599  193.4375    4.2965   57.0000 
 750.1128   12.2500   92.1956   12.4186   10.7053    0.2613    2.5211   89.3132  193.2500    4.2296   57.0000 
 750.2652   12.2500   82.0694   12.3221   10.7778    0.2429    2.5290   87.4298  194.1875    3.6712   57.0000 
 750.4176   12.2500   82.6192   12.2979   10.8909    0.2346    2.5222   86.1178  195.0000    3.1836   57.0000 
 750.5700   12.2500   82.7999   12.2979   11.0388    0.2361    2.5126   85.4928  195.1250    3.0874   57.0000 
 750.7224   12.2500   89.2168   12.4186   11.2196    0.2229    2.5050   85.1838  195.3125    2.4453   57.0000 
 750.8748   12.2500   82.5850   12.4669   11.4690    0.2131    2.4885   86.1462  195.6875    1.7286   57.0000 
 751.0272   12.2500   80.5030   12.7926   11.7866    0.1997    2.4641   85.8834  195.3125    0.7617   57.0000 
 751.1796   12.2500   75.0868   12.5151   12.3580    0.2043    2.4430   86.4914  196.5625    0.5944   57.0000 
 751.3320   12.2500   75.3077   12.3945   12.8256    0.1930    2.4376   84.9561  197.4375    0.1976   54.0000 
 751.4844   12.2500   72.5968   12.4065   13.7015    0.1956    2.4410   84.4771  197.0625    0.3807   57.0000 
 751.6368   12.2500   69.7165   12.4669   14.0763    0.1960    2.4535   84.6357  196.9375    0.7296   57.0000 
 751.7892   12.2500   66.5240   12.7082   13.7735    0.2077    2.4727   84.4656  196.5000    1.5036   57.0000 
 751.9416   12.2500   70.1243   12.5031   13.2570    0.2177    2.4912   86.1271  196.2500    2.1757   57.0000 
 752.0940   12.2500   74.7785   12.3945   12.3575    0.2389    2.5004   88.6920  195.6875    3.0031   57.0000 
 752.2464   12.2500   79.3589   12.3703   11.7379    0.2408    2.5011   88.7652  196.2500    3.0096   57.0000 
 752.3988   12.2500   81.6379   12.3462   11.4466    0.2417    2.4995   89.4881  195.5000    3.0868   57.0000 
 752.5512   12.2500   81.2832   12.3703   11.2375    0.2236    2.5021   88.9301  195.7500    2.4672   57.0000 
 752.7036   12.2500   77.8133   12.3462   11.1431    0.2150    2.4986   89.1456  196.1875    2.1262   57.0000 
 752.8560   12.2500   79.8407   12.4186   10.5620    0.2152    2.4921   91.2745  196.7500    1.9446   57.0000 
 753.0084   12.2500   79.9134   12.4186   10.0146    0.2273    2.4828   91.5363  196.5000    2.1845   57.0000 
 753.1608   12.2500   84.7639   12.4065    9.3028    0.2559    2.4838   92.2708  197.3125    3.2849   57.0000 
 753.3132   12.2500   83.7950   12.3945    9.4625    0.2450    2.4970   91.9240  198.2500    3.1830   57.0000 
 753.4656   12.2500   79.8274   12.3703   10.1436    0.2311    2.5050   89.8671  198.1875    2.8258   57.0000 
 753.6180   12.2500   74.3638   12.3703   10.6984    0.2086    2.4997   89.5752  197.8125    1.8442   57.0000 
 753.7704   12.2500   64.8166   12.3703   11.8612    0.2173    2.4823   90.2613  198.1875    1.7865   57.0000 
 753.9228   12.2500   70.3332   12.4186   11.7546    0.2308    2.4723   90.3192  199.3750    2.1253   57.0000 
 754.0752   12.2500   78.1174   12.4186   11.0950    0.2520    2.4802   91.8010  199.0000    3.1482   57.0000 
 754.2276   12.2500   84.7817   12.4427   10.4562    0.2424    2.5029   90.9166  197.5000    3.2563   57.0000 
 754.3800   12.2500   88.2281   12.4186   10.2867    0.2482    2.5158   90.2629  196.8750    3.6547   57.0000 
 754.5324   12.2500   87.5342   12.4186   10.2884    0.2318    2.5174   90.0799  196.8125    2.9770   57.0000 
 754.6848   12.2500   87.8892   12.3703   10.3378    0.2323    2.4987   89.3788  199.0000    2.6121   57.0000 
 754.8372   12.2500   81.3544   12.3703   10.2893    0.2154    2.4902   89.7217  198.4375    1.9622   57.0000 
 754.9896   12.2500   78.8668   12.3703   10.1367    0.2437    2.4903   90.1034  198.5625    2.9832   57.0000 
 755.1420   12.2500   74.8197   12.3945   10.2179    0.2483    2.5001   90.2606  201.0000    3.3280   57.0000 
 755.2944   12.2500   74.0561   12.3945   10.4671    0.2492    2.4966   91.7159  201.9375    3.1151   57.0000 
 755.4468   12.2500   72.1486   12.3945   11.0563    0.2406    2.4703   93.0526  200.5000    2.2121   57.0000 
 755.5992   12.2500   70.9750   12.3703   11.5314    0.2590    2.4385   92.9062  200.3125    2.2010   57.0000 
 755.7516   12.2500   66.1068   12.3824   12.2190    0.2453    2.4157   92.9249  200.3750    1.4314   57.0000 
 755.9040   12.2500   65.2776   12.3703   12.6657    0.2333    2.4154   92.5252  200.8750    1.1040   57.0000 
