~VERSION INFORMATION
 VERS.                 2.0:   CWLS LOG ASCII STANDARD - VERSION 2.0
 WRAP.                  NO:   SINGLE LINE PER DEPTH STEP
 CREA.                 06/02/2020 16:35:30
#CREATED USING IP VERSION 4.5.2019.2902 BY RMOTA ON 06/02/2020 16:35:30
~WELL INFORMATION
#MNEM.UNIT       DATA                          DESCRIPTION MNEMONIC
#---------      ---------------------------   --------------------------
 STRT    .M         15.6972                   : START DEPTH
 STOP    .M         2951.2260                 : STOP DEPTH
 STEP    .M         0.1524                    : STEP VALUE
 NULL    .      -999.0000                     : NULL VALUE
 DATE    .      06/02/2020                    : LAS file Creation Date
 WELL   .      7-MP-36D-BA       : Well Name
 COMP   .      PETROBRAS         : Company
 FLD    .      MASSAPE           : Field
 STATE  .      20240022534       : State
 COUNT  .      BRASIL            : Country
 API    .      20240022534       : API Number
 UWI    .                        : Unique Well Identifier (UWI)
 LOC    .      N= 8607444.13 M   : Location
 PDAT   .      NM                : Permanent Datum
 EPDAT  .      0                 : Elevation of Permanent Datum
 LGMEA  .      MR                : Log Measured from
 DRMEA  .      MR                : Drill Measured From
 APDAT  .      65.81             : Elevation Above Permanent Datum
 KB     .      66.11             : KB Elevation
 DF     .      65.81             : DF Elevation
 GL     .      56.41             : GL Elevation
 RWS    .      -999              : Def_Rw
 WST    .      -999              : Def_Rwt
 BHS    .      OPEN              : Completion Status
 PROV   .                        : Province
 SRVC   .                        : Contractor
 GDAT   .      WGS 84            : Geodatum
 LONG   .      -38.4351329444514 : Longitude
 LATI   .      -12.5962309720781 : Latitude
 COORDIN.                        : Grid System
 XCOORD .                        : X or East-West Coordinate
 YCOORD .                        : Y or North-South Coordinate
~CURVE INFORMATION
#MNEM              UNIT       API CODE   Curve Type Comments
#----------  --------------- ----------  ---------- -----------
 DEPTH      .M                         : Depth       
 BS         .in                        : BitSize     Loaded from DLIS: 7-mp-36d-ba_raw-1.dlis
 DCAL       .in                        :             Loaded from DLIS: 7-mp-36d-ba_raw-1.dlis
 GR         .gAPI                      : GammaRay    Loaded from DLIS: 7-mp-36d-ba_raw-1.dlis
 RT         .ohm.m                     : DeepRes     Loaded from DLIS: 7-mp-36d-ba_raw-1.dlis
 NPHI       .m3/m3                     : Neutron     Loaded from DLIS: 7-mp-36d-ba_raw-1.dlis
 RHOB       .g/cm3                     : Density     Loaded from DLIS: 7-mp-36d-ba_raw-1.dlis
 DT         .us/ft                     : Sonic       Loaded from DLIS: 7-mp-36d-ba_raw-1.dlis
 SP         .mV                        : SP          Loaded from DLIS: 7-mp-36d-ba_raw-1.dlis
 DRDN       .                          :             
 Lith_new   .                          :             
~A  DEPTH     BS       DCAL       GR        RT       NPHI      RHOB       DT        SP       DRDN    Lith_new 
# ...
2741.3712    8.5000    0.8603   70.0371   13.5780    0.1129    2.5896   67.9475  215.0625    0.5625   57.0000 
2741.5236    8.5000    0.8722   70.0371   13.5340    0.1090    2.5867   67.9814  215.2500    0.3347   57.0000 
2741.6760    8.5000    0.8484   71.5589   13.6364    0.1086    2.5819   68.0871  215.1250    0.1913   54.0000 
2741.8284    8.5000    0.8246   70.1108   13.8304    0.1091    2.5710   68.0685  214.9375    0.0091   54.0000 
2741.9808    8.5000    0.8484   68.4378   13.9216    0.1051    2.5743   68.0611  214.8125    0.0705   54.0000 
2742.1332    8.5000    0.8365   65.0230   14.0411    0.1088    2.5867   68.0202  214.7500    0.4575   57.0000 
2742.2856    8.5000    0.8365   68.3688   14.1277    0.1081    2.6023   68.2023  215.0625    0.7480   57.0000 
2742.4380    8.5000    0.8246   70.9347   14.2044    0.1182    2.6112   67.7937  215.1875    1.1646   57.0000 
2742.5904    8.5000    0.8128   79.5680   14.3280    0.1212    2.6075   67.3427  215.2500    1.1645   57.0000 
2742.7428    8.5000    0.7771   80.8250   14.4170    0.1280    2.6071   66.9873  215.5625    1.4491   57.0000 
2742.8952    8.5000    0.7771   86.2013   14.0094    0.1231    2.6172   66.4267  215.4375    1.5549   57.0000 
2743.0476    8.5000    0.7533   81.9190   13.4840    0.1225    2.6375   66.3082  215.2500    1.9583   57.0000 
2743.2000    8.5000    0.7533   86.1871   13.0965    0.1146    2.6489   66.4379  214.8750    1.8077   57.0000 
2743.3524    8.5000    0.7533   84.5169   12.8449    0.1132    2.6486   66.6780  214.8125    1.7034   57.0000 
2743.5048    8.5000    0.7414   88.0190   12.7698    0.1186    2.6356   66.6466  214.7500    1.5617   57.0000 
2743.6572    8.5000    0.7533   86.2114   12.7764    0.1209    2.6223   66.7456  214.4375    1.3903   57.0000 
2743.8096    8.5000    0.7295   85.7017   12.7630    0.1221    2.6073   66.9643  214.2500    1.1393   57.0000 
2743.9620    8.5000    0.7295   83.4157   12.4644    0.1261    2.6043   66.9369  214.4375    1.3090   57.0000 
2744.1144    8.5000    0.7295   81.5570   12.2074    0.1312    2.6057   66.9865  214.6875    1.4815   57.0000 
2744.2668    8.5000    0.7057   78.5829   12.2629    0.1360    2.6066   67.5039  214.7500    1.6780   57.0000 
2744.4192    8.5000    0.7057   78.7275   12.3609    0.1318    2.6079   67.3915  214.6875    1.5752   57.0000 
2744.5716    8.5000    0.6819   75.6711   12.5087    0.1346    2.6153   67.5648  214.7500    1.8490   57.0000 
2744.7240    8.5000    0.6819   76.0752   12.4561    0.1300    2.6170   67.6025  214.6875    1.6436   57.0000 
2744.8764    8.5000    0.6819   77.2752   12.4214    0.1305    2.6125   67.1768  214.5625    1.5506   57.0000 
2745.0288    8.5000    0.6938   78.1011   12.4729    0.1328    2.6071   67.6942  214.5000    1.5630   57.0000 
2745.1812    8.5000    0.6819   76.9128   12.4028    0.1313    2.6095   68.0396  214.5000    1.6052   57.0000 
2745.3336    8.5000    0.6581   73.6072   12.2271    0.1205    2.6178   68.0246  214.2500    1.4225   57.0000 
2745.4860    8.5000    0.6819   75.8447   12.1524    0.1112    2.6229   68.0520  214.0000    1.1582   57.0000 
2745.6384    8.5000    0.6819   79.0454   12.2348    0.1049    2.6242   67.2120  213.5000    0.9848   57.0000 
2745.7908    8.5000    0.7295   82.3053   12.3083    0.1123    2.6233   66.1477  213.1875    1.1955   57.0000 
2745.9432    8.5000    0.7295   80.6254   12.4999    0.1106    2.6201   65.9304  213.0000    1.0872   57.0000 
2746.0956    8.5000    0.7295   79.5101   12.5636    0.1188    2.6186   65.9277  212.8125    1.3130   57.0000 
2746.2480    8.5000    0.7295   77.2833   12.5927    0.1117    2.6204   66.0402  212.7500    1.1802   57.0000 
2746.4004    8.5000    0.7295   82.6738   12.9679    0.1115    2.6265   65.8151  213.1250    1.2735   57.0000 
2746.5528    8.5000    0.7295   85.7441   13.3623    0.1169    2.6309   65.6517  213.3125    1.5641   57.0000 
2746.7052    8.5000    0.7414   82.2544   14.0545    0.1208    2.6303   66.1596  213.1250    1.5538   57.0000 
2746.8576    8.5000    0.7533   76.6780   14.0410    0.1201    2.6126   67.3435  212.8125    1.0821   57.0000 
2747.0100    8.5000    0.7652   68.3676   13.9996    0.1084    2.5870   68.4502  212.4375    0.1615   54.0000 
2747.1624    8.5000    0.8009   72.2711   14.2512    0.1094    2.5632   69.8121  212.4375   -0.1954   54.0000 
2747.3148    8.5000    0.8246   66.4108   14.2592    0.1165    2.5558   70.1803  212.5000    0.0352   54.0000 
2747.4672    8.5000    0.8246   67.7853   14.2875    0.1267    2.5613   70.2699  212.7500    0.4895   57.0000 
2747.6196    8.5000    0.8246   63.6602   14.2464    0.1248    2.5643   70.4446  213.0000    0.4309   57.0000 
2747.7720    8.5000    0.8246   69.3345   14.4490    0.1220    2.5580   70.2980  212.6250    0.1548   54.0000 
2747.9244    8.5000    0.8128   66.1368   14.4294    0.1106    2.5477   70.2974  212.6875   -0.4125   25.0000 
2748.0768    8.5000    0.8246   66.3268   14.5470    0.1125    2.5407   70.2111  213.0625   -0.4786   25.0000 
2748.2292    8.5000    0.8484   68.1856   14.5942    0.1072    2.5373   70.0935  213.4375   -0.7016   25.0000 
2748.3816    8.5000    0.8484   75.9471   14.6420    0.1167    2.5365   69.9790  213.5000   -0.3631   25.0000 
2748.5340    8.5000    0.8246   78.2093   14.7177    0.1090    2.5385   69.6076  213.0000   -0.5470   25.0000 
2748.6864    8.5000    0.7890   77.2799   14.4419    0.1153    2.5521   69.1059  212.3750    0.0353   54.0000 
2748.8388    8.5000    0.8009   78.5789   14.2664    0.1097    2.5737   69.0213  211.9375    0.2436   54.0000 
2748.9912    8.5000    0.8009   81.5529   14.7124    0.1118    2.5940   68.4614  211.5625    0.7682   57.0000 
2749.1436    8.5000    0.7771   81.1812   15.5773    0.1075    2.6112   67.5393  211.2500    0.8380   57.0000 
2749.2960    8.5000    0.7771   79.3811   16.3287    0.1093    2.6089   67.0616  210.6875    0.7667   57.0000 
2749.4484    8.5000    0.8009   76.3672   16.6384    0.1120    2.5969   66.7289  210.6875    0.5628   57.0000 
2749.6008    8.5000    0.7771   74.6545   16.6362    0.1156    2.5865   67.2561  210.9375    0.5753   57.0000 
2749.7532    8.5000    0.8009   73.1984   16.4560    0.1190    2.5935   68.0075  210.6875    0.9334   57.0000 
2749.9056    8.5000    0.7890   74.1263   16.0734    0.1193    2.6036   68.9512  210.9375    1.0661   57.0000 
2750.0580    8.5000    0.8009   70.4802   15.7264    0.1138    2.5970   70.3216  211.0000    0.6077   57.0000 
2750.2104    8.5000    0.8246   66.7319   16.4753    0.1030    2.5714   71.4608  211.0625   -0.3396   25.0000 
2750.3628    8.5000    0.8722   62.1201   17.1933    0.0961    2.5434   72.1106  211.6250   -1.0910   49.0000 
2750.5152    8.5000    0.8722   60.7872   18.2881    0.0977    2.5253   72.0632  211.7500   -1.2961   49.0000 
2750.6676    8.5000    0.8722   63.7091   18.0912    0.1010    2.5231   71.9811  211.8125   -1.1302   49.0000 
2750.8200    8.5000    0.8484   66.5036   16.8748    0.1071    2.5377   70.5394  211.6875   -0.5214   25.0000 
2750.9724    8.5000    0.8246   73.5670   16.5037    0.1087    2.5623   69.0161  211.6250    0.0617   54.0000 
2751.1248    8.5000    0.8246   74.9641   16.0188    0.1112    2.5923   67.2734  211.2500    0.7227   57.0000 
2751.2772    8.5000    0.8246   79.4252   16.3989    0.1142    2.6143   65.6468  210.9375    1.2103   57.0000 
2751.4296    8.5000    0.8484   88.6605   16.4818    0.1122    2.6276   65.2871  210.4375    1.3177   57.0000 
2751.5820    8.5000    0.8484   86.9726   16.4178    0.1115    2.6220   66.1967  210.1875    1.0823   57.0000 
2751.7344    8.5000    0.8603   87.1124   16.3044    0.1108    2.6041   67.7468  209.8750    0.5898   57.0000 
2751.8868    8.5000    0.8841   71.9374   16.1757    0.1094    2.5753   68.8263  209.5000   -0.0090   54.0000 
2752.0392    8.5000    0.9198   70.3725   15.4433    0.1113    2.5585   70.0704  209.5000   -0.1734   54.0000 
2752.1916    8.5000    0.9317   64.8421   14.9100    0.1103    2.5566   70.5983  209.1875   -0.1381   54.0000 
2752.3440    8.5000    0.9198   68.3654   14.3405    0.1127    2.5704   70.4385  208.6875    0.2558   54.0000 
