~VERSION INFORMATION
 VERS.                 2.0:   CWLS LOG ASCII STANDARD - VERSION 2.0
 WRAP.                  NO:   SINGLE LINE PER DEPTH STEP
 CREA.                 30/01/2020 17:28:45
#CREATED USING IP VERSION 4.5.2019.2902 BY RMOTA ON 30/01/2020 17:28:45
~WELL INFORMATION
#MNEM.UNIT       DATA                          DESCRIPTION MNEMONIC
#---------      ---------------------------   --------------------------
 STRT    .M         5.0000                    : START DEPTH
 STOP    .M         2977.0000                 : STOP DEPTH
 STEP    .M         0.1000                    : STEP VALUE
 NULL    .      -999.0000                     : NULL VALUE
 DATE    .      30/01/2020                    : LAS file Creation Date
 WELL   .      7-MP-53D-BA      : Well Name
 COMP   .      PETROBRAS        : Company
 FLD    .      MASSAPE          : Field
 STATE  .      BAHIA            : State
 API    .      20240027945      : API Number
 UWI    .                       : Unique Well Identifier (UWI)
 LOC    .                       : Location
 TOWN   .      -999.25          : Township
 SCT    .      -999.25          : Section
 RANG   .      -999.25          : Range
 PDAT   .      NM               : Permanent Datum
 EPDAT  .      0.00             : Elevation of Permanent Datum
 LGMEA  .      MR               : Log Measured from
 DRMEA  .      MR               : Drill Measured From
 APDAT  .      64.90            : Elevation Above Permanent Datum
 KB     .      -999.25          : KB Elevation
 DF     .      64.90            : DF Elevation
 GL     .      56.80            : GL Elevation
 RWS    .      -999             : Def_Rw
 WST    .      -999             : Def_Rwt
 PROV   .                       : Province
 SRVC   .                       : Contractor
 GDAT   .      WGS 84           : Geodatum
 LONG   .      -38.4325436115265: Longitude
 LATI   .      0                : Latitude
 COORDIN.                       : Grid System
 XCOORD .                       : X or East-West Coordinate
 YCOORD .                       : Y or North-South Coordinate
~CURVE INFORMATION
#MNEM              UNIT       API CODE   Curve Type Comments
#----------  --------------- ----------  ---------- -----------
 DEPTH      .M                         : Depth       
 DEPTH      .M                         : Depth       
 DRDN       .                          :             
 GR         .api                       : GammaRay    
 CAL        .in                        : Caliper     
 Res        .                          :             
 N_Res      .                          :             
 ILD        .ohmm                      : DeepRes     
 RHOB       .g/cc                      : Density     Loaded from DLIS: 7-mp-53d-ba_raw-3.dlis
 NPHI       .dec                       : Neutron     Loaded from DLIS: 7-mp-53d-ba_raw-3.dlis
 Lith_new   .                          :             
~A  DEPTH   DEPTH      DRDN       GR       CAL       Res      N_Res      ILD       RHOB      NPHI    Lith_new 
# ...
2961.5000 2961.5000   -3.1458   54.7411    8.4156 -999.0000 -999.0000   14.2580    2.4171    0.1054   49.0000 
2961.6000 2961.6000   -3.2801   53.0024    8.4183 -999.0000 -999.0000   14.2170    2.4099    0.1057   49.0000 
2961.7000 2961.7000   -3.2658   53.9726    8.4149 -999.0000 -999.0000   14.1784    2.4079    0.1073   49.0000 
2961.8000 2961.8000   -3.3039 -999.0000    8.4171 -999.0000 -999.0000   14.1288    2.4040    0.1085   49.0000 
2961.9000 2961.9000   -3.1300 -999.0000    8.4080 -999.0000 -999.0000   14.0654    2.4066    0.1121   49.0000 
2962.0000 2962.0000   -3.1134 -999.0000    8.3976 -999.0000 -999.0000   13.9090    2.4085    0.1115   49.0000 
2962.1000 2962.1000   -3.1410 -999.0000    8.3915 -999.0000 -999.0000   13.8225    2.4101    0.1097   49.0000 
2962.2000 2962.2000   -3.3081 -999.0000    8.3911 -999.0000 -999.0000   13.7326    2.4071    0.1065   49.0000 
2962.3000 2962.3000   -3.3526 -999.0000    8.3923 -999.0000 -999.0000   13.5364    2.4048    0.1065   49.0000 
2962.4000 2962.4000   -3.3255 -999.0000    8.3928 -999.0000 -999.0000   13.4311    2.4086    0.1051   49.0000 
2962.5000 2962.5000   -3.2208 -999.0000    8.3932 -999.0000 -999.0000   13.3247    2.4127    0.1058   49.0000 
2962.6000 2962.6000   -2.8691 -999.0000    8.3893 -999.0000 -999.0000   13.1157    2.4227    0.1103   49.0000 
2962.7000 2962.7000   -2.9425 -999.0000    8.3939 -999.0000 -999.0000   13.0165    2.4205    0.1094   49.0000 
2962.8000 2962.8000   -2.8666 -999.0000    8.3888 -999.0000 -999.0000   12.9383    2.4219    0.1109   49.0000 
2962.9000 2962.9000   -2.8339 -999.0000    8.3921 -999.0000 -999.0000   12.9647    2.4208    0.1125   49.0000 
2963.0000 2963.0000   -2.8152 -999.0000    8.3929 -999.0000 -999.0000   13.0152    2.4248    0.1107   49.0000 
2963.1000 2963.1000   -2.8257 -999.0000    8.3976 -999.0000 -999.0000   13.0491    2.4250    0.1102   49.0000 
2963.2000 2963.2000   -2.7737 -999.0000    8.3889 -999.0000 -999.0000   13.0898    2.4283    0.1098   49.0000 
2963.3000 2963.3000   -2.6893 -999.0000    8.3938 -999.0000 -999.0000   13.1082    2.4305    0.1110   49.0000 
2963.4000 2963.4000   -2.7480 -999.0000    8.3939 -999.0000 -999.0000   13.1524    2.4326    0.1080   49.0000 
2963.5000 2963.5000   -2.7791 -999.0000    8.3929 -999.0000 -999.0000   13.2425    2.4306    0.1083   49.0000 
2963.6000 2963.6000   -3.1059 -999.0000    8.3976 -999.0000 -999.0000   13.5815    2.4205    0.1045   49.0000 
2963.7000 2963.7000   -3.1929 -999.0000    8.3953 -999.0000 -999.0000   13.8013    2.4163    0.1044   49.0000 
2963.8000 2963.8000   -3.1593 -999.0000    8.3990 -999.0000 -999.0000   14.0267    2.4148    0.1063   49.0000 
2963.9000 2963.9000   -3.1335 -999.0000    8.3958 -999.0000 -999.0000   14.4524    2.4135    0.1079   49.0000 
2964.0000 2964.0000   -3.0856 -999.0000    8.3948 -999.0000 -999.0000   14.6472    2.4119    0.1103   49.0000 
2964.1000 2964.1000   -3.2601 -999.0000    8.3971 -999.0000 -999.0000   14.8319    2.4101    0.1061   49.0000 
2964.2000 2964.2000   -3.3256 -999.0000    8.3971 -999.0000 -999.0000   15.1681    2.4091    0.1048   49.0000 
2964.3000 2964.3000   -3.2190 -999.0000    8.3964 -999.0000 -999.0000   15.3123    2.4090    0.1080   49.0000 
2964.4000 2964.4000   -3.3629 -999.0000    8.3997 -999.0000 -999.0000   15.4376    2.4096    0.1034   49.0000 
2964.5000 2964.5000   -3.3487 -999.0000    8.3972 -999.0000 -999.0000   15.6403    2.4091    0.1041   49.0000 
2964.6000 2964.6000   -3.2770 -999.0000    8.3967 -999.0000 -999.0000   15.7132    2.4097    0.1059   49.0000 
2964.7000 2964.7000   -3.2857 -999.0000    8.3931 -999.0000 -999.0000   15.7611    2.4099    0.1055   49.0000 
2964.8000 2964.8000   -2.9878 -999.0000    8.3965 -999.0000 -999.0000   15.7680    2.4158    0.1109   49.0000 
2964.9000 2964.9000 -999.0000 -999.0000    8.3953 -999.0000 -999.0000   15.7252    2.4175 -999.0000 -999.0000 
2965.0000 2965.0000 -999.0000 -999.0000    8.3983 -999.0000 -999.0000   15.6600    2.4215 -999.0000 -999.0000 
2965.1000 2965.1000 -999.0000 -999.0000    8.3962 -999.0000 -999.0000   15.5814    2.4236 -999.0000 -999.0000 
2965.2000 2965.2000 -999.0000 -999.0000    8.3956 -999.0000 -999.0000   15.4078    2.4264 -999.0000 -999.0000 
2965.3000 2965.3000 -999.0000 -999.0000    8.3981 -999.0000 -999.0000   15.3142    2.4270 -999.0000 -999.0000 
2965.4000 2965.4000 -999.0000 -999.0000    8.3960 -999.0000 -999.0000   15.2082    2.4265 -999.0000 -999.0000 
2965.5000 2965.5000 -999.0000 -999.0000    8.3933 -999.0000 -999.0000   14.9725    2.4345 -999.0000 -999.0000 
2965.6000 2965.6000 -999.0000 -999.0000    8.3955 -999.0000 -999.0000   14.8616    2.4370 -999.0000 -999.0000 
2965.7000 2965.7000 -999.0000 -999.0000    8.3951 -999.0000 -999.0000   14.7566    2.4419 -999.0000 -999.0000 
2965.8000 2965.8000 -999.0000 -999.0000    8.3951 -999.0000 -999.0000   14.5616    2.4372 -999.0000 -999.0000 
2965.9000 2965.9000 -999.0000 -999.0000    8.3971 -999.0000 -999.0000   14.4805    2.4323 -999.0000 -999.0000 
2966.0000 2966.0000 -999.0000 -999.0000    8.3951 -999.0000 -999.0000   14.4188    2.4235 -999.0000 -999.0000 
2966.1000 2966.1000 -999.0000 -999.0000    8.3894 -999.0000 -999.0000   14.3769    2.4165 -999.0000 -999.0000 
2966.2000 2966.2000 -999.0000 -999.0000    8.3957 -999.0000 -999.0000   14.3984    2.4150 -999.0000 -999.0000 
2966.3000 2966.3000 -999.0000 -999.0000    8.3933 -999.0000 -999.0000   14.4375    2.4180 -999.0000 -999.0000 
2966.4000 2966.4000 -999.0000 -999.0000    8.3953 -999.0000 -999.0000   14.4797    2.4201 -999.0000 -999.0000 
2966.5000 2966.5000 -999.0000 -999.0000    8.3977 -999.0000 -999.0000   14.5083    2.4247 -999.0000 -999.0000 
2966.6000 2966.6000 -999.0000 -999.0000    8.3954 -999.0000 -999.0000   14.4777    2.4249 -999.0000 -999.0000 
2966.7000 2966.7000 -999.0000 -999.0000    8.3993 -999.0000 -999.0000   14.4244    2.4233 -999.0000 -999.0000 
2966.8000 2966.8000 -999.0000 -999.0000    8.3926 -999.0000 -999.0000   14.2960    2.4180 -999.0000 -999.0000 
2966.9000 2966.9000 -999.0000 -999.0000    8.3945 -999.0000 -999.0000   14.2375    2.4170 -999.0000 -999.0000 
2967.0000 2967.0000 -999.0000 -999.0000    8.3945 -999.0000 -999.0000   14.1869    2.4184 -999.0000 -999.0000 
2967.1000 2967.1000 -999.0000 -999.0000    8.3975 -999.0000 -999.0000   14.1078    2.4194 -999.0000 -999.0000 
2967.2000 2967.2000 -999.0000 -999.0000    8.3952 -999.0000 -999.0000   14.0851    2.4182 -999.0000 -999.0000 
2967.3000 2967.3000 -999.0000 -999.0000    8.3980 -999.0000 -999.0000   14.0794    2.4154 -999.0000 -999.0000 
2967.4000 2967.4000 -999.0000 -999.0000    8.3971 -999.0000 -999.0000   14.1340    2.4147 -999.0000 -999.0000 
2967.5000 2967.5000 -999.0000 -999.0000    8.4019 -999.0000 -999.0000   14.1983    2.4143 -999.0000 -999.0000 
2967.6000 2967.6000 -999.0000 -999.0000    8.3945 -999.0000 -999.0000   14.2843    2.4153 -999.0000 -999.0000 
2967.7000 2967.7000 -999.0000 -999.0000    8.3939 -999.0000 -999.0000   14.4819    2.4114 -999.0000 -999.0000 
2967.8000 2967.8000 -999.0000 -999.0000    8.3945 -999.0000 -999.0000   14.5549 -999.0000 -999.0000 -999.0000 
2967.9000 2967.9000 -999.0000 -999.0000    8.3933 -999.0000 -999.0000   14.5823 -999.0000 -999.0000 -999.0000 
2968.0000 2968.0000 -999.0000 -999.0000    8.3952 -999.0000 -999.0000   14.5559 -999.0000 -999.0000 -999.0000 
2968.1000 2968.1000 -999.0000 -999.0000    8.3948 -999.0000 -999.0000   14.3832 -999.0000 -999.0000 -999.0000 
2968.2000 2968.2000 -999.0000 -999.0000 -999.0000 -999.0000 -999.0000   14.2802 -999.0000 -999.0000 -999.0000 
2968.3000 2968.3000 -999.0000 -999.0000 -999.0000 -999.0000 -999.0000   14.1926 -999.0000 -999.0000 -999.0000 
2968.4000 2968.4000 -999.0000 -999.0000 -999.0000 -999.0000 -999.0000   14.0808 -999.0000 -999.0000 -999.0000 
2968.5000 2968.5000 -999.0000 -999.0000 -999.0000 -999.0000 -999.0000   14.0483 -999.0000 -999.0000 -999.0000 
2968.6000 2968.6000 -999.0000 -999.0000 -999.0000 -999.0000 -999.0000   14.0286 -999.0000 -999.0000 -999.0000 
2968.7000 2968.7000 -999.0000 -999.0000 -999.0000 -999.0000 -999.0000   14.0249 -999.0000 -999.0000 -999.0000 
