~VERSION INFORMATION
 VERS.                 2.0:   CWLS LOG ASCII STANDARD - VERSION 2.0
 WRAP.                  NO:   SINGLE LINE PER DEPTH STEP
 CREA.                 28/08/2020 11:52:07
#CREATED USING IP VERSION 4.5.2019.2902 BY CANDIDO ON 28/08/2020 11:52:07
~WELL INFORMATION
#MNEM.UNIT       DATA                          DESCRIPTION MNEMONIC
#---------      ---------------------------   --------------------------
 STRT    .M         639.0000                  : START DEPTH
 STOP    .M         3007.1000                 : STOP DEPTH
 STEP    .M         0.1000                    : STEP VALUE
 NULL    .      -999.0000                     : NULL VALUE
 DATE    .      28/08/2020                    : LAS file Creation Date
 WELL   .      7-MP-55D-BA     : Well Name
 COMP   .      PETROBRAS       : Company
 FLD    .      MASSAPE         : Field
 STATE  .      BAHIA           : State
 COUNT  .      -999.25         : Country
 API    .      20240028408     : API Number
 UWI    .                      : Unique Well Identifier (UWI)
 LOC    .      -999.25         : Location
 TOWN   .      -999.25         : Township
 SCT    .      -999.25         : Section
 RANG   .      -999.25         : Range
 PDAT   .      NM              : Permanent Datum
 EPDAT  .      0.00            : Elevation of Permanent Datum
 LGMEA  .      MR              : Log Measured from
 DRMEA  .      MR              : Drill Measured From
 APDAT  .      65.67           : Elevation Above Permanent Datum
 KB     .      65.97           : KB Elevation
 DF     .      65.67           : DF Elevation
 GL     .      56.27           : GL Elevation
 RWS    .      -999            : Def_Rw
 WST    .      -999            : Def_Rwt
 PROV   .                      : Province
 SRVC   .                      : Contractor
 GDAT   .      WGS 84          : Geodatum
 LONG   .      -38.435231944455: Longitude
 LATI   .      0               : Latitude
 COORDIN.                      : Grid System
 XCOORD .                      : X or East-West Coordinate
 YCOORD .                      : Y or North-South Coordinate
~CURVE INFORMATION
#MNEM                UNIT       API CODE   Curve Type Comments
#----------    --------------- ----------  ---------- -----------
 DEPTH        .M                         : Depth       
 TVD          .M                         : Depth       
 TVDSS        .M                         : Depth       
 GR           .api                       : GammaRay    
 CAL          .in                        : Caliper     
 BS           .in                        : BitSize     
 Lith_new     .                          :             
 RT           .ohmm                      : DeepRes     
 NPHI         .decp                      : Neutron     
 RHOB         .g/cc                      : Density     
 Res          .                          :             
 N_Res        .                          :             
 VCLGR        .Dec                       : Vcl         
 Phi_Gaymard  .                          :             
 Phie_Gaymard .                          :             
 SwArch       .Dec                       :             
 SwSim        .Dec                       :             
~A  DEPTH    TVD      TVDSS       GR       CAL        BS     Lith_new     RT       NPHI      RHOB      Res      N_Res     VCLGR   Phi_Gaym~ Phie_Gay~   SwArch    SwSim   
# ...
2655.3000 2641.9570 -2576.2870   55.5708    8.9500    8.5000   49.0000   15.2576    0.1064    2.4804    1.0000    0.0000    0.0977    0.1094    0.0987    0.2047    0.1961 
2655.4000 2642.0569 -2576.3869   52.5632    8.9442    8.5000   49.0000   15.1929    0.1005    2.4873    1.0000    0.0000    0.0673    0.1042    0.0972    0.2073    0.2012 
2655.5000 2642.1569 -2576.4869   52.1739    8.9542    8.5000   49.0000   14.9568    0.0987    2.4898    1.0000    0.0000    0.0635    0.1025    0.0960    0.2113    0.2054 
2655.6000 2642.2568 -2576.5868   53.9143    8.9692    8.5000   49.0000   14.8116    0.1018    2.4894    1.0000    0.0000    0.0807    0.1041    0.0957    0.2136    0.2060 
2655.7000 2642.3568 -2576.6868   57.8608    8.9419    8.5000   49.0000   14.6722    0.1048    2.4779    1.0000    0.0000    0.1224    0.1095    0.0961    0.2152    0.2037 
2655.8000 2642.4567 -2576.7868   59.2348    8.9496    8.5000   49.0000   14.4475    0.1039    2.4732    1.0000    0.0000    0.1379    0.1107    0.0954    0.2189    0.2058 
2655.9000 2642.5567 -2576.8867   59.3798    8.9584    8.5000   49.0000   14.3714    0.1060    2.4729    1.0000    0.0000    0.1396    0.1118    0.0962    0.2174    0.2044 
2656.0000 2642.6567 -2576.9867   58.0440    8.9570    8.5000   49.0000   14.3194    0.1018    2.4865    1.0000    0.0000    0.1244    0.1051    0.0920    0.2279    0.2152 
2656.1000 2642.7566 -2577.0866   54.6853    8.9390    8.5000   49.0000   14.2866    0.1035    2.4916    1.0000    0.0000    0.0885    0.1042    0.0950    0.2193    0.2109 
2656.2000 2642.8566 -2577.1866   51.6014    8.9392    8.5000   49.0000   14.2555    0.1053    2.4948    1.0000    0.0000    0.0581    0.1040    0.0980    0.2116    0.2065 
2656.3000 2642.9565 -2577.2865   45.8917    8.9437    8.5000   49.0000   14.2503    0.1035    2.4873    1.0000    0.0000    0.0073    0.1056    0.1049    0.1967    0.1961 
2656.4000 2643.0565 -2577.3865   45.4031    8.9354    8.5000   49.0000   14.2479    0.1008    2.4828    1.0000    0.0000    0.0033    0.1059    0.1055    0.1956    0.1954 
2656.5000 2643.1565 -2577.4865   45.8153    8.9325    8.5000   49.0000   14.2380    0.1009    2.4793    1.0000    0.0000    0.0067    0.1071    0.1064    0.1945    0.1940 
2656.6000 2643.2564 -2577.5864   49.3038    8.8905    8.5000   49.0000   14.2007    0.0982    2.4878    1.0000    0.0000    0.0368    0.1029    0.0991    0.2090    0.2058 
2656.7000 2643.3564 -2577.6864   52.5327    8.8845    8.5000   49.0000   14.0520    0.0903    2.5015    1.0000    0.0000    0.0670    0.0944    0.0881    0.2370    0.2297 
2656.8000 2643.4563 -2577.7863   57.7005    8.8654    8.5000   49.0000   12.8445    0.0833    2.5194    1.0000    0.0000    0.1206    0.0849    0.0747    0.3019    0.2826 
2656.9000 2643.5563 -2577.8863   65.1811    8.8500    8.5000   49.0000   11.6449    0.0845    2.5478    1.0000    0.0000    0.2112    0.0766    0.0604    0.4365    0.3753 
2657.0000 2643.6562 -2577.9863   83.6309    8.8409    8.5000   54.0000   10.2512    0.0876    2.5917    0.0000    1.0000    0.5196    0.0677    0.0325    1.3000    0.6215 
2657.1000 2643.7562 -2578.0862   88.5850    8.8430    8.5000   57.0000    7.9728    0.1058    2.6068    0.0000    1.0000    0.6288    0.0775    0.0288    1.3000    0.6958 
2657.2000 2643.8562 -2578.1862   89.2567    8.8546    8.5000   57.0000    7.3963    0.1176    2.6065    0.0000    1.0000    0.6447    0.0856    0.0304    1.3000    0.7149 
2657.3000 2643.9561 -2578.2861   84.2492    8.8357    8.5000   57.0000    7.1617    0.1326    2.5956    0.0000    1.0000    0.5325    0.0972    0.0454    1.2193    0.6579 
2657.4000 2644.0561 -2578.3861   85.3179    8.8463    8.5000   57.0000    7.0990    0.1516    2.5902    0.0000    1.0000    0.5553    0.1108    0.0493    0.9460    0.5709 
2657.5000 2644.1560 -2578.4860   90.4093    8.8405    8.5000   57.0000    7.0350    0.1450    2.5910    0.0000    1.0000    0.6725    0.1062    0.0348    1.3000    0.6143 
2657.6000 2644.2560 -2578.5860  102.2563    8.8459    8.5000   57.0000    6.9595    0.1424    2.6006    0.0000    1.0000    1.0045    0.1033    0.0000    1.3000    0.5087 
2657.7000 2644.3560 -2578.6860  103.2105    8.8479    8.5000   57.0000    6.9459    0.1387    2.6038    0.0000    1.0000    1.0212    0.1004    0.0000    1.3000    0.5097 
2657.8000 2644.4559 -2578.7859  101.6838    8.8468    8.5000   57.0000    7.2035    0.1524    2.6036    0.0000    1.0000    0.9898    0.1099    0.0011    1.3000    0.4965 
2657.9000 2644.5559 -2578.8859   97.3481    8.8374    8.5000   57.0000    7.4153    0.1617    2.5939    0.0000    1.0000    0.8574    0.1173    0.0167    1.3000    0.5526 
2658.0000 2644.6558 -2578.9858   95.1649    8.8589    8.5000   57.0000    7.6453    0.1582    2.5888    0.0000    1.0000    0.7958    0.1155    0.0236    1.3000    0.5275 
2658.1000 2644.7558 -2579.0858   92.0200    8.8609    8.5000   57.0000    8.2979    0.1414    2.5857    0.0000    1.0000    0.7127    0.1044    0.0300    1.3000    0.5127 
2658.2000 2644.8557 -2579.1857   82.7302    8.8577    8.5000   57.0000    8.8110    0.1394    2.5856    0.0000    1.0000    0.5011    0.1031    0.0514    0.8014    0.4954 
2658.3000 2644.9557 -2579.2857   78.5166    8.8631    8.5000   57.0000    9.3795    0.1362    2.5884    0.0000    1.0000    0.4198    0.1005    0.0583    0.6351    0.4492 
2658.4000 2645.0557 -2579.3857   76.8678    8.8854    8.5000   57.0000   10.2064    0.1213    2.5926    0.0000    1.0000    0.3902    0.0899    0.0548    0.6845    0.4699 
2658.5000 2645.1556 -2579.4856   75.9900    8.8814    8.5000   57.0000   10.4324    0.1159    2.5965    0.0000    1.0000    0.3750    0.0857    0.0536    0.7120    0.4850 
2658.6000 2645.2556 -2579.5856   76.8220    8.9094    8.5000   57.0000   10.5640    0.1131    2.5782    0.0000    1.0000    0.3894    0.0868    0.0530    0.6736    0.4597 
2658.7000 2645.3555 -2579.6855   74.7228    8.9100    8.5000   54.0000   10.4086    0.1169    2.5519    0.0000    1.0000    0.3535    0.0946    0.0611    0.4874    0.3793 
2658.8000 2645.4555 -2579.7855   71.9595    8.9145    8.5000   25.0000   10.2338    0.1203    2.5192    0.0000    1.0000    0.3088    0.1048    0.0725    0.3676    0.3122 
2658.9000 2645.5555 -2579.8855   63.0438    8.9430    8.5000   49.0000   10.1213    0.1169    2.4713    1.0000    0.0000    0.1836    0.1176    0.0960    0.2588    0.2418 
2659.0000 2645.6554 -2579.9854   61.0591    8.9516    8.5000   49.0000   10.0237    0.1062    2.4701    1.0000    0.0000    0.1593    0.1129    0.0949    0.2655    0.2501 
2659.1000 2645.7554 -2580.0854   60.0210    8.9457    8.5000   49.0000    9.9781    0.1065    2.4828    1.0000    0.0000    0.1470    0.1086    0.0927    0.2722    0.2573 
2659.2000 2645.8553 -2580.1853   60.7080    8.9440    8.5000   49.0000    9.9120    0.1116    2.5066    1.0000    0.0000    0.1551    0.1036    0.0875    0.2906    0.2728 
2659.3000 2645.9553 -2580.2853   59.7309    8.9620    8.5000   49.0000    9.8277    0.1145    2.5062    1.0000    0.0000    0.1436    0.1053    0.0902    0.2823    0.2669 
2659.4000 2646.0552 -2580.3852   58.7615    8.9515    8.5000   49.0000    9.6846    0.1043    2.4968    1.0000    0.0000    0.1325    0.1029    0.0893    0.2868    0.2723 
2659.5000 2646.1552 -2580.4852   56.3952    8.9864    8.5000   49.0000    9.6595    0.1018    2.4820    1.0000    0.0000    0.1065    0.1066    0.0953    0.2679    0.2577 
2659.6000 2646.2552 -2580.5852   55.5250    8.9883    8.5000   49.0000    9.6700    0.1013    2.4813    1.0000    0.0000    0.0972    0.1066    0.0963    0.2646    0.2554 
2659.7000 2646.3551 -2580.6851   54.3342    8.9920    8.5000   49.0000    9.7780    0.1000    2.4847    1.0000    0.0000    0.0850    0.1048    0.0959    0.2632    0.2552 
2659.8000 2646.4551 -2580.7851   52.7999    8.9949    8.5000   49.0000    9.8612    0.0985    2.4914    1.0000    0.0000    0.0696    0.1018    0.0947    0.2640    0.2573 
2659.9000 2646.5550 -2580.8850   52.9220    8.9939    8.5000   49.0000    9.9584    0.0998    2.4884    1.0000    0.0000    0.0708    0.1035    0.0961    0.2591    0.2525 
