~VERSION INFORMATION
 VERS.                 2.0:   CWLS LOG ASCII STANDARD - VERSION 2.0
 WRAP.                  NO:   SINGLE LINE PER DEPTH STEP
 CREA.                 30/01/2020 17:31:38
#CREATED USING IP VERSION 4.5.2019.2902 BY RMOTA ON 30/01/2020 17:31:38
~WELL INFORMATION
#MNEM.UNIT       DATA                          DESCRIPTION MNEMONIC
#---------      ---------------------------   --------------------------
 STRT    .M         5.9400                    : START DEPTH
 STOP    .M         3362.3976                 : STOP DEPTH
 STEP    .M         0.1524                    : STEP VALUE
 NULL    .      -999.0000                     : NULL VALUE
 DATE    .      30/01/2020                    : LAS file Creation Date
 WELL   .      7-MP-31D-BA        : Well Name
 COMP   .      PETROBRAS          : Company
 FLD    .      MASSAPE            : Field
 STATE  .      BAHIA              : State
 COUNT  .      BRASIL             : Country
 API    .      20240021426        : API Number
 UWI    .                         : Unique Well Identifier (UWI)
 LOC    .      N= 8.608.492,720 m : Location
 TOWN   .      CATU               : Township
 SCT    .      OH WIRELINE        : Section
 RANG   .      SCHLUMBERGER       : Range
 PDAT   .      NM                 : Permanent Datum
 EPDAT  .      0                  : Elevation of Permanent Datum
 LGMEA  .      MR                 : Log Measured from
 DRMEA  .      MR                 : Drill Measured From
 APDAT  .      66.4               : Elevation Above Permanent Datum
 KB     .      66.7               : KB Elevation
 DF     .      66.4               : DF Elevation
 GL     .      57                 : GL Elevation
 RWS    .      -999               : Def_Rw
 WST    .      -999               : Def_Rwt
 BHS    .      OPEN               : Completion Status
 PROV   .                         : Province
 SRVC   .                         : Contractor
 GDAT   .      WGS 84             : Geodatum
 LONG   .      -38.4314536115858  : Longitude
 LATI   .      -12.5867413889037  : Latitude
 COORDIN.                         : Grid System
 XCOORD .                         : X or East-West Coordinate
 YCOORD .                         : Y or North-South Coordinate
~CURVE INFORMATION
#MNEM              UNIT       API CODE   Curve Type Comments
#----------  --------------- ----------  ---------- -----------
 DEPTH      .M                         : Depth       
 CALI       .inch                      : Caliper     
 BS         .in                        : BitSize     
 GR         .gAPI                      : GammaRay    
 RT         .ohm.m                     : DeepRes     
 NPHI       .m3/m3                     : Neutron     
 RHOB       .g/cm3                     :             
 DT         .us/ft                     : Sonic       
 SP         .mV                        : SP          
 N_Res      .                          :             
 Res        .                          :             
 DRDN       .                          :             
 Lith_new   .                          :             
 DEPTH      .M                         : Depth       
~A  DEPTH    CALI       BS        GR        RT       NPHI      RHOB       DT        SP      N_Res      Res       DRDN    Lith_new   DEPTH   
# ...
2525.1120    9.4717    8.5000  100.9537    2.8798    0.3485    2.5351  198.5390  748.5074    1.0000    0.0000    7.4410   57.0000 2525.1120 
2525.2644    9.3919    8.5000   97.9539    3.0608    0.3262    2.5523  188.7174  748.1339    1.0000    0.0000    7.0436   57.0000 2525.2644 
2525.4168    9.2554    8.5000   99.2118    3.0594    0.3203    2.5657  184.1152  748.4301    1.0000    0.0000    6.9950   57.0000 2525.4168 
2525.5692    9.0726    8.5000   96.8135    3.3569    0.3241    2.5591  171.5681  747.8883    1.0000    0.0000    6.9240   57.0000 2525.5692 
2525.7216    8.8439    8.5000   92.1562    3.9179    0.2989    2.5517  168.0861  747.9360    1.0000    0.0000    5.9451   57.0000 2525.7216 
2525.8740    8.7936    8.5000   84.2449    4.8478    0.2823    2.5475  160.4983  747.0832    1.0000    0.0000    5.3849   57.0000 2525.8740 
2526.0264    8.7252    8.5000   80.4103    5.3162    0.2516    2.5558  158.8217  748.0999    1.0000    0.0000    4.5854   57.0000 2526.0264 
2526.1788    8.8358    8.5000   78.2966    4.8255    0.2494    2.5795  156.6935  748.9793    1.0000    0.0000    5.1440   57.0000 2526.1788 
2526.3312    8.7488    8.5000   77.3543    4.0573    0.2359    2.6122  170.2536  749.4882    1.0000    0.0000    5.2879   57.0000 2526.3312 
2526.4836    8.9148    8.5000   78.9019    3.5633    0.2113    2.6424  168.2235  748.8898    1.0000    0.0000    5.0754   57.0000 2526.4836 
2526.6360    9.1657    8.5000   81.1680    3.1930    0.1988    2.6476  165.8006  747.8376    1.0000    0.0000    4.4650   57.0000 2526.6360 
2526.7884    9.0258    8.5000   87.9514    3.0135    0.2266    2.6251  164.2004  747.1412    1.0000    0.0000    4.8693   57.0000 2526.7884 
2526.9408    8.9101    8.5000   92.9664    3.0086    0.2551    2.5927  165.7717  746.8199    1.0000    0.0000    5.1330   57.0000 2526.9408 
2527.0932    8.8850    8.5000  103.1404    2.9397    0.2941    2.5698  168.9697  747.0566    1.0000    0.0000    6.1239   57.0000 2527.0932 
2527.2456    8.9405    8.5000  105.8679    2.7289    0.3133    2.5656  170.4203  748.0999    1.0000    0.0000    6.7655   57.0000 2527.2456 
2527.3980    9.0653    8.5000  102.8955    2.5454    0.3298    2.5687  180.4509  748.7963    1.0000    0.0000    7.4000   57.0000 2527.3980 
2527.5504    9.1580    8.5000   98.8311    2.5632    0.3209    2.5722  183.0513  748.8735    1.0000    0.0000    7.1616   57.0000 2527.5504 
2527.7028    9.1826    8.5000   98.0146    2.6666    0.3171    2.5788  185.2838  748.6309    1.0000    0.0000    7.2128   57.0000 2527.7028 
2527.8552    9.1832    8.5000  104.0623    2.7319    0.3333    2.5864  184.1253  747.9537    1.0000    0.0000    7.8877   57.0000 2527.8552 
2528.0076    9.1832    8.5000  102.5393    2.8207    0.3418    2.5975  184.2991  747.9985    1.0000    0.0000    8.4089   57.0000 2528.0076 
2528.1600    9.2729    8.5000   99.3168    2.9215    0.3296    2.6018  177.7960  747.4508    1.0000    0.0000    8.0281   57.0000 2528.1600 
2528.3124    9.0507    8.5000   99.5082    3.0368    0.3208    2.6021  179.7952  747.1934    1.0000    0.0000    7.7127   57.0000 2528.3124 
2528.4648    9.0453    8.5000   98.8118    3.1101    0.3059    2.5974  176.4970  746.7603    1.0000    0.0000    7.1284   57.0000 2528.4648 
2528.6172    9.0004    8.5000  104.6687    3.0170    0.2894    2.5978  172.4258  746.9330    1.0000    0.0000    6.6133   57.0000 2528.6172 
2528.7696    9.0330    8.5000  103.7981    2.7611    0.2774    2.5972  168.2373  747.2426    1.0000    0.0000    6.1615   57.0000 2528.7696 
2528.9220    9.0562    8.5000  107.5091    2.5817    0.2911    2.5879  166.8222  746.7618    1.0000    0.0000    6.3612   57.0000 2528.9220 
2529.0744    9.2699    8.5000  106.5223    2.5292    0.3017    2.5725  169.3496  747.3602    1.0000    0.0000    6.4118   57.0000 2529.0744 
2529.2268    9.2302    8.5000  103.8631    2.5812    0.3006    2.5637  164.5545  746.4597    1.0000    0.0000    6.2734   57.0000 2529.2268 
2529.3792    8.9375    8.5000  105.0806    2.5993    0.2810    2.5595  160.8089  745.0950    1.0000    0.0000    5.5053   57.0000 2529.3792 
2529.5316    8.7734    8.5000  103.4942    2.6643    0.2891    2.5494  163.3288  745.6727    1.0000    0.0000    5.5497   57.0000 2529.5316 
2529.6840    8.8144    8.5000  108.3685    3.1192    0.2796    2.5380  158.1750  746.7859    1.0000    0.0000    5.0079   57.0000 2529.6840 
2529.8364    8.6585    8.5000  103.3650    3.5402    0.2900    2.5298  156.5184  746.4464    1.0000    0.0000    5.2430   57.0000 2529.8364 
2529.9888    8.9463    8.5000  107.0823    4.1418    0.2693    2.5291  158.2158  747.3528    1.0000    0.0000    4.5586   57.0000 2529.9888 
2530.1412    9.2226    8.5000   99.6287    4.0808    0.2524    2.5305  162.9002  747.3750    1.0000    0.0000    4.0509   57.0000 2530.1412 
2530.2936    9.1618    8.5000  100.5175    4.0032    0.2487    2.5371  167.5757  746.8868    1.0000    0.0000    4.0954   57.0000 2530.2936 
2530.4460    9.0480    8.5000   98.3195    3.8466    0.2623    2.5458  168.0391  745.8376    1.0000    0.0000    4.7061   57.0000 2530.4460 
2530.5984    8.9556    8.5000  103.2655    3.8430    0.2861    2.5485  167.3967  745.0192    1.0000    0.0000    5.4906   57.0000 2530.5984 
2530.7508    8.9085    8.5000  100.3624    4.0884    0.2750    2.5445  161.1190  746.4036    1.0000    0.0000    5.0170   57.0000 2530.7508 
2530.9032    8.8401    8.5000   95.8415    4.3266    0.2801    2.5408  159.0449  746.4375    1.0000    0.0000    5.1538   57.0000 2530.9032 
2531.0556    8.8834    8.5000   90.2752    4.0062    0.2790    2.5427  156.8660  745.8273    1.0000    0.0000    5.1704   57.0000 2531.0556 
2531.2080    8.8284    8.5000   93.7749    3.6154    0.2981    2.5469  155.7665  746.4838    1.0000    0.0000    5.9125   57.0000 2531.2080 
2531.3604    8.7597    8.5000  100.4004    3.3321    0.2869    2.5519  155.9465  746.4390    1.0000    0.0000    5.6091   57.0000 2531.3604 
2531.5128    8.8815    8.5000  104.1976    3.3053    0.2944    2.5468  157.2344  746.0103    1.0000    0.0000    5.6862   57.0000 2531.5128 
2531.6652    9.0864    8.5000  104.7444    3.5401    0.2918    2.5375  156.0869  746.0000    1.0000    0.0000    5.4150   57.0000 2531.6652 
2531.8176    8.7996    8.5000  100.2395    3.7547    0.3041    2.5323  145.9188  745.4508    1.0000    0.0000    5.7985   57.0000 2531.8176 
2531.9700    8.9496    8.5000   96.4912    3.8073    0.3097    2.5382  141.9438  745.4375    1.0000    0.0000    6.1292   57.0000 2531.9700 
2532.1224    8.7963    8.5000   99.1853    3.8202    0.3116    2.5406  144.1723  745.3154    1.0000    0.0000    6.1799   57.0000 2532.1224 
2532.2748    8.7140    8.5000  107.0093    3.9444    0.3319    2.5365  163.0101  744.8243    1.0000    0.0000    6.7758   57.0000 2532.2748 
2532.4272    8.7233    8.5000  108.2078    4.0708    0.3406    2.5352  164.7170  745.1176    1.0000    0.0000    7.0592   57.0000 2532.4272 
2532.5796    8.8133    8.5000   99.2690    4.3119    0.3179    2.5426  166.7430  744.8199    1.0000    0.0000    6.5774   57.0000 2532.5796 
2532.7320    9.0847    8.5000   87.1017    4.2361    0.2752    2.5595  165.7333  743.8361    1.0000    0.0000    5.4129   57.0000 2532.7320 
2532.8844    9.1698    8.5000   92.0074    4.3211    0.2440    2.5611  166.9361  743.4464    1.0000    0.0000    4.3304   57.0000 2532.8844 
2533.0368    9.0932    8.5000   93.3461    4.3620    0.2485    2.5492  178.4505  742.4611    1.0000    0.0000    4.1184   57.0000 2533.0368 
2533.1892    9.0688    8.5000   90.1347    4.7027    0.2687    2.5284  173.9136  743.1088    1.0000    0.0000    4.4190   57.0000 2533.1892 
2533.3416    8.7093    8.5000   79.2456    5.0215    0.2803    2.5161  163.8396  743.6132    1.0000    0.0000    4.6255   57.0000 2533.3416 
2533.4940    8.8801    8.5000   76.5580    5.2794    0.2878    2.5183  159.9455  745.0286    1.0000    0.0000    5.0092   57.0000 2533.4940 
2533.6464    8.5704    8.5000   74.4318    5.9655    0.2913    2.5199  161.0973  745.0015    1.0000    0.0000    5.1073   57.0000 2533.6464 
