~VERSION INFORMATION
 VERS.                 2.0:   CWLS LOG ASCII STANDARD - VERSION 2.0
 WRAP.                  NO:   SINGLE LINE PER DEPTH STEP
 CREA.                 06/02/2020 16:33:07
#CREATED USING IP VERSION 4.5.2019.2902 BY RMOTA ON 06/02/2020 16:33:07
~WELL INFORMATION
#MNEM.UNIT       DATA                          DESCRIPTION MNEMONIC
#---------      ---------------------------   --------------------------
 STRT    .M         500.8250                  : START DEPTH
 STOP    .M         3050.8250                 : STOP DEPTH
 STEP    .M         0.1000                    : STEP VALUE
 NULL    .      -999.0000                     : NULL VALUE
 DATE    .      06/02/2020                    : LAS file Creation Date
 WELL   .      7-MP-34D-BA     : Well Name
 COMP   .      PETROBRAS       : Company
 FLD    .      MASSAPE         : Field
 STATE  .      BAHIA           : State
 API    .      20240022160     : API Number
 UWI    .                      : Unique Well Identifier (UWI)
 LOC    .                      : Location
 PDAT   .      NM              : Permanent Datum
 EPDAT  .      0.0             : Elevation of Permanent Datum
 LGMEA  .      MR              : Log Measured from
 DRMEA  .      MR              : Drill Measured From
 APDAT  .      65.65           : Elevation Above Permanent Datum
 KB     .      65.95           : KB Elevation
 DF     .      65.65           : DF Elevation
 RWS    .      -999            : Def_Rw
 WST    .      -999            : Def_Rwt
 PROV   .                      : Province
 SRVC   .                      : Contractor
 GDAT   .      WGS 84          : Geodatum
 LONG   .      -38.435477499961: Longitude
 LATI   .      0               : Latitude
 COORDIN.                      : Grid System
 XCOORD .                      : X or East-West Coordinate
 YCOORD .                      : Y or North-South Coordinate
~CURVE INFORMATION
#MNEM              UNIT       API CODE   Curve Type Comments
#----------  --------------- ----------  ---------- -----------
 DEPTH      .M                         : Depth       
 CAL        .inch                      : Caliper     
 BS         .in                        : BitSize     
 GR         .gAPI                      : GammaRay    
 ILD        .ohm.m                     : DeepRes     
 RHOB       .G/CC                      : Density     
 NPHI       .dec                       : Neutron     
 DT         .uS/ft                     : Sonic       
 DRDN       .                          :             
 Lith_new   .                          :             
~A  DEPTH    CAL        BS        GR       ILD       RHOB      NPHI       DT       DRDN    Lith_new 
# ...
1180.8250   13.6288   12.2500   99.2943    4.4410 -999.0000 -999.0000   88.7209 -999.0000 -999.0000 
1180.9250   13.5890   12.2500   95.4900    4.6976 -999.0000 -999.0000   88.4485 -999.0000 -999.0000 
1181.0250   13.5421   12.2500   90.4563    5.0473 -999.0000 -999.0000   87.0832 -999.0000 -999.0000 
1181.1250   13.4976   12.2500   86.3524    5.3093 -999.0000 -999.0000   85.3000 -999.0000 -999.0000 
1181.2250   13.4540   12.2500   86.0097    5.2867 -999.0000 -999.0000   83.5434 -999.0000 -999.0000 
1181.3250   13.4043   12.2500   89.6475    4.9437 -999.0000 -999.0000   82.5755 -999.0000 -999.0000 
1181.4250   13.3565   12.2500   97.7690    4.4430 -999.0000 -999.0000   82.8745 -999.0000 -999.0000 
1181.5250   13.3179   12.2500  106.5586    3.9678 -999.0000 -999.0000   84.6694 -999.0000 -999.0000 
1181.6250   13.2613   12.2500  112.6998    3.6078 -999.0000 -999.0000   87.7184 -999.0000 -999.0000 
1181.7250   13.1997   12.2500  116.2435    3.3806 -999.0000 -999.0000   91.1087 -999.0000 -999.0000 
1181.8250   13.1249   12.2500  115.2378    3.2739 -999.0000 -999.0000   94.0592 -999.0000 -999.0000 
1181.9250   13.0385   12.2500  112.2199    3.2678 -999.0000 -999.0000   95.4908 -999.0000 -999.0000 
1182.0250   12.9655   12.2500  108.1643    3.3414 -999.0000 -999.0000   95.2628 -999.0000 -999.0000 
1182.1250   12.9046   12.2500  103.7591    3.4646 -999.0000 -999.0000   93.5750 -999.0000 -999.0000 
1182.2250   12.8502   12.2500  100.7084    3.5881 -999.0000 -999.0000   91.2015 -999.0000 -999.0000 
1182.3250   12.7909   12.2500   98.4086    3.6471 -999.0000 -999.0000   88.9821 -999.0000 -999.0000 
1182.4250   12.7303   12.2500   98.3905    3.5941 -999.0000 -999.0000   87.2638 -999.0000 -999.0000 
1182.5250   12.6645   12.2500   98.2092    3.4322 -999.0000 -999.0000   86.2485 -999.0000 -999.0000 
1182.6250   12.6120   12.2500   96.1840    3.2027 -999.0000 -999.0000   85.7852 -999.0000 -999.0000 
1182.7250   12.5815   12.2500   91.9195    2.9542 -999.0000 -999.0000   85.7480 -999.0000 -999.0000 
1182.8250   12.5591   12.2500   84.1675    2.7198 -999.0000 -999.0000   85.8954 -999.0000 -999.0000 
1182.9250   12.5337   12.2500   74.4550    2.5140 -999.0000 -999.0000   86.0495 -999.0000 -999.0000 
1183.0250   12.5091   12.2500   65.0818    2.3452 -999.0000 -999.0000   85.6296 -999.0000 -999.0000 
1183.1250   12.4804   12.2500   58.5659    2.2201 -999.0000 -999.0000   82.5020 -999.0000 -999.0000 
1183.2250   12.4511   12.2500   56.0133    2.1426 -999.0000 -999.0000   79.0245 -999.0000 -999.0000 
1183.3250   12.4073   12.2500   58.0056    2.1116 -999.0000 -999.0000   75.7020 -999.0000 -999.0000 
1183.4250   12.3605   12.2500   63.6367    2.1204 -999.0000 -999.0000   76.3281 -999.0000 -999.0000 
1183.5250   12.3188   12.2500   70.5427    2.1595 -999.0000 -999.0000   80.6832 -999.0000 -999.0000 
1183.6250   12.2912   12.2500   78.4752    2.2192 -999.0000 -999.0000   84.8587 -999.0000 -999.0000 
1183.7250   12.2789   12.2500   84.4265    2.2922 -999.0000 -999.0000   88.2577 -999.0000 -999.0000 
1183.8250   12.2725   12.2500   87.3167    2.3749 -999.0000 -999.0000   88.7296 -999.0000 -999.0000 
1183.9250   12.2732   12.2500   87.3218    2.4660 -999.0000 -999.0000   88.4240 -999.0000 -999.0000 
1184.0250   12.2723   12.2500   84.2685    2.5655 -999.0000 -999.0000   87.9158 -999.0000 -999.0000 
1184.1250   12.2626   12.2500   82.6110    2.6702 -999.0000 -999.0000   87.2837 -999.0000 -999.0000 
1184.2250   12.2500   12.2500   84.8486    2.7661 -999.0000 -999.0000   86.7173 -999.0000 -999.0000 
1184.3250   12.2355   12.2500   90.7196    2.8332 -999.0000 -999.0000   86.3362 -999.0000 -999.0000 
1184.4250   12.2278   12.2500   98.1894    2.8610 -999.0000 -999.0000   86.2311 -999.0000 -999.0000 
1184.5250   12.2269   12.2500  102.1914    2.8608 -999.0000 -999.0000   86.3204 -999.0000 -999.0000 
1184.6250   12.2321   12.2500  100.2940    2.8591 -999.0000 -999.0000   86.3327 -999.0000 -999.0000 
1184.7250   12.2414   12.2500   92.9839    2.8784 -999.0000 -999.0000   86.0990 -999.0000 -999.0000 
1184.8250   12.2526   12.2500   83.4216    2.9214 -999.0000 -999.0000   85.4556 -999.0000 -999.0000 
1184.9250   12.2642   12.2500   76.4051    2.9689 -999.0000 -999.0000   84.5316 -999.0000 -999.0000 
1185.0250   12.2736   12.2500   72.7319    2.9928 -999.0000 -999.0000   83.5857 -999.0000 -999.0000 
1185.1250   12.2882   12.2500   72.1147    2.9783 -999.0000 -999.0000   82.8837 -999.0000 -999.0000 
1185.2250   12.3111   12.2500   73.2646    2.9368 -999.0000 -999.0000   82.7066 -999.0000 -999.0000 
1185.3250   12.3365   12.2500   74.0622    2.8953 -999.0000 -999.0000   83.0990 -999.0000 -999.0000 
1185.4250   12.3774   12.2500   75.8854    2.8764 -999.0000 -999.0000   83.8673 -999.0000 -999.0000 
1185.5250   12.4094   12.2500   80.7102    2.8887 -999.0000 -999.0000   84.7316 -999.0000 -999.0000 
1185.6250   12.4312   12.2500   86.5190    2.9273 -999.0000 -999.0000   85.4597 -999.0000 -999.0000 
1185.7250   12.4389   12.2500   93.5563    2.9810 -999.0000 -999.0000   86.0444 -999.0000 -999.0000 
1185.8250   12.4336   12.2500   98.5476    3.0421 -999.0000 -999.0000   86.5046 -999.0000 -999.0000 
1185.9250   12.4325   12.2500   97.5488    3.1139 -999.0000 -999.0000   86.8475 -999.0000 -999.0000 
1186.0250   12.4503   12.2500   92.9632    3.2103 -999.0000 -999.0000   86.8765 -999.0000 -999.0000 
1186.1250   12.4820   12.2500   84.7321    3.3462 -999.0000 -999.0000   86.4643 -999.0000 -999.0000 
1186.2250   12.5122   12.2500   76.7884    3.5209 -999.0000 -999.0000   85.5582 -999.0000 -999.0000 
1186.3250   12.5555   12.2500   72.9857    3.7035 -999.0000 -999.0000   84.3168 -999.0000 -999.0000 
1186.4250   12.6099   12.2500   73.3889    3.8410 -999.0000 -999.0000   83.0801 -999.0000 -999.0000 
1186.5250   12.6492   12.2500   78.4286    3.8926 -999.0000 -999.0000   82.1617 -999.0000 -999.0000 
1186.6250   12.6917   12.2500   84.5922    3.8649 -999.0000 -999.0000   81.7954 -999.0000 -999.0000 
1186.7250   12.7104   12.2500   89.9349    3.8039 -999.0000 -999.0000   82.0357 -999.0000 -999.0000 
1186.8250   12.7287   12.2500   93.8627    3.7539 -999.0000 -999.0000   82.7699 -999.0000 -999.0000 
1186.9250   12.7556   12.2500   96.4067    3.7293 -999.0000 -999.0000   83.8454 -999.0000 -999.0000 
1187.0250   12.7814   12.2500   98.9896    3.7219 -999.0000 -999.0000   85.0316 -999.0000 -999.0000 
1187.1250   12.8078   12.2500  100.7955    3.7265 -999.0000 -999.0000   86.0878 -999.0000 -999.0000 
1187.2250   12.8426   12.2500  102.6006    3.7547 -999.0000 -999.0000   86.7398 -999.0000 -999.0000 
1187.3250   12.8766   12.2500  102.4003    3.8224 -999.0000 -999.0000   86.9725 -999.0000 -999.0000 
1187.4250   12.9096   12.2500  100.3795    3.9224 -999.0000 -999.0000   86.8648 -999.0000 -999.0000 
1187.5250   12.9360   12.2500   99.3220    4.0247 -999.0000 -999.0000   86.4878 -999.0000 -999.0000 
1187.6250   12.9515   12.2500   96.6735    4.1045 -999.0000 -999.0000   85.7689 -999.0000 -999.0000 
1187.7250   12.9673   12.2500   94.7286    4.1689 -999.0000 -999.0000   84.7985 -999.0000 -999.0000 
1187.8250   12.9860   12.2500   93.9335    4.2380 -999.0000 -999.0000   83.8255 -999.0000 -999.0000 
1187.9250   13.0029   12.2500   92.7578    4.3169 -999.0000 -999.0000   83.1556 -999.0000 -999.0000 
1188.0250   13.0199   12.2500   93.8610    4.3865 -999.0000 -999.0000   82.7648 -999.0000 -999.0000 
1188.1250   13.0298   12.2500   96.0105    4.4197 -999.0000 -999.0000   82.4587 -999.0000 -999.0000 
1188.2250   13.0390   12.2500   97.8061    4.4010 -999.0000 -999.0000   82.1679 -999.0000 -999.0000 
1188.3250   13.0490   12.2500   98.2058    4.3384 -999.0000 -999.0000   81.8148 -999.0000 -999.0000 
1188.4250   13.0562   12.2500   96.3912    4.2554 -999.0000 -999.0000   81.6673 -999.0000 -999.0000 
1188.5250   13.0606   12.2500   93.0979    4.1771 -999.0000 -999.0000   81.6857 -999.0000 -999.0000 
1188.6250   13.0650   12.2500   89.6630    4.1256 -999.0000 -999.0000   81.6679 -999.0000 -999.0000 
1188.7250   13.0714   12.2500   87.4738    4.1184 -999.0000 -999.0000   81.4163 -999.0000 -999.0000 
