~VERSION INFORMATION
 VERS.                 2.0:   CWLS LOG ASCII STANDARD - VERSION 2.0
 WRAP.                  NO:   SINGLE LINE PER DEPTH STEP
 CREA.                 30/01/2020 17:28:45
#CREATED USING IP VERSION 4.5.2019.2902 BY RMOTA ON 30/01/2020 17:28:45
~WELL INFORMATION
#MNEM.UNIT       DATA                          DESCRIPTION MNEMONIC
#---------      ---------------------------   --------------------------
 STRT    .M         5.0000                    : START DEPTH
 STOP    .M         2977.0000                 : STOP DEPTH
 STEP    .M         0.1000                    : STEP VALUE
 NULL    .      -999.0000                     : NULL VALUE
 DATE    .      30/01/2020                    : LAS file Creation Date
 WELL   .      7-MP-53D-BA      : Well Name
 COMP   .      PETROBRAS        : Company
 FLD    .      MASSAPE          : Field
 STATE  .      BAHIA            : State
 API    .      20240027945      : API Number
 UWI    .                       : Unique Well Identifier (UWI)
 LOC    .                       : Location
 TOWN   .      -999.25          : Township
 SCT    .      -999.25          : Section
 RANG   .      -999.25          : Range
 PDAT   .      NM               : Permanent Datum
 EPDAT  .      0.00             : Elevation of Permanent Datum
 LGMEA  .      MR               : Log Measured from
 DRMEA  .      MR               : Drill Measured From
 APDAT  .      64.90            : Elevation Above Permanent Datum
 KB     .      -999.25          : KB Elevation
 DF     .      64.90            : DF Elevation
 GL     .      56.80            : GL Elevation
 RWS    .      -999             : Def_Rw
 WST    .      -999             : Def_Rwt
 PROV   .                       : Province
 SRVC   .                       : Contractor
 GDAT   .      WGS 84           : Geodatum
 LONG   .      -38.4325436115265: Longitude
 LATI   .      0                : Latitude
 COORDIN.                       : Grid System
 XCOORD .                       : X or East-West Coordinate
 YCOORD .                       : Y or North-South Coordinate
~CURVE INFORMATION
#MNEM              UNIT       API CODE   Curve Type Comments
#----------  --------------- ----------  ---------- -----------
 DEPTH      .M                         : Depth       
 DEPTH      .M                         : Depth       
 DRDN       .                          :             
 GR         .api                       : GammaRay    
 CAL        .in                        : Caliper     
 Res        .                          :             
 N_Res      .                          :             
 ILD        .ohmm                      : DeepRes     
 RHOB       .g/cc                      : Density     Loaded from DLIS: 7-mp-53d-ba_raw-3.dlis
 NPHI       .dec                       : Neutron     Loaded from DLIS: 7-mp-53d-ba_raw-3.dlis
 Lith_new   .                          :             
~A  DEPTH   DEPTH      DRDN       GR       CAL       Res      N_Res      ILD       RHOB      NPHI    Lith_new 
# ...
2465.1000 2465.1000    4.9099   93.8019    8.6772    0.0000    1.0000    3.1139    2.6155    0.2280   57.0000 
2465.2000 2465.2000    5.2175   96.5964    8.6819    0.0000    1.0000    3.0565    2.6085    0.2414   57.0000 
2465.3000 2465.3000    5.1927   99.3829    8.6829    0.0000    1.0000    3.0129    2.5997    0.2460   57.0000 
2465.4000 2465.4000    4.7378   97.7895    8.6739    0.0000    1.0000    2.9714    2.5734    0.2481   57.0000 
2465.5000 2465.5000    4.3314   97.3028    8.6788    0.0000    1.0000    2.9653    2.5614    0.2431   57.0000 
2465.6000 2465.6000    4.0022   95.9213    8.6796    0.0000    1.0000    2.9591    2.5571    0.2358   57.0000 
2465.7000 2465.7000    4.2587   93.9746    8.6736    0.0000    1.0000    2.9393    2.5665    0.2379   57.0000 
2465.8000 2465.8000    4.7647   93.4173    8.6750    0.0000    1.0000    2.9388    2.5821    0.2437   57.0000 
2465.9000 2465.9000    5.0071   96.0469    8.6756    0.0000    1.0000    2.9586    2.5918    0.2451   57.0000 
2466.0000 2466.0000    5.4910  102.6562    8.6745    0.0000    1.0000    3.0897    2.6086    0.2496   57.0000 
2466.1000 2466.1000    5.0942  103.9906    8.6652    0.0000    1.0000    3.1970    2.6122    0.2355   57.0000 
2466.2000 2466.2000    4.6341  102.9074    8.6632    0.0000    1.0000    3.3159    2.6184    0.2180   57.0000 
2466.3000 2466.3000    4.7394   98.0564    8.6478    0.0000    1.0000    3.5143    2.6235    0.2181   57.0000 
2466.4000 2466.4000    4.4712   96.4080    8.6545    0.0000    1.0000    3.5687    2.6229    0.2104   57.0000 
2466.5000 2466.5000    4.2935   94.6968    8.6553    0.0000    1.0000    3.5943    2.6208    0.2063   57.0000 
2466.6000 2466.6000    3.9457   92.3419    8.6555    0.0000    1.0000    3.6058    2.6204    0.1961   57.0000 
2466.7000 2466.7000    3.7436   91.3764    8.6633    0.0000    1.0000    3.6826    2.6197    0.1905   57.0000 
2466.8000 2466.8000    3.9564   91.5570    8.6581    0.0000    1.0000    3.7900    2.6226    0.1951   57.0000 
2466.9000 2466.9000    4.0046   90.5679    8.6598    0.0000    1.0000    3.9512    2.6261    0.1945   57.0000 
2467.0000 2467.0000    3.9830   84.6337    8.6710    0.0000    1.0000    4.3930    2.6364    0.1876   57.0000 
2467.1000 2467.1000    3.7080   84.1313    8.6621    0.0000    1.0000    4.6213    2.6376    0.1787   57.0000 
2467.2000 2467.2000    3.6805   84.5866    8.6639    0.0000    1.0000    4.8000    2.6382    0.1775   57.0000 
2467.3000 2467.3000    3.3732   83.6917    8.6549    0.0000    1.0000    4.9064    2.6299    0.1733   57.0000 
2467.4000 2467.4000    3.1962   81.1799    8.6709    0.0000    1.0000    4.8491    2.6290    0.1685   57.0000 
2467.5000 2467.5000    3.2728   80.0809    8.6531    0.0000    1.0000    4.7637    2.6262    0.1725   57.0000 
2467.6000 2467.6000    3.1808   82.3416    8.6573    0.0000    1.0000    4.6584    2.6285    0.1683   57.0000 
2467.7000 2467.7000    3.1786   82.7969    8.6885    0.0000    1.0000    4.6605    2.6274    0.1689   57.0000 
2467.8000 2467.8000    3.4307   82.9068    8.7176    0.0000    1.0000    4.6688    2.6283    0.1759   57.0000 
2467.9000 2467.9000    3.4181   84.1706    8.7183    0.0000    1.0000    4.5756    2.6319    0.1734   57.0000 
2468.0000 2468.0000    3.1584   86.0466    8.6593    0.0000    1.0000    4.4699    2.6375    0.1623   57.0000 
2468.1000 2468.1000    3.2246   88.5584    8.6489    0.0000    1.0000    4.3622    2.6418    0.1617   57.0000 
2468.2000 2468.2000    3.3661   90.3010    8.6633    0.0000    1.0000    4.2808    2.6452    0.1639   57.0000 
2468.3000 2468.3000    3.4824   93.6135    8.6727    0.0000    1.0000    4.2384    2.6302    0.1764   57.0000 
2468.4000 2468.4000    3.4267   93.3388    8.6746    0.0000    1.0000    4.2737    2.6174    0.1824   57.0000 
2468.5000 2468.5000    3.4358   92.0750    8.6738    0.0000    1.0000    4.3328    2.6070    0.1889   57.0000 
2468.6000 2468.6000    3.3152   88.9431    8.6639    0.0000    1.0000    4.4953    2.5988    0.1902   57.0000 
2468.7000 2468.7000    3.1740   89.4140    8.6575    0.0000    1.0000    4.5952    2.6045    0.1825   57.0000 
2468.8000 2468.8000    3.0440   90.3717    8.6569    0.0000    1.0000    4.6928    2.6076    0.1768   57.0000 
2468.9000 2468.9000    2.8172   88.1738    8.7070    0.0000    1.0000    4.8577    2.6239    0.1602   57.0000 
2469.0000 2469.0000    2.7420   88.3151    8.7055    0.0000    1.0000    4.9790    2.6301    0.1542   57.0000 
2469.1000 2469.1000    2.7739   89.9714    8.7800    0.0000    1.0000    5.2026    2.6393    0.1496   57.0000 
2469.2000 2469.2000    2.5623   89.9243    8.7799    0.0000    1.0000    6.0353    2.6507    0.1365   57.0000 
2469.3000 2469.3000    2.2720   86.2507    8.8036    0.0000    1.0000    6.4421    2.6563    0.1244   57.0000 
2469.4000 2469.4000    1.8470   80.6147    8.8316    0.0000    1.0000    6.5517    2.6589    0.1101   57.0000 
2469.5000 2469.5000    1.6713   78.0558    8.8917    0.0000    1.0000    5.6178    2.6601    0.1041   57.0000 
2469.6000 2469.6000    1.9149   78.9271    8.9177    0.0000    1.0000    4.9373    2.6524    0.1160   57.0000 
2469.7000 2469.7000    2.0604   81.5096    8.9447    0.0000    1.0000    4.3677    2.6414    0.1270   57.0000 
2469.8000 2469.8000    2.3491   83.9429    8.9891    0.0000    1.0000    3.9640    2.6228    0.1468   57.0000 
2469.9000 2469.9000    2.8313   90.9526    9.0426    0.0000    1.0000    3.5678    2.5838    0.1847   57.0000 
2470.0000 2470.0000    3.2318   95.2855    9.0445    0.0000    1.0000    3.4935    2.5729    0.2032   57.0000 
2470.1000 2470.1000    3.3957   99.0140    9.0901    0.0000    1.0000    3.4568    2.5705    0.2096   57.0000 
2470.2000 2470.2000    3.9913  102.6562    9.0482    0.0000    1.0000    3.4041    2.5779    0.2230   57.0000 
2470.3000 2470.3000    4.0780  101.9733    8.7237    0.0000    1.0000    3.3765    2.5792    0.2248   57.0000 
2470.4000 2470.4000    4.2948   99.7597    8.6359    0.0000    1.0000    3.3655    2.5861    0.2272   57.0000 
2470.5000 2470.5000    4.5197   96.1803    8.6789    0.0000    1.0000    3.4335    2.5987    0.2264   57.0000 
2470.6000 2470.6000    4.2817   95.5602    8.6689    0.0000    1.0000    3.5031    2.6065    0.2146   57.0000 
2470.7000 2470.7000    3.8361   97.2086    8.6877    0.0000    1.0000    3.5788    2.6033    0.2031   57.0000 
2470.8000 2470.8000    3.2618   99.4693    8.7096    0.0000    1.0000    3.7066    2.5917    0.1928   57.0000 
2470.9000 2470.9000    3.2131   99.5321    8.7301    0.0000    1.0000    3.7447    2.5838    0.1961   57.0000 
2471.0000 2471.0000    3.2266   97.7895    8.7382    0.0000    1.0000    3.7637    2.5777    0.2002   57.0000 
2471.1000 2471.1000    3.1149  100.4505    8.7612    0.0000    1.0000    3.7560    2.5710    0.2008   57.0000 
2471.2000 2471.2000    2.9985  101.6201    8.7599    0.0000    1.0000    3.7334    2.5683    0.1990   57.0000 
2471.3000 2471.3000    2.9361  103.6295    8.7533    0.0000    1.0000    3.6993    2.5689    0.1967   57.0000 
2471.4000 2471.4000    2.9109  102.7818    8.7461    0.0000    1.0000    3.6561    2.5689    0.1960   57.0000 
2471.5000 2471.5000    3.0912  101.4081    8.7489    0.0000    1.0000    3.5827    2.5756    0.1974   57.0000 
2471.6000 2471.6000    3.3126   99.3908    8.7574    0.0000    1.0000    3.5874    2.5774    0.2029   57.0000 
2471.7000 2471.7000    3.3498   97.0987    8.7646    0.0000    1.0000    3.6542    2.5778    0.2038   57.0000 
2471.8000 2471.8000    3.3085   91.0232    8.8191    0.0000    1.0000    4.1451    2.5732    0.2053   57.0000 
2471.9000 2471.9000    3.2359   87.9619    8.8260    0.0000    1.0000    4.6872    2.5713    0.2043   57.0000 
2472.0000 2472.0000    2.9232   84.8849    8.7376    0.0000    1.0000    5.4876    2.5686    0.1965   57.0000 
2472.1000 2472.1000    2.6009   78.8486    8.7300    0.0000    1.0000    7.6794    2.5679    0.1873   57.0000 
2472.2000 2472.2000    1.9831   76.3210    8.7059    0.0000    1.0000    8.7342    2.5721    0.1662   57.0000 
2472.3000 2472.3000    1.5786   74.5156    8.6767    0.0000    1.0000    9.4082    2.5830    0.1476   57.0000 
