~VERSION INFORMATION
 VERS.                 2.0:   CWLS LOG ASCII STANDARD - VERSION 2.0
 WRAP.                  NO:   SINGLE LINE PER DEPTH STEP
 CREA.                 06/02/2020 16:35:30
#CREATED USING IP VERSION 4.5.2019.2902 BY RMOTA ON 06/02/2020 16:35:30
~WELL INFORMATION
#MNEM.UNIT       DATA                          DESCRIPTION MNEMONIC
#---------      ---------------------------   --------------------------
 STRT    .M         15.6972                   : START DEPTH
 STOP    .M         2951.2260                 : STOP DEPTH
 STEP    .M         0.1524                    : STEP VALUE
 NULL    .      -999.0000                     : NULL VALUE
 DATE    .      06/02/2020                    : LAS file Creation Date
 WELL   .      7-MP-36D-BA       : Well Name
 COMP   .      PETROBRAS         : Company
 FLD    .      MASSAPE           : Field
 STATE  .      20240022534       : State
 COUNT  .      BRASIL            : Country
 API    .      20240022534       : API Number
 UWI    .                        : Unique Well Identifier (UWI)
 LOC    .      N= 8607444.13 M   : Location
 PDAT   .      NM                : Permanent Datum
 EPDAT  .      0                 : Elevation of Permanent Datum
 LGMEA  .      MR                : Log Measured from
 DRMEA  .      MR                : Drill Measured From
 APDAT  .      65.81             : Elevation Above Permanent Datum
 KB     .      66.11             : KB Elevation
 DF     .      65.81             : DF Elevation
 GL     .      56.41             : GL Elevation
 RWS    .      -999              : Def_Rw
 WST    .      -999              : Def_Rwt
 BHS    .      OPEN              : Completion Status
 PROV   .                        : Province
 SRVC   .                        : Contractor
 GDAT   .      WGS 84            : Geodatum
 LONG   .      -38.4351329444514 : Longitude
 LATI   .      -12.5962309720781 : Latitude
 COORDIN.                        : Grid System
 XCOORD .                        : X or East-West Coordinate
 YCOORD .                        : Y or North-South Coordinate
~CURVE INFORMATION
#MNEM              UNIT       API CODE   Curve Type Comments
#----------  --------------- ----------  ---------- -----------
 DEPTH      .M                         : Depth       
 BS         .in                        : BitSize     Loaded from DLIS: 7-mp-36d-ba_raw-1.dlis
 DCAL       .in                        :             Loaded from DLIS: 7-mp-36d-ba_raw-1.dlis
 GR         .gAPI                      : GammaRay    Loaded from DLIS: 7-mp-36d-ba_raw-1.dlis
 RT         .ohm.m                     : DeepRes     Loaded from DLIS: 7-mp-36d-ba_raw-1.dlis
 NPHI       .m3/m3                     : Neutron     Loaded from DLIS: 7-mp-36d-ba_raw-1.dlis
 RHOB       .g/cm3                     : Density     Loaded from DLIS: 7-mp-36d-ba_raw-1.dlis
 DT         .us/ft                     : Sonic       Loaded from DLIS: 7-mp-36d-ba_raw-1.dlis
 SP         .mV                        : SP          Loaded from DLIS: 7-mp-36d-ba_raw-1.dlis
 DRDN       .                          :             
 Lith_new   .                          :             
~A  DEPTH     BS       DCAL       GR        RT       NPHI      RHOB       DT        SP       DRDN    Lith_new 
# ...
 215.9508   12.2500   -8.7444   56.3621    5.5574    0.6422    1.9190  213.1613 -169.7500    4.7879   57.0000 
 216.1032   12.2500   -8.7670   52.3398    5.5574    0.6454    1.9189  213.4709 -169.1250    4.8895   57.0000 
 216.2556   12.2500   -8.7444   52.0861    5.5574    0.7041    1.9144  214.8135 -168.5000    6.7015   57.0000 
 216.4080   12.2500   -8.7670   55.0591    5.5574    0.6855    1.9052  213.5432 -168.1250    5.8791   57.0000 
 216.5604   12.2500   -8.7444   50.9847    5.5574    0.6614    1.8946  215.7455 -167.6875    4.8716   57.0000 
 216.7128   12.2500   -8.7670   46.5861    5.5574    0.7099    1.8876  133.0153 -167.0625    6.4018   57.0000 
 216.8652   12.2500   -8.7444   40.1331    5.5574    0.6652    1.8903  133.2872 -166.6250    5.0289   57.0000 
 217.0176   12.2500   -8.7444   42.2689    5.5574    0.6899    1.8974  136.1673 -166.0625    5.9975   57.0000 
 217.1700   12.2500   -8.7670   43.0817    5.5574    0.5704    1.9010  135.3852 -165.6875    2.0184   57.0000 
 217.3224   12.2500   -8.7670   43.9305    5.5574    0.6583    1.8993  135.7981 -165.2500    4.9350   57.0000 
 217.4748   12.2500   -8.7444   45.6187    5.5574    0.6643    1.9017  137.3433 -164.6875    5.1958   57.0000 
 217.6272   12.2500   -8.7444   50.1771    5.5574    0.7137    1.9061  141.1422 -164.0625    6.9487   57.0000 
 217.7796   12.2500   -8.7444   54.2516    5.5574    0.6591    1.9092  141.2848 -163.6875    5.1563   57.0000 
 217.9320   12.2500   -8.7670   55.2291    5.5574    0.6089    1.9106  139.5816 -163.3125    3.5266   57.0000 
 218.0844   12.2500   -8.7444   54.5101    5.5574    0.6568    1.9123  143.7540 -162.8750    5.1487   57.0000 
 218.2368   12.2500   -8.7670   52.2964    5.5574    0.7235    1.9142  143.8160 -162.5000    7.4234   57.0000 
 218.3892   12.2500   -8.7670   53.5961    5.5574    0.7388    1.9170  145.7258 -162.2500    7.9804   57.0000 
 218.5416   12.2500   -8.7444   52.4662    5.5574    0.7436    1.9213  144.6488 -161.8125    8.2541   57.0000 
 218.6940   12.2500   -8.7670   53.8210    5.5574    0.6284    1.9266   55.8869 -161.1875    4.4944   57.0000 
 218.8464   12.2500   -8.7444   49.3137    5.5574    0.6283    1.9274   56.1055 -160.8750    4.4979   57.0000 
 218.9988   12.2500   -8.7670   48.2705    5.5574    0.5355    1.9279   57.8403 -160.8125    1.4004   57.0000 
 219.1512   12.2500   -8.7444   47.1456    5.5574    0.5590    1.9269  139.9483 -160.3125    2.1838   57.0000 
 219.3036   12.2500   -8.7444   50.4411    5.5574    0.6019    1.9318  140.6470 -160.2500    3.7492   57.0000 
 219.4560   12.2500   -8.7670   53.8736    5.5574    0.6118    1.9368  111.1867 -160.2500    4.1449   57.0000 
 219.6084   12.2500   -8.7670   54.7710    5.5574    0.6386    1.9388  195.9667 -160.5000    5.0686   57.0000 
 219.7608   12.2500   -8.7444   57.9346    5.5574    0.6149    1.9397  195.7208 -160.4375    4.3112   57.0000 
 219.9132   12.2500   -8.7444   58.7967    5.5574    0.6458    1.9447  222.7075 -160.4375    5.4573   57.0000 
 220.0656   12.2500   -8.7670   59.8371    5.5574    0.6504    1.9510  224.2787 -160.1250    5.7612   57.0000 
 220.2180   12.2500   -8.7444   55.8166    5.5574    0.6787    1.9564  224.3354 -160.1250    6.7236   57.0000 
 220.3704   12.2500   -8.7444   53.9199    5.5574    0.6554    1.9485  138.7706 -160.1250    5.7649   57.0000 
 220.5228   12.2500   -8.7670   52.6078    5.5574    0.6818    1.9448  143.1381 -160.1875    6.6038   57.0000 
 220.6752   12.2500   -8.7444   54.6202    5.5574    0.6345    1.9411  125.3666 -160.2500    4.9489   57.0000 
 220.8276   12.2500   -8.7670   52.9944    5.5574    0.5997    1.9433  124.4015 -160.1875    3.8972   57.0000 
 220.9800   12.2500   -8.7444   55.9824    5.5574    0.6026    1.9430  121.2012 -160.1875    3.9036   57.0000 
 221.1324   12.2500   -8.7444   55.5500    5.5574    0.6267    1.9392   99.7352 -160.5000    4.6861   57.0000 
 221.2848   12.2500   -8.7670   62.6551    5.5574    0.7400    1.9399  102.1615 -160.3125    8.4513   57.0000 
 221.4372   12.2500   -8.7557   57.7278    5.5574    0.7194    1.9361  110.9143 -160.4375    7.6761   57.0000 
 221.5896   12.2500   -8.7670   54.5221    5.5574    0.6806    1.9307   63.0166 -160.5625    6.2417   57.0000 
 221.7420   12.2500   -8.7444   50.1266    5.5574    0.6542    1.9203   63.9111 -160.3125    5.1528   57.0000 
 221.8944   12.2500   -8.7444   52.5197    5.5574    0.5969    1.9149   63.9111 -160.1250    3.1702   57.0000 
 222.0468   12.2500   -8.7444   53.0616    5.5574    0.7010    1.9099   65.8177 -159.9375    6.5421   57.0000 
 222.1992   12.2500   -8.7444   52.7907    5.5574    0.7075    1.9077   65.9881 -159.7500    6.7138   57.0000 
 222.3516   12.2500   -8.7670   53.1071    5.5574    0.7326    1.9014   58.4471 -159.6250    7.4142   57.0000 
 222.5040   12.2500   -8.7670   54.5045    5.5574    0.6133    1.8991   57.2019 -159.5625    3.4013   57.0000 
 222.6564   12.2500   -8.7670   50.9423    5.5574    0.6052    1.8945   57.9012 -159.5000    3.0397   57.0000 
 222.8088   12.2500   -8.7444   47.4558    5.5574    0.6761    1.8927   57.3895 -159.5000    5.3745   57.0000 
 222.9612   12.2500   -8.7444   46.0584    5.5574    0.7151    1.8919   57.4070 -159.1875    6.6809   57.0000 
 223.1136   12.2500   -8.7444   42.8467    5.5574    0.6264    1.8917   56.1478 -158.6875    3.7112   57.0000 
 223.2660   12.2500   -8.7444   38.5347    5.5574    0.5401    1.8970   59.7841 -157.3125    1.0206   57.0000 
 223.4184   12.2500   -8.7444   32.5737    5.5574    0.4983    1.9144   57.6664 -156.3125    0.0761   54.0000 
 223.5708   12.2500   -8.7444   29.0513    5.5574    0.5666    1.9442   59.0996 -155.7500    2.9596   57.0000 
 223.7232   12.2500   -8.7444   30.3469    5.5574    0.5778    1.9603   61.7295 -155.5625    3.4508   57.0000 
 223.8756   12.2500   -8.7444   30.6178    5.5574    0.5687    1.9463   58.4463 -154.6250    2.7337   57.0000 
 224.0280   12.2500   -8.7444   34.7430    5.5574    0.5082    1.9259   56.4037 -153.8750    0.3338   57.0000 
 224.1804   12.2500   -8.7670   38.2214    5.5574    0.5519    1.9110   55.9527 -153.6875    1.5814   57.0000 
 224.3328   12.2500   -8.7444   39.3330    5.5574    0.5669    1.9112   56.9849 -153.8750    2.1325   57.0000 
 224.4852   12.2500   -8.7670   36.7305    5.5574    0.5675    1.9106   57.2804 -154.0000    2.1191   57.0000 
 224.6376   12.2500   -8.7444   32.9812    5.5574    0.5449    1.9098   56.5069 -154.1875    1.3518   57.0000 
 224.7900   12.2500   -8.7444   34.3082    5.5574    0.5254    1.9062   45.8550 -154.2500    0.5837   57.0000 
 224.9424   12.2500   -8.7444   33.8693    5.5574    0.5173    1.8993   45.6158 -154.5625    0.2241   54.0000 
 225.0948   12.2500   -8.7444   35.2240    5.5574    0.4553    1.9046   55.1390 -154.6875   -1.6666   49.0000 
 225.2472   12.2500   -8.7670   34.9531    5.5574    0.4601    1.9153   55.4545 -154.6875   -1.2701   49.0000 
 225.3996   12.2500   -8.7670   37.3917    5.5574    0.4609    1.9265   55.0993 -154.6250   -1.0641   49.0000 
 225.5520   12.2500   -8.7670   41.7690    5.5574    0.5111    1.9321   54.4272 -154.6875    0.7260   57.0000 
 225.7044   12.2500   -8.7670   44.5402    5.5574    0.5081    1.9426   47.6370 -154.7500    0.8794   57.0000 
 225.8568   12.2500   -8.7444   49.1033    5.5574    0.5414    1.9583   57.2827 -154.8750    2.3252   57.0000 
 226.0092   12.2500   -8.7444   49.1033    5.5574    0.4903    1.9751   57.3162 -155.0625    0.9620   57.0000 
 226.1616   12.2500   -8.7444   52.2931    5.5574    0.4916    1.9904   64.8635 -155.1250    1.2654   57.0000 
 226.3140   12.2500   -8.7670   53.4200    5.5574    0.4571    2.0002   65.2046 -155.3750    0.2991   54.0000 
 226.4664   12.2500   -8.7444   55.8166    5.5574    0.5286    2.0046   64.4168 -155.7500    2.6948   57.0000 
 226.6188   12.2500   -8.7670   61.5067    5.5574    0.5402    1.9984   65.4893 -156.1250    2.9117   57.0000 
 226.7712   12.2500   -8.7444   56.9004    5.5574    0.5454    1.9863   58.1026 -156.4375    2.8097   57.0000 
 226.9236   12.2500   -8.7670   51.6509    5.5574    0.5545    1.9771   58.4170 -156.7500    2.9999   57.0000 
