~VERSION INFORMATION
 VERS.                 2.0:   CWLS LOG ASCII STANDARD - VERSION 2.0
 WRAP.                  NO:   SINGLE LINE PER DEPTH STEP
 CREA.                 06/02/2020 16:07:36
#CREATED USING IP VERSION 4.5.2019.2902 BY RMOTA ON 06/02/2020 16:07:36
~WELL INFORMATION
#MNEM.UNIT       DATA                          DESCRIPTION MNEMONIC
#---------      ---------------------------   --------------------------
 STRT    .M         18.4404                   : START DEPTH
 STOP    .M         3544.2144                 : STOP DEPTH
 STEP    .M         0.1524                    : STEP VALUE
 NULL    .      -999.0000                     : NULL VALUE
 DATE    .      06/02/2020                    : LAS file Creation Date
 WELL   .      7-MP-25-BA         : Well Name
 COMP   .      PETROBRAS          : Company
 FLD    .      MASSAPE            : Field
 STATE  .      20240021268        : State
 COUNT  .      BRASIL             : Country
 API    .      20240021268        : API Number
 UWI    .                         : Unique Well Identifier (UWI)
 LOC    .      N= 8.607.478,570 m : Location
 TOWN   .      CTU                : Township
 SCT    .      OH WIRELINE        : Section
 RANG   .      SCHLUMBERGER       : Range
 PDAT   .      NM                 : Permanent Datum
 EPDAT  .      0                  : Elevation of Permanent Datum
 LGMEA  .      MR                 : Log Measured from
 DRMEA  .      MR                 : Drill Measured From
 APDAT  .      65.76              : Elevation Above Permanent Datum
 KB     .      66.06              : KB Elevation
 DF     .      65.76              : DF Elevation
 GL     .      56.36              : GL Elevation
 RWS    .      -999               : Def_Rw
 WST    .      -999               : Def_Rwt
 BHS    .      OPEN               : Completion Status
 PROV   .                         : Province
 MDEC   .      -23.10323          : Magnetic Declination
 SRVC   .                         : Contractor
 GDAT   .      WGS 84             : Geodatum
 LONG   .      -38.4344958333174  : Longitude
 LATI   .      -12.5959183332655  : Latitude
 COORDIN.                         : Grid System
 XCOORD .                         : X or East-West Coordinate
 YCOORD .                         : Y or North-South Coordinate
~CURVE INFORMATION
#MNEM              UNIT       API CODE   Curve Type Comments
#----------  --------------- ----------  ---------- -----------
 DEPTH      .M                         : Depth       
 BS         .in                        : BitSize     
 GR         .gAPI                      : GammaRay    
 CAL        .inch                      : Caliper     
 RT         .ohm.m                     : DeepRes     
 NPHI       .m3/m3                     : Neutron     
 RHOB       .g/cm3                     : Density     
 DT         .us/ft                     : Sonic       
 SP         .mV                        : SP          
 DRDN       .                          :             
 Lith_new   .                          :             
~A  DEPTH     BS        GR       CAL        RT       NPHI      RHOB       DT        SP       DRDN    Lith_new 
# ...
1219.9620   12.2500   56.7707   12.3844    1.8517    0.1843    2.4115   85.0527  988.7500   -0.6263   25.0000 
1220.1144   12.2500   51.2360   12.3769    1.7563    0.1904    2.3909   85.6675  988.5000   -0.8334   25.0000 
1220.2668   12.2500   53.5196   12.3769    1.7199    0.1902    2.3923   85.9762  988.3750   -0.8145   25.0000 
1220.4192   12.2500   55.9260   12.3619    1.8677    0.1832    2.4038   85.5981  987.0000   -0.8159   25.0000 
1220.5716   12.2500   61.3403   12.3694    2.0456    0.1823    2.4222   84.6851  989.1250   -0.4785   25.0000 
1220.7240   12.2500   63.2209   12.3393    2.1013    0.1805    2.4434   84.1365  988.6875   -0.1151   54.0000 
1220.8764   12.2500   68.5149   12.3619    2.1637    0.1930    2.4623   84.1953  989.2500    0.6812   57.0000 
1221.0288   12.2500   70.1076   12.3769    2.2363    0.1918    2.4686   84.1090  989.4375    0.7661   57.0000 
1221.1812   12.2500   69.0918   12.3694    2.3271    0.2074    2.4688   84.2830  989.3750    1.2899   57.0000 
1221.3336   12.2500   68.1042   12.3769    2.3880    0.2058    2.4714   84.1766  988.9375    1.2882   57.0000 
1221.4860   12.2500   73.3696   12.3694    2.4783    0.1913    2.4805   83.7349  988.1250    0.9876   57.0000 
1221.6384   12.2500   77.3401   12.3844    2.6255    0.1768    2.4989   83.0893  989.0625    0.8722   57.0000 
1221.7908   12.2500   76.4988   12.3769    2.8427    0.1734    2.5011   82.7970  988.8125    0.8019   57.0000 
1221.9432   12.2500   71.7815   12.3619    2.8768    0.1839    2.4937   82.9530  989.4375    1.0058   57.0000 
1222.0956   12.2500   68.9184   12.3619    2.7381    0.1889    2.4763   83.2630  988.1875    0.8214   57.0000 
1222.2480   12.2500   69.1588   12.3619    2.5245    0.1894    2.4630   83.9000  988.1875    0.5741   57.0000 
1222.4004   12.2500   66.0339   12.3619    2.4087    0.1932    2.4465   83.9941  987.4375    0.3677   57.0000 
1222.5528   12.2500   65.0467   12.3544    2.2913    0.1889    2.4295   83.7562  988.1875   -0.1144   54.0000 
1222.7052   12.2500   64.1086   12.3468    2.2239    0.1836    2.4193   84.6301  986.5000   -0.4924   25.0000 
1222.8576   12.2500   60.6231   12.3393    2.1995    0.1798    2.4175   84.4514  988.0625   -0.6557   25.0000 
1223.0100   12.2500   57.6151   12.3619    2.1883    0.1735    2.4356   82.9454  988.7500   -0.5038   25.0000 
1223.1624   12.2500   57.7354   12.3844    2.1489    0.1608    2.4621   81.2522  989.5000   -0.3977   25.0000 
1223.3148   12.2500   60.9805   12.4295    2.3002    0.1585    2.4827   80.9630  989.5000   -0.0629   54.0000 
1223.4672   12.2500   61.4410   12.4671    2.4881    0.1633    2.4590   81.6203  988.8750   -0.3760   25.0000 
1223.6196   12.2500   61.5850   12.4671    2.3360    0.1792    2.4296   83.8301  989.8125   -0.4338   25.0000 
1223.7720   12.2500   61.2244   12.4746    2.1215    0.1901    2.4069   85.4375  989.6250   -0.5263   25.0000 
1223.9244   12.2500   61.2244   12.4746    2.0561    0.1893    2.4067   84.9443  989.2500   -0.5562   25.0000 
1224.0768   12.2500   59.0350   12.4746    2.1195    0.1831    2.4086   84.7308  988.5000   -0.7267   25.0000 
1224.2292   12.2500   60.3795   12.4746    2.2338    0.1848    2.4121   84.8401  989.5625   -0.5968   25.0000 
1224.3816   12.2500   62.1823   12.4633    2.2375    0.1947    2.4266   84.8961  988.4375    0.0199   54.0000 
1224.5340   12.2500   65.3106   12.4746    2.1912    0.2004    2.4401   84.7766  989.5625    0.4821   57.0000 
1224.6864   12.2500   67.3560   12.4521    2.2289    0.1848    2.4541   84.3677  989.2500    0.2431   54.0000 
1224.8388   12.2500   70.0002   12.4671    2.4177    0.1844    2.4707   83.2693  988.8750    0.5626   57.0000 
1224.9912   12.2500   70.8168   12.4671    2.6184    0.1865    2.4908   83.0117  988.6875    1.0345   57.0000 
1225.1436   12.2500   71.2981   12.4596    2.6684    0.1925    2.5062   82.4191  988.9375    1.5400   57.0000 
1225.2960   12.2500   76.1364   12.4972    2.8567    0.1872    2.5137   82.0130  988.1250    1.5118   57.0000 
1225.4484   12.2500   80.8239   12.5272    3.2449    0.1868    2.5150   81.6872  988.1250    1.5277   57.0000 
1225.6008   12.2500   82.6286   12.5423    3.6048    0.1876    2.5201   81.9500  989.5000    1.6549   57.0000 
1225.7532   12.2500   80.4629   12.5498    3.6055    0.1915    2.5158   81.6088  989.3750    1.7005   57.0000 
1225.9056   12.2500   75.6553   12.5573    3.6102    0.1850    2.5049   81.4302  988.9375    1.2623   57.0000 
1226.0580   12.2500   77.3398   12.5423    3.5986    0.1873    2.4959   81.7144  985.6250    1.1617   57.0000 
1226.2104   12.2500   76.3772   12.5197    3.5546    0.1831    2.4995   81.8259  989.1875    1.0938   57.0000 
1226.3628   12.2500   78.4204   12.5122    3.5174    0.1888    2.5122   82.1158  987.8750    1.5382   57.0000 
1226.5152   12.2500   75.7475   12.5047    3.5083    0.1750    2.5146   82.0798  988.3750    1.1247   57.0000 
1226.6676   12.2500   78.1538   12.4972    3.5184    0.1709    2.5222   81.5129  987.8125    1.1380   57.0000 
1226.8200   12.2500   75.6658   12.4972    3.5319    0.1624    2.5293   81.7153  988.6875    0.9976   57.0000 
1226.9724   12.2500   74.8191   12.4859    3.5264    0.1662    2.5305   81.4080  989.7500    1.1515   57.0000 
1227.1248   12.2500   72.6534   12.4972    3.4758    0.1704    2.5199   81.3615  989.2500    1.0770   57.0000 
1227.2772   12.2500   74.0006   12.4897    3.4289    0.1726    2.5081   81.4225  987.4375    0.9139   57.0000 
1227.4296   12.2500   80.5283   12.4897    3.4714    0.1832    2.5139   81.0878  987.6875    1.3858   57.0000 
1227.5820   12.2500   80.2603   12.4746    3.5908    0.1745    2.5239   81.2624  989.2500    1.2936   57.0000 
1227.7344   12.2500   83.6846   12.4972    3.7138    0.1766    2.5321   80.9910  986.0000    1.5295   57.0000 
1227.8868   12.2500   81.3986   12.4972    3.8170    0.1757    2.5439   80.8790  989.0625    1.7339   57.0000 
1228.0392   12.2500   85.4437   12.5122    3.8108    0.1841    2.5582   80.8301  989.1875    2.3020   57.0000 
1228.1916   12.2500   82.1048   12.5122    3.8076    0.1899    2.5580   80.6961  987.0625    2.4892   57.0000 
1228.3440   12.2500   78.8562   12.5197    3.8831    0.1771    2.5395   81.2773  987.4375    1.6946   57.0000 
1228.4964   12.2500   72.5275   12.5310    3.7374    0.1791    2.5135   81.5238  985.5625    1.2402   57.0000 
1228.6488   12.2500   72.1666   12.5310    3.3048    0.1758    2.4953   81.7837  987.5000    0.7641   57.0000 
1228.8012   12.2500   68.3164   12.5535    3.0928    0.1811    2.4847   82.0129  987.1875    0.7312   57.0000 
1228.9536   12.2500   65.7924   12.5648    2.8952    0.1772    2.4756   82.1946  985.5625    0.4182   57.0000 
1229.1060   12.2500   65.0451   12.5648    2.7252    0.1737    2.4668   82.5583  987.1875    0.1245   54.0000 
1229.2584   12.2500   65.9103   12.5648    2.6068    0.1707    2.4669   82.6426  986.0000    0.0284   54.0000 
1229.4108   12.2500   69.0352   12.5648    2.6863    0.1708    2.4852   82.7670  987.1250    0.3974   57.0000 
1229.5632   12.2500   75.0447   12.4821    2.9293    0.1972    2.5113   83.1784  986.1250    1.7990   57.0000 
1229.7156   12.2500   80.4361   12.4446    3.3234    0.2041    2.5359   82.3175  985.0000    2.5228   57.0000 
1229.8680   12.2500   84.7932   12.4521    3.7281    0.2197    2.5455   81.6536  984.2500    3.2352   57.0000 
1230.0204   12.2500   87.0768   12.4521    3.8628    0.1903    2.5595   78.9896  986.7500    2.5346   57.0000 
1230.1728   12.2500   87.5581   12.4746    4.0458    0.1906    2.5651   80.2973  986.7500    2.6555   57.0000 
1230.3252   12.2500   92.4911   12.4746    4.1837    0.1706    2.5663   79.2792  987.4375    2.0148   57.0000 
1230.4776   12.2500   92.7315   12.4746    4.2402    0.1614    2.5660   77.7486  987.5000    1.7001   57.0000 
1230.6300   12.2500   88.6159   12.4859    4.4741    0.1353    2.5713   74.9882  988.0625    0.9362   57.0000 
1230.7824   12.2500   81.8475   12.5423    5.4161    0.1344    2.5765   75.0440  989.0625    1.0102   57.0000 
1230.9348   12.2500   82.9293   12.5423    6.0428    0.1654    2.5907   78.7671  986.1250    2.3265   57.0000 
