~VERSION INFORMATION
 VERS.                 2.0:   CWLS LOG ASCII STANDARD - VERSION 2.0
 WRAP.                  NO:   SINGLE LINE PER DEPTH STEP
 CREA.                 06/02/2020 16:33:07
#CREATED USING IP VERSION 4.5.2019.2902 BY RMOTA ON 06/02/2020 16:33:07
~WELL INFORMATION
#MNEM.UNIT       DATA                          DESCRIPTION MNEMONIC
#---------      ---------------------------   --------------------------
 STRT    .M         500.8250                  : START DEPTH
 STOP    .M         3050.8250                 : STOP DEPTH
 STEP    .M         0.1000                    : STEP VALUE
 NULL    .      -999.0000                     : NULL VALUE
 DATE    .      06/02/2020                    : LAS file Creation Date
 WELL   .      7-MP-34D-BA     : Well Name
 COMP   .      PETROBRAS       : Company
 FLD    .      MASSAPE         : Field
 STATE  .      BAHIA           : State
 API    .      20240022160     : API Number
 UWI    .                      : Unique Well Identifier (UWI)
 LOC    .                      : Location
 PDAT   .      NM              : Permanent Datum
 EPDAT  .      0.0             : Elevation of Permanent Datum
 LGMEA  .      MR              : Log Measured from
 DRMEA  .      MR              : Drill Measured From
 APDAT  .      65.65           : Elevation Above Permanent Datum
 KB     .      65.95           : KB Elevation
 DF     .      65.65           : DF Elevation
 RWS    .      -999            : Def_Rw
 WST    .      -999            : Def_Rwt
 PROV   .                      : Province
 SRVC   .                      : Contractor
 GDAT   .      WGS 84          : Geodatum
 LONG   .      -38.435477499961: Longitude
 LATI   .      0               : Latitude
 COORDIN.                      : Grid System
 XCOORD .                      : X or East-West Coordinate
 YCOORD .                      : Y or North-South Coordinate
~CURVE INFORMATION
#MNEM              UNIT       API CODE   Curve Type Comments
#----------  --------------- ----------  ---------- -----------
 DEPTH      .M                         : Depth       
 CAL        .inch                      : Caliper     
 BS         .in                        : BitSize     
 GR         .gAPI                      : GammaRay    
 ILD        .ohm.m                     : DeepRes     
 RHOB       .G/CC                      : Density     
 NPHI       .dec                       : Neutron     
 DT         .uS/ft                     : Sonic       
 DRDN       .                          :             
 Lith_new   .                          :             
~A  DEPTH    CAL        BS        GR       ILD       RHOB      NPHI       DT       DRDN    Lith_new 
# ...
2708.8250    8.7490    8.5000   79.9759   15.3900    2.5744    0.1273   69.6633    0.7306   57.0000 
2708.9250    8.7567    8.5000   76.6064   15.0940    2.5691    0.1295   69.8704    0.6989   57.0000 
2709.0250    8.7414    8.5000   73.5742   14.8946    2.5514    0.1321   70.3179    0.4318   57.0000 
2709.1250    8.7796    8.5000   71.0165   14.8159    2.5279    0.1347   70.9862    0.0471   54.0000 
2709.2250    8.7643    8.5000   69.3771   14.8208    2.5069    0.1351   71.8209   -0.3593   25.0000 
2709.3250    8.7719    8.5000   69.7603   14.8800    2.4924    0.1352   72.6357   -0.6441   25.0000 
2709.4250    8.7414    8.5000   70.1047   14.9355    2.4866    0.1348   73.2832   -0.7740   25.0000 
2709.5250    8.7185    8.5000   71.5740   14.9539    2.4909    0.1364   73.6745   -0.6364   25.0000 
2709.6250    8.7185    8.5000   73.2823   14.9068    2.5043    0.1375   73.8362   -0.3307   25.0000 
2709.7250    8.7108    8.5000   73.8839   14.8471    2.5153    0.1396   73.8663   -0.0404   54.0000 
2709.8250    8.7414    8.5000   74.3390   14.8411    2.5200    0.1408   73.8296    0.0945   54.0000 
2709.9250    8.7567    8.5000   73.2557   14.9682    2.5140    0.1421   73.7995    0.0178   54.0000 
2710.0250    8.7796    8.5000   71.1606   15.2586    2.5061    0.1429   73.7796   -0.1153   54.0000 
2710.1250    8.7567    8.5000   70.1951   15.6891    2.4955    0.1440   73.7633   -0.2893   54.0000 
2710.2250    8.7643    8.5000   69.5986   16.1507    2.4890    0.1446   73.6566   -0.3983   25.0000 
2710.3250    8.7643    8.5000   70.0416   16.5240    2.4923    0.1444   73.3056   -0.3397   25.0000 
2710.4250    8.7414    8.5000   70.9991   16.7617    2.5084    0.1421   72.6056   -0.0956   54.0000 
2710.5250    8.7414    8.5000   72.0581   16.8818    2.5374    0.1395   71.6066    0.3969   57.0000 
2710.6250    8.7261    8.5000   74.7939   16.9500    2.5667    0.1368   70.5551    0.8918   57.0000 
2710.7250    8.7337    8.5000   79.5055   17.0042    2.5914    0.1353   69.7311    1.3391   57.0000 
2710.8250    8.7261    8.5000   84.8429   17.0994    2.5924    0.1332   69.3245    1.2888   57.0000 
2710.9250    8.7108    8.5000   88.4400   17.2754    2.5687    0.1313   69.4602    0.7524   57.0000 
2711.0250    8.7032    8.5000   88.1929   17.5753    2.5255    0.1296   70.0622   -0.1702   54.0000 
2711.1250    8.6955    8.5000   83.0444   17.9885    2.4873    0.1288   70.9592   -0.9599   25.0000 
2711.2250    8.6879    8.5000   75.7069   18.4216    2.4673    0.1279   71.8750   -1.3909   49.0000 
2711.3250    8.7185    8.5000   69.0036   18.8115    2.4702    0.1256   72.4541   -1.4108   49.0000 
2711.4250    8.7261    8.5000   64.1431   19.1791    2.4856    0.1229   72.5327   -1.1928   49.0000 
2711.5250    8.7414    8.5000   62.1824   19.6554    2.5081    0.1204   72.1143   -0.8272   25.0000 
2711.6250    8.7414    8.5000   62.7517   20.2492    2.5266    0.1198   71.3694   -0.4764   25.0000 
2711.7250    8.7719    8.5000   64.0152   20.9099    2.5408    0.1207   70.5745   -0.1605   54.0000 
2711.8250    8.7872    8.5000   66.0200   21.5273    2.5417    0.1230   69.9347   -0.0680   54.0000 
2711.9250    8.7949    8.5000   67.5641   22.1601    2.5297    0.1256   69.5939   -0.2202   54.0000 
2712.0250    8.7949    8.5000   67.0420   22.9464    2.5088    0.1266   69.6724   -0.6027   25.0000 
2712.1250    8.7872    8.5000   65.9688   24.0569    2.4878    0.1258   70.0923   -1.0509   49.0000 
2712.2250    8.7872    8.5000   64.3715   25.5335    2.4770    0.1228   70.7439   -1.3660   49.0000 
2712.3250    8.7719    8.5000   62.8554   27.2704    2.4710    0.1196   71.4158   -1.5928   49.0000 
2712.4250    8.7567    8.5000   62.5483   28.9533    2.4717    0.1161   71.8490   -1.6940   49.0000 
2712.5250    8.7490    8.5000   61.4734   30.2109    2.4720    0.1121   71.9459   -1.8230   49.0000 
2712.6250    8.7337    8.5000   59.3430   30.8135    2.4778    0.1071   71.6781   -1.8723   49.0000 
2712.7250    8.7337    8.5000   57.5074   30.7123    2.4833    0.1020   71.1939   -1.9330   49.0000 
2712.8250    8.7490    8.5000   55.4759   29.8415    2.4884    0.0981   70.6704   -1.9633   49.0000 
2712.9250    8.7567    8.5000   54.9799   28.1643    2.4915    0.0960   70.2551   -1.9691   49.0000 
2713.0250    8.7567    8.5000   56.3443   25.9959    2.4949    0.0967   69.9546   -1.8794   49.0000 
2713.1250    8.7490    8.5000   58.1940   23.9457    2.5036    0.1004   69.8429   -1.5812   49.0000 
2713.2250    8.7261    8.5000   61.4231   22.5978    2.5121    0.1060   69.8526   -1.2256   49.0000 
2713.3250    8.7108    8.5000   65.0290   22.2166    2.5201    0.1126   70.0408   -0.8445   25.0000 
2713.4250    8.7185    8.5000   68.6119   22.7147    2.5174    0.1182   70.4102   -0.7127   25.0000 
2713.5250    8.7108    8.5000   71.4465   23.7765    2.5088    0.1228   70.8985   -0.7301   25.0000 
2713.6250    8.7261    8.5000   72.1878   24.8959    2.4917    0.1254   71.5163   -0.9859   25.0000 
2713.7250    8.7261    8.5000   71.3565   25.7864    2.4783    0.1261   72.0648   -1.2291   49.0000 
2713.8250    8.7261    8.5000   69.3003   26.3587    2.4663    0.1248   72.5204   -1.5141   49.0000 
2713.9250    8.7337    8.5000   67.2246   26.8285    2.4621    0.1230   72.7898   -1.6589   49.0000 
2714.0250    8.7414    8.5000   65.4164   27.3828    2.4589    0.1216   72.9423   -1.7677   49.0000 
2714.1250    8.7490    8.5000   64.3380   28.1232    2.4618    0.1222   73.0133   -1.6905   49.0000 
2714.2250    8.7337    8.5000   63.0124   29.1022    2.4652    0.1233   73.0122   -1.5858   49.0000 
2714.3250    8.7108    8.5000   61.2889   30.3927    2.4696    0.1237   72.8990   -1.4839   49.0000 
2714.4250    8.6879    8.5000   60.5988   32.2152    2.4694    0.1223   72.6480   -1.5348   49.0000 
2714.5250    8.6726    8.5000   59.7410   34.7047    2.4693    0.1194   72.1071   -1.6338   49.0000 
2714.6250    8.6726    8.5000   60.4329   38.0192    2.4709    0.1153   71.2403   -1.7389   49.0000 
2714.7250    8.6650    8.5000   62.1326   42.1026    2.4772    0.1097   70.0515   -1.7986   49.0000 
2714.8250    8.6573    8.5000   63.2393   46.4049    2.4825    0.1035   68.7551   -1.9006   49.0000 
2714.9250    8.6650    8.5000   64.0088   49.8950    2.4849    0.0977   67.6367   -2.0455   49.0000 
2715.0250    8.6726    8.5000   63.3434   51.6644    2.4820    0.0934   66.8372   -2.2469   49.0000 
2715.1250    8.6955    8.5000   61.8811   51.5485    2.4803    0.0912   66.4418   -2.3549   49.0000 
2715.2250    8.7108    8.5000   59.5707   49.7549    2.4827    0.0909   66.3985   -2.3178   49.0000 
2715.3250    8.7032    8.5000   57.9716   46.4272    2.4858    0.0925   66.7949   -2.2008   49.0000 
2715.4250    8.7032    8.5000   56.7961   42.2744    2.4816    0.0956   67.6158   -2.1806   49.0000 
2715.5250    8.7108    8.5000   55.5747   38.2406    2.4723    0.0993   68.7974   -2.2460   49.0000 
2715.6250    8.7185    8.5000   55.8889   35.2353    2.4671    0.1027   70.1005   -2.2352   49.0000 
2715.7250    8.7261    8.5000   56.7573   33.4977    2.4696    0.1052   71.2173   -2.1022   49.0000 
2715.8250    8.7185    8.5000   58.5735   32.7745    2.4751    0.1075   71.9765   -1.9151   49.0000 
2715.9250    8.7032    8.5000   61.9640   32.5038    2.4759    0.1099   72.2673   -1.8190   49.0000 
2716.0250    8.7032    8.5000   64.7483   31.6194    2.4754    0.1113   72.2316   -1.7838   49.0000 
2716.1250    8.7032    8.5000   66.5080   29.2538    2.4759    0.1109   72.0168   -1.7836   49.0000 
2716.2250    8.7032    8.5000   67.4735   25.6182    2.4852    0.1087   71.7668   -1.6728   49.0000 
2716.3250    8.7185    8.5000   67.2988   21.9822    2.5002    0.1072   71.6469   -1.4233   49.0000 
2716.4250    8.7337    8.5000   68.3242   19.2627    2.5170    0.1080   71.6781   -1.0608   49.0000 
2716.5250    8.7414    8.5000   71.8384   17.7085    2.5304    0.1120   71.9194   -0.6573   25.0000 
2716.6250    8.7414    8.5000   77.0451   17.1580    2.5368    0.1185   72.2847   -0.3145   25.0000 
2716.7250    8.7261    8.5000   82.7461   17.3239    2.5316    0.1262   72.5704   -0.1626   54.0000 
