~VERSION INFORMATION
 VERS.                 2.0:   CWLS LOG ASCII STANDARD - VERSION 2.0
 WRAP.                  NO:   SINGLE LINE PER DEPTH STEP
 CREA.                 06/02/2020 16:35:30
#CREATED USING IP VERSION 4.5.2019.2902 BY RMOTA ON 06/02/2020 16:35:30
~WELL INFORMATION
#MNEM.UNIT       DATA                          DESCRIPTION MNEMONIC
#---------      ---------------------------   --------------------------
 STRT    .M         15.6972                   : START DEPTH
 STOP    .M         2951.2260                 : STOP DEPTH
 STEP    .M         0.1524                    : STEP VALUE
 NULL    .      -999.0000                     : NULL VALUE
 DATE    .      06/02/2020                    : LAS file Creation Date
 WELL   .      7-MP-36D-BA       : Well Name
 COMP   .      PETROBRAS         : Company
 FLD    .      MASSAPE           : Field
 STATE  .      20240022534       : State
 COUNT  .      BRASIL            : Country
 API    .      20240022534       : API Number
 UWI    .                        : Unique Well Identifier (UWI)
 LOC    .      N= 8607444.13 M   : Location
 PDAT   .      NM                : Permanent Datum
 EPDAT  .      0                 : Elevation of Permanent Datum
 LGMEA  .      MR                : Log Measured from
 DRMEA  .      MR                : Drill Measured From
 APDAT  .      65.81             : Elevation Above Permanent Datum
 KB     .      66.11             : KB Elevation
 DF     .      65.81             : DF Elevation
 GL     .      56.41             : GL Elevation
 RWS    .      -999              : Def_Rw
 WST    .      -999              : Def_Rwt
 BHS    .      OPEN              : Completion Status
 PROV   .                        : Province
 SRVC   .                        : Contractor
 GDAT   .      WGS 84            : Geodatum
 LONG   .      -38.4351329444514 : Longitude
 LATI   .      -12.5962309720781 : Latitude
 COORDIN.                        : Grid System
 XCOORD .                        : X or East-West Coordinate
 YCOORD .                        : Y or North-South Coordinate
~CURVE INFORMATION
#MNEM              UNIT       API CODE   Curve Type Comments
#----------  --------------- ----------  ---------- -----------
 DEPTH      .M                         : Depth       
 BS         .in                        : BitSize     Loaded from DLIS: 7-mp-36d-ba_raw-1.dlis
 DCAL       .in                        :             Loaded from DLIS: 7-mp-36d-ba_raw-1.dlis
 GR         .gAPI                      : GammaRay    Loaded from DLIS: 7-mp-36d-ba_raw-1.dlis
 RT         .ohm.m                     : DeepRes     Loaded from DLIS: 7-mp-36d-ba_raw-1.dlis
 NPHI       .m3/m3                     : Neutron     Loaded from DLIS: 7-mp-36d-ba_raw-1.dlis
 RHOB       .g/cm3                     : Density     Loaded from DLIS: 7-mp-36d-ba_raw-1.dlis
 DT         .us/ft                     : Sonic       Loaded from DLIS: 7-mp-36d-ba_raw-1.dlis
 SP         .mV                        : SP          Loaded from DLIS: 7-mp-36d-ba_raw-1.dlis
 DRDN       .                          :             
 Lith_new   .                          :             
~A  DEPTH     BS       DCAL       GR        RT       NPHI      RHOB       DT        SP       DRDN    Lith_new 
# ...
 794.4612   12.2500    0.2698   76.9751    9.9053    0.2826    2.5165   82.3746  210.8750    4.8513   57.0000 
 794.6136   12.2500    0.2924   72.3075    9.6931    0.2507    2.5386   76.3965  211.0000    4.1897   57.0000 
 794.7660   12.2500    0.0439   63.2357   16.3138    0.2395    2.5429   79.9749  211.2500    3.9344   57.0000 
 794.9184   12.2500    0.1117   69.5528   13.4678    0.2681    2.5449   90.8692  211.3750    4.6451   57.0000 
 795.0708   12.2500    0.1569   77.5206    6.7360    0.3420    2.5049  105.0247  211.7500    6.3378   57.0000 
 795.2232   12.2500    0.2586   90.5157    4.0873    0.4001    2.4889  116.8186  211.1250    7.9507   57.0000 
 795.3756   12.2500    0.2924   86.1840    3.4965    0.4699    2.4639  119.3607  210.3125    9.8173   57.0000 
 795.5280   12.2500    0.1456   82.7433    3.3320    0.5017    2.4374  120.9264  210.3125   10.1829   57.0000 
 795.6804   12.2500    0.0778   78.6883    3.5964    0.4887    2.3874  122.8395  210.3750    8.6712   57.0000 
 795.8328   12.2500    0.1456   79.9970    3.8232    0.4497    2.3298  124.6243  209.5625    6.2051   57.0000 
 795.9852   12.2500    0.1456   82.6237    4.1519    0.4605    2.2855  125.6492  210.3750    5.8908   57.0000 
 796.1376   12.2500    0.2134   82.9363    4.4309    0.4666    2.2715  125.4804  210.6250    5.9895   57.0000 
 796.2900   12.2500    0.2698   83.4787    4.4716    0.4658    2.2871  124.4512  210.3750    6.4779   57.0000 
 796.4424   12.2500    0.1569   86.0055    4.3079    0.4041    2.3174  123.8934  209.0625    4.9934   57.0000 
 796.5948   12.2500    0.1343   82.2090    4.1958    0.3612    2.3422  123.2471  209.6875    4.0347   57.0000 
 796.7472   12.2500    0.0891   82.3897    4.0723    0.3394    2.3630  122.3248  210.6250    3.6942   57.0000 
 796.8996   12.2500    0.0891   78.5995    3.8993    0.3551    2.3785  121.5716  211.0000    4.4814   57.0000 
 797.0520   12.2500    0.2021   83.8423    3.7578    0.3667    2.3821  120.9985  210.9375    4.8263   57.0000 
 797.2044   12.2500    0.2473   80.0458    3.5148    0.3993    2.3758  120.1820  209.7500    5.8051   57.0000 
 797.3568   12.2500    0.1795   79.1434    3.2755    0.3905    2.3798  116.3399  209.0625    5.6885   57.0000 
 797.5092   12.2500    0.1117   71.0080    2.9520    0.3786    2.4029  107.0388  209.5000    5.9749   57.0000 
 797.6616   12.2500    0.1117   74.8045    2.8788    0.3198    2.4585   96.1439  209.1875    5.2317   57.0000 
 797.8140   12.2500    0.1004   78.4142    3.4867    0.2941    2.5091   90.7309  208.0000    5.2581   57.0000 
 797.9664   12.2500    0.1117   84.4371    5.5383    0.2827    2.5422   87.9518  208.0000    5.3847   57.0000 
 798.1188   12.2500    0.1569   82.4052    8.0901    0.3337    2.5451   92.0975  208.2500    6.9324   57.0000 
 798.2712   12.2500    0.1795   86.6104    7.0403    0.3450    2.5322   96.7235  208.5625    7.0834   57.0000 
 798.4236   12.2500    0.1343   86.3727    6.1261    0.3196    2.5325   92.6388  207.6250    6.3659   57.0000 
 798.5760   12.2500    0.1343   80.1193    6.6009    0.2506    2.5414   86.4572  206.9375    4.2646   57.0000 
 798.7284   12.2500    0.1343   67.8790    8.7037    0.2137    2.5570   81.6625  207.2500    3.3832   57.0000 
 798.8808   12.2500    0.1569   62.8170   12.1676    0.2064    2.5629   80.6669  207.5625    3.0670   57.0000 
 799.0332   12.2500    0.1908   66.9046   13.4796    0.2369    2.5542   82.2076  207.2500    3.9499   57.0000 
 799.1856   12.2500    0.2134   70.4092   12.5071    0.2716    2.5468   85.1737  207.5625    4.8937   57.0000 
 799.3380   12.2500    0.2021   71.1324   10.9049    0.2742    2.5347   87.7795  207.8750    4.8201   57.0000 
 799.4904   12.2500    0.1569   75.3301    8.6641    0.2930    2.5332   89.4214  207.8750    5.3844   57.0000 
 799.6428   12.2500    0.1343   83.6507    7.3198    0.2707    2.5276   88.4876  207.6250    4.5929   57.0000 
 799.7952   12.2500    0.1795   85.8202    6.6250    0.2756    2.5300   86.8961  206.8750    4.7515   57.0000 
 799.9476   12.2500    0.1569   85.2778    6.4948    0.2595    2.5284   87.0093  206.1250    4.3069   57.0000 
 800.1000   12.2500    0.1343   81.6681    7.0700    0.3091    2.5331   93.6861  206.1250    5.8722   57.0000 
 800.2524   12.2500    0.1795   88.1764    6.1191    0.3936    2.5125  104.6573  205.1875    8.2102   57.0000 
 800.4048   12.2500    0.2021   95.2271    5.1436    0.4735    2.4697  114.6625  205.1875    9.6860   57.0000 
 800.5572   12.2500    0.2021   99.3783    3.9377    0.5166    2.3998  116.6014  204.5000    9.8502   57.0000 
 800.7096   12.2500    0.1795  105.7058    3.9006    0.4768    2.3632  110.4579  204.0000    8.0271   57.0000 
 800.8620   12.2500    0.1569  104.4822    4.1310    0.4056    2.3588  112.4262  203.8125    5.8249   57.0000 
 801.0144   12.2500    0.1343  106.5252    4.8391    0.3777    2.3769  109.9637  203.8750    5.1690   57.0000 
 801.1668   12.2500    0.1569  104.5366    5.0928    0.4130    2.3656  114.4196  202.9375    5.9126   57.0000 
 801.3192   12.2500    0.2021  103.8980    4.4534    0.4451    2.3408  120.3402  203.0625    6.4539   57.0000 
 801.4716   12.2500    0.2021   99.7399    4.0156    0.4423    2.3154  119.6999  203.6875    5.9507   57.0000 
 801.6240   12.2500    0.2021   91.4237    3.9298    0.4422    2.3086  121.4442  203.1250    5.9201   57.0000 
 801.7764   12.2500    0.2247   86.9115    3.9021    0.4386    2.3129  114.0684  202.4375    5.9381   57.0000 
 801.9288   12.2500    0.2473   80.0416    4.1848    0.4355    2.3240  113.7940  202.3125    6.1077   57.0000 
 802.0812   12.2500    0.2247   78.5953    4.9671    0.4005    2.3434  111.3433  202.7500    5.3055   57.0000 
 802.2336   12.2500    0.1795   78.2343    5.7284    0.3876    2.3478  110.8880  202.7500    4.8674   57.0000 
 802.3860   12.2500    0.2021   84.0544    5.2482    0.3850    2.3460  122.6119  202.6250    4.6841   57.0000 
 802.5384   12.2500    0.2021   88.7026    4.6836    0.4092    2.3342  118.3841  201.8125    5.3316   57.0000 
 802.6908   12.2500    0.2021   84.4491    4.3680    0.3815    2.3563  107.0644  201.8125    5.1252   57.0000 
 802.8432   12.2500    0.2021   77.8678    4.5271    0.3475    2.4051  103.5360  202.5000    5.0865   57.0000 
 802.9956   12.2500    0.1343   75.1605    5.7235    0.3423    2.4512  103.1800  203.0000    5.4893   57.0000 
 803.1480   12.2500    0.2021   80.7742    6.6599    0.3793    2.4307  105.9371  203.0625    5.9584   57.0000 
 803.3004   12.2500    0.3037   82.9401    5.4272    0.4215    2.3887  119.6935  203.1250    6.5725   57.0000 
 803.4528   12.2500    0.4054   82.3986    4.7281    0.4334    2.3620  118.6462  203.5000    6.6712   57.0000 
 803.6052   12.2500    0.4280   80.2255    4.1689    0.4395    2.3769  117.6961  203.5000    7.3736   57.0000 
 803.7576   12.2500    0.4732   88.1669    3.8233    0.4195    2.3947  115.7612  203.3750    6.9010   57.0000 
 803.9100   12.2500    0.5184   84.4274    3.5636    0.4108    2.4000  115.9992  203.4375    6.7794   57.0000 
 804.0624   12.2500    0.5522   86.3231    3.0222    0.4214    2.4185  114.3515  203.0625    7.5733   57.0000 
 804.2148   12.2500    0.5297   81.1353    2.9493    0.4304    2.4489  109.6774  202.3750    8.5864   57.0000 
 804.3672   12.2500    0.4958   84.1985    3.2097    0.3853    2.4874  108.5238  200.6250    7.7895   57.0000 
 804.5196   12.2500    0.4732   84.0180    3.6351    0.3553    2.5061  105.2773  200.3125    7.0297   57.0000 
 804.6720   12.2500    0.5184   83.8372    4.0845    0.3269    2.5087  101.3352  200.0000    6.0237   57.0000 
 804.8244   12.2500    0.4054   82.9333    4.2530    0.3384    2.5018  101.8368  199.3125    6.3085   57.0000 
 804.9768   12.2500    0.4280   84.0162    4.3444    0.3322    2.4982  102.7533  198.0000    5.9877   57.0000 
 805.1292   12.2500    0.4280   79.8581    4.7361    0.3349    2.4996   95.0441  197.1875    6.2517   57.0000 
 805.2816   12.2500    0.3828   77.3271    5.4270    0.3148    2.5177   88.4201  196.5625    5.9807   57.0000 
 805.4340   12.2500    0.4054   68.8712    6.7441    0.2675    2.5386   85.5621  196.1875    4.7925   57.0000 
