~VERSION INFORMATION
 VERS.                 2.0:   CWLS LOG ASCII STANDARD - VERSION 2.0
 WRAP.                  NO:   SINGLE LINE PER DEPTH STEP
 CREA.                 06/02/2020 16:35:30
#CREATED USING IP VERSION 4.5.2019.2902 BY RMOTA ON 06/02/2020 16:35:30
~WELL INFORMATION
#MNEM.UNIT       DATA                          DESCRIPTION MNEMONIC
#---------      ---------------------------   --------------------------
 STRT    .M         15.6972                   : START DEPTH
 STOP    .M         2951.2260                 : STOP DEPTH
 STEP    .M         0.1524                    : STEP VALUE
 NULL    .      -999.0000                     : NULL VALUE
 DATE    .      06/02/2020                    : LAS file Creation Date
 WELL   .      7-MP-36D-BA       : Well Name
 COMP   .      PETROBRAS         : Company
 FLD    .      MASSAPE           : Field
 STATE  .      20240022534       : State
 COUNT  .      BRASIL            : Country
 API    .      20240022534       : API Number
 UWI    .                        : Unique Well Identifier (UWI)
 LOC    .      N= 8607444.13 M   : Location
 PDAT   .      NM                : Permanent Datum
 EPDAT  .      0                 : Elevation of Permanent Datum
 LGMEA  .      MR                : Log Measured from
 DRMEA  .      MR                : Drill Measured From
 APDAT  .      65.81             : Elevation Above Permanent Datum
 KB     .      66.11             : KB Elevation
 DF     .      65.81             : DF Elevation
 GL     .      56.41             : GL Elevation
 RWS    .      -999              : Def_Rw
 WST    .      -999              : Def_Rwt
 BHS    .      OPEN              : Completion Status
 PROV   .                        : Province
 SRVC   .                        : Contractor
 GDAT   .      WGS 84            : Geodatum
 LONG   .      -38.4351329444514 : Longitude
 LATI   .      -12.5962309720781 : Latitude
 COORDIN.                        : Grid System
 XCOORD .                        : X or East-West Coordinate
 YCOORD .                        : Y or North-South Coordinate
~CURVE INFORMATION
#MNEM              UNIT       API CODE   Curve Type Comments
#----------  --------------- ----------  ---------- -----------
 DEPTH      .M                         : Depth       
 BS         .in                        : BitSize     Loaded from DLIS: 7-mp-36d-ba_raw-1.dlis
 DCAL       .in                        :             Loaded from DLIS: 7-mp-36d-ba_raw-1.dlis
 GR         .gAPI                      : GammaRay    Loaded from DLIS: 7-mp-36d-ba_raw-1.dlis
 RT         .ohm.m                     : DeepRes     Loaded from DLIS: 7-mp-36d-ba_raw-1.dlis
 NPHI       .m3/m3                     : Neutron     Loaded from DLIS: 7-mp-36d-ba_raw-1.dlis
 RHOB       .g/cm3                     : Density     Loaded from DLIS: 7-mp-36d-ba_raw-1.dlis
 DT         .us/ft                     : Sonic       Loaded from DLIS: 7-mp-36d-ba_raw-1.dlis
 SP         .mV                        : SP          Loaded from DLIS: 7-mp-36d-ba_raw-1.dlis
 DRDN       .                          :             
 Lith_new   .                          :             
~A  DEPTH     BS       DCAL       GR        RT       NPHI      RHOB       DT        SP       DRDN    Lith_new 
# ...
1183.8432   12.2500   -0.1142   41.1568    1.5485    0.2660    2.2646   82.5355  219.1875   -0.8490   25.0000 
1183.9956   12.2500   -0.0238   37.4978    1.1309    0.2445    2.2643   83.2635  216.6250   -1.6107   49.0000 
1184.1480   12.2500    0.1343   36.7629    0.9703    0.2118    2.2586   82.5920  214.1875   -2.7848   49.0000 
1184.3004   12.2500    0.3376   38.4832    0.8822    0.2082    2.2572   82.0294  214.9375   -2.8846   49.0000 
1184.4528   12.2500    0.2924   41.2909    0.8166    0.2261    2.2734   81.3447  215.9375   -1.8323   49.0000 
1184.6052   12.2500   -0.0916   41.0243    0.7527    0.2221    2.2929   81.0483  215.7500   -1.6716   49.0000 
1184.7576   12.2500    0.0665   41.2909    0.7635    0.2097    2.2956   81.0115  215.5000   -2.1119   49.0000 
1184.9100   12.2500    0.2247   39.6541    0.8205    0.1861    2.2965   81.2063  214.9375   -2.8299   49.0000 
1185.0624   12.2500    0.3376   40.4672    0.9034    0.1870    2.2981   81.1451  211.4375   -2.8124   49.0000 
1185.2148   12.2500    0.6765   37.0440    0.9230    0.1865    2.2981   80.1223  211.3125   -2.8422   49.0000 
1185.3672   12.2500    0.4506   37.9472    0.9610    0.1890    2.2877   79.7415  210.9375   -3.0339   49.0000 
1185.5196   12.2500    0.1795   38.3537    0.9202    0.1828    2.2924   77.6881  210.4375   -2.8710   49.0000 
1185.6720   12.2500    0.2021   50.8088    1.0129    0.1716    2.3369   78.2213  208.8750   -2.0880   49.0000 
1185.8244   12.2500   -0.0013   65.4630    1.3359    0.1746    2.4148   79.3419  205.5000   -0.3449   25.0000 
1185.9768   12.2500    0.1343   87.2702    2.1917    0.2033    2.4896   83.2462  203.1875    2.0032   57.0000 
1186.1292   12.2500    0.3602   98.5030    3.0110    0.2824    2.5370   88.0470  205.4375    5.3038   57.0000 
1186.2816   12.2500    0.2811  108.5959    3.2391    0.3245    2.5452   92.9749  207.1875    6.6956   57.0000 
1186.4340   12.2500    0.1117  106.1003    3.1898    0.3724    2.5445   96.6017  209.5000    8.3022   57.0000 
1186.5864   12.2500   -0.0690  110.9768    3.1541    0.3670    2.5361   98.1344  211.6875    7.8758   57.0000 
1186.7388   12.2500   -0.0126  107.9060    3.2462    0.3549    2.5277   97.6642  212.6875    7.3224   57.0000 
1186.8912   12.2500    0.1795  105.4666    3.7321    0.3006    2.5133   93.4692  214.1250    5.2173   57.0000 
1187.0436   12.2500    0.2134   96.9696    4.1782    0.2489    2.5211   86.9461  217.6250    3.8164   57.0000 
1187.1960   12.2500    0.1908   89.0216    4.1069    0.2045    2.5182   81.0310  222.8125    2.0557   57.0000 
1187.3484   12.2500   -0.0238   74.1822    4.0239    0.1959    2.4869   80.6256  226.1875    0.9334   57.0000 
1187.5008   12.2500   -0.1255   62.5959    4.0272    0.1904    2.4243   83.3499  227.8125   -0.5857   25.0000 
1187.6532   12.2500   -0.0916   57.5674    3.4025    0.2055    2.3882   79.7300  228.5000   -0.4352   25.0000 
1187.8056   12.2500    0.0891   66.5252    3.0357    0.2095    2.3958   82.5600  225.7500    0.1056   54.0000 
1187.9580   12.2500    0.1117   79.5310    2.8895    0.2293    2.4514   83.8623  223.2500    2.1849   57.0000 
1188.1104   12.2500    0.3828   87.6622    2.8200    0.2535    2.5019   84.9672  224.5625    3.5673   57.0000 
1188.2628   12.2500    0.2021   88.5437    2.7490    0.2682    2.4950   86.3920  228.0000    3.6343   57.0000 
1188.4152   12.2500   -0.0916   81.3390    2.6080    0.2551    2.4479   86.4367  231.8125    2.0549   57.0000 
1188.5676   12.2500    0.0891   74.2242    2.5086    0.2545    2.4093   87.5133  231.8750    1.6416   57.0000 
1188.7200   12.2500    0.1569   72.5985    2.2833    0.2494    2.4180   86.0651  227.6875    1.7888   57.0000 
1188.8724   12.2500    0.2924   70.5908    2.2692    0.2389    2.4246   85.1705  225.2500    1.3973   57.0000 
1189.0248   12.2500    0.2473   65.7121    2.2820    0.2177    2.4082   84.2392  225.6250    0.3122   57.0000 
1189.1772   12.2500    0.1569   66.4562    2.3239    0.2336    2.3986   83.7902  224.8125    0.7409   57.0000 
1189.3296   12.2500    0.0213   66.4562    2.4242    0.2632    2.4036   84.4569  226.1875    1.9683   57.0000 
1189.4820   12.2500   -0.1594   67.4726    2.3192    0.2655    2.4239   85.2261  225.2500    2.3830   57.0000 
1189.6344   12.2500   -0.1029   59.6836    1.9842    0.2550    2.4099   85.4811  222.4375    1.4852   57.0000 
1189.7868   12.2500    0.0439   54.0983    1.8638    0.2329    2.3775   84.5002  220.6875    0.0977   54.0000 
1189.9392   12.2500    0.2473   54.9114    1.8123    0.2503    2.3530   85.2571  219.9375    0.3514   57.0000 
1190.0916   12.2500    0.1343   58.7048    1.7978    0.2571    2.3476   85.0376  218.0000    0.5188   57.0000 
1190.2440   12.2500    0.0213   63.0257    1.7937    0.2877    2.3624   85.9425  215.0625    2.0245   57.0000 
1190.3964   12.2500   -0.1594   61.3994    1.8910    0.2838    2.3880   87.2912  211.6250    2.3269   57.0000 
1190.5488   12.2500   -0.0464   59.4291    2.0005    0.2782    2.4104   88.0376  207.5625    2.6382   57.0000 
1190.7012   12.2500   -0.0013   61.7397    2.1481    0.2463    2.4363   86.8345  202.0625    2.1631   57.0000 
1190.8536   12.2500    0.3150   71.5111    2.3190    0.2551    2.4748   86.3347  200.5000    3.2653   57.0000 
1191.0060   12.2500    0.2021   77.2603    2.5336    0.2661    2.5082   84.2902  202.6250    4.2117   57.0000 
1191.1584   12.2500    0.1117   84.5494    2.7795    0.2831    2.5231   86.2887  204.3750    4.9006   57.0000 
1191.3108   12.2500    0.0439   84.1881    3.0960    0.3177    2.5215   87.8904  204.1875    6.0464   57.0000 
1191.4632   12.2500    0.0213   92.8732    3.5468    0.3254    2.5348   89.6757  200.1875    6.6523   57.0000 
1191.6156   12.2500   -0.0351   92.0890    4.0820    0.3030    2.5473   85.8553  198.5000    6.1183   57.0000 
1191.7680   12.2500    0.1682   84.5185    4.5907    0.2331    2.5540   83.8964  198.1250    3.7908   57.0000 
1191.9204   12.2500    0.3376   74.2223    5.6076    0.2103    2.5397   83.4609  200.6250    2.7289   57.0000 
1192.0728   12.2500    0.0891   71.0064    7.4571    0.2270    2.5323   83.2642  203.6250    3.1325   57.0000 
1192.2252   12.2500   -0.1142   76.2816    6.5823    0.2776    2.5183   86.5100  204.5000    4.6186   57.0000 
1192.3776   12.2500   -0.0690   83.7140    5.5344    0.3033    2.5259   86.8468  204.5625    5.7080   57.0000 
1192.5300   12.2500    0.0891   85.7101    4.7331    0.3141    2.5332   86.4872  205.0000    6.1552   57.0000 
1192.6824   12.2500    0.2021   88.7280    4.1274    0.2861    2.5408   87.7389  208.1250    5.3834   57.0000 
1192.8348   12.2500    0.4054   77.5023    3.7411    0.2603    2.5319   87.6050  211.3750    4.0940   57.0000 
1192.9872   12.2500    0.2811   71.6071    3.7811    0.2339    2.4837   86.3034  214.8125    2.1095   57.0000 
1193.1396   12.2500   -0.0690   63.1333    3.1759    0.2333    2.4283   84.7640  217.2500    0.9732   57.0000 
1193.2920   12.2500   -0.1255   64.8788    2.3917    0.2606    2.3833   84.4019  216.0625    1.2055   57.0000 
1193.4444   12.2500   -0.0126   57.3977    1.8681    0.2880    2.3780   85.6954  216.0625    2.1832   57.0000 
1193.5968   12.2500    0.1343   54.9257    1.6477    0.2824    2.3693   86.8033  216.3125    1.6670   57.0000 
1193.7492   12.2500    0.1908   46.4966    1.5445    0.2400    2.3457   87.3089  217.5000   -0.2928   54.0000 
1193.9016   12.2500    0.1795   46.3291    1.4569    0.2311    2.3187   85.7688  217.8750   -1.0624   49.0000 
1194.0540   12.2500   -0.0238   44.9916    1.3249    0.2117    2.3015   85.6502  214.0625   -1.9764   49.0000 
1194.2064   12.2500   -0.0013   49.3551    1.2791    0.2149    2.3102   85.5820  211.3750   -1.4145   49.0000 
1194.3588   12.2500    0.2360   55.4837    1.3121    0.2026    2.3424   84.9416  209.1875   -1.2095   49.0000 
1194.5112   12.2500    0.4732   57.3045    1.3655    0.2078    2.3745   84.3305  208.6875   -0.3879   25.0000 
1194.6636   12.2500    0.6878   55.0684    1.4375    0.2070    2.3835   83.6987  211.0625   -0.5207   25.0000 
1194.8160   12.2500    0.7669   52.9008    1.5204    0.2099    2.3682   84.2394  211.3125   -0.7244   25.0000 
