~VERSION INFORMATION
 VERS.                 2.0:   CWLS LOG ASCII STANDARD - VERSION 2.0
 WRAP.                  NO:   SINGLE LINE PER DEPTH STEP
 CREA.                 30/01/2020 17:28:45
#CREATED USING IP VERSION 4.5.2019.2902 BY RMOTA ON 30/01/2020 17:28:45
~WELL INFORMATION
#MNEM.UNIT       DATA                          DESCRIPTION MNEMONIC
#---------      ---------------------------   --------------------------
 STRT    .M         5.0000                    : START DEPTH
 STOP    .M         2977.0000                 : STOP DEPTH
 STEP    .M         0.1000                    : STEP VALUE
 NULL    .      -999.0000                     : NULL VALUE
 DATE    .      30/01/2020                    : LAS file Creation Date
 WELL   .      7-MP-53D-BA      : Well Name
 COMP   .      PETROBRAS        : Company
 FLD    .      MASSAPE          : Field
 STATE  .      BAHIA            : State
 API    .      20240027945      : API Number
 UWI    .                       : Unique Well Identifier (UWI)
 LOC    .                       : Location
 TOWN   .      -999.25          : Township
 SCT    .      -999.25          : Section
 RANG   .      -999.25          : Range
 PDAT   .      NM               : Permanent Datum
 EPDAT  .      0.00             : Elevation of Permanent Datum
 LGMEA  .      MR               : Log Measured from
 DRMEA  .      MR               : Drill Measured From
 APDAT  .      64.90            : Elevation Above Permanent Datum
 KB     .      -999.25          : KB Elevation
 DF     .      64.90            : DF Elevation
 GL     .      56.80            : GL Elevation
 RWS    .      -999             : Def_Rw
 WST    .      -999             : Def_Rwt
 PROV   .                       : Province
 SRVC   .                       : Contractor
 GDAT   .      WGS 84           : Geodatum
 LONG   .      -38.4325436115265: Longitude
 LATI   .      0                : Latitude
 COORDIN.                       : Grid System
 XCOORD .                       : X or East-West Coordinate
 YCOORD .                       : Y or North-South Coordinate
~CURVE INFORMATION
#MNEM              UNIT       API CODE   Curve Type Comments
#----------  --------------- ----------  ---------- -----------
 DEPTH      .M                         : Depth       
 DEPTH      .M                         : Depth       
 DRDN       .                          :             
 GR         .api                       : GammaRay    
 CAL        .in                        : Caliper     
 Res        .                          :             
 N_Res      .                          :             
 ILD        .ohmm                      : DeepRes     
 RHOB       .g/cc                      : Density     Loaded from DLIS: 7-mp-53d-ba_raw-3.dlis
 NPHI       .dec                       : Neutron     Loaded from DLIS: 7-mp-53d-ba_raw-3.dlis
 Lith_new   .                          :             
~A  DEPTH   DEPTH      DRDN       GR       CAL       Res      N_Res      ILD       RHOB      NPHI    Lith_new 
# ...
2107.4000 2107.4000    3.9032   90.8034    8.7527 -999.0000 -999.0000    2.0584    2.5458    0.2396   57.0000 
2107.5000 2107.5000    3.9669   92.9856    8.7610 -999.0000 -999.0000    2.0550    2.5428    0.2433   57.0000 
2107.6000 2107.6000    3.5617   96.7063    8.7591 -999.0000 -999.0000    2.0463    2.5393    0.2333   57.0000 
2107.7000 2107.7000    3.4212  100.7017    8.7583 -999.0000 -999.0000    2.0354    2.5381    0.2298   57.0000 
2107.8000 2107.8000    3.3036  100.9921    8.7582 -999.0000 -999.0000    2.0182    2.5417    0.2241   57.0000 
2107.9000 2107.9000    3.4873   99.8068    8.7605 -999.0000 -999.0000    2.0120    2.5444    0.2280   57.0000 
2108.0000 2108.0000    3.7458  100.3641    8.7602 -999.0000 -999.0000    2.0050    2.5455    0.2351   57.0000 
2108.1000 2108.1000    3.7618  104.5872    8.7616 -999.0000 -999.0000    1.9902    2.5481    0.2340   57.0000 
2108.2000 2108.2000    3.7277  105.3407    8.7551 -999.0000 -999.0000    1.9886    2.5452    0.2347   57.0000 
2108.3000 2108.3000    3.7613  104.5008    8.7516 -999.0000 -999.0000    1.9948    2.5386    0.2397   57.0000 
2108.4000 2108.4000    3.0342  103.4961    8.7504 -999.0000 -999.0000    2.0346    2.5201    0.2290   57.0000 
2108.5000 2108.5000    3.1554  104.6421    8.7504 -999.0000 -999.0000    2.0665    2.5186    0.2335   57.0000 
2108.6000 2108.6000    3.3264  104.9561    8.7518 -999.0000 -999.0000    2.1056    2.5248    0.2349   57.0000 
2108.7000 2108.7000    3.6482  108.0096    8.7325 -999.0000 -999.0000    2.2257    2.5433    0.2335   57.0000 
2108.8000 2108.8000    3.7658  109.8935    8.7354 -999.0000 -999.0000    2.3199    2.5473    0.2346   57.0000 
2108.9000 2108.9000    4.0831  112.0992    8.7263 -999.0000 -999.0000    2.4401    2.5537    0.2403   57.0000 
2109.0000 2109.0000    3.8472  110.9532    8.7238 -999.0000 -999.0000    2.7533    2.5704    0.2232   57.0000 
2109.1000 2109.1000    3.7879  108.0017    8.7079 -999.0000 -999.0000    2.9523    2.5846    0.2129   57.0000 
2109.2000 2109.2000    3.4350  106.2591    8.7172 -999.0000 -999.0000    3.1806    2.5903    0.1989   57.0000 
2109.3000 2109.3000    3.3764  104.9640    8.7284 -999.0000 -999.0000    3.4248    2.5938    0.1950   57.0000 
2109.4000 2109.4000    3.3116  101.4631    8.7184 -999.0000 -999.0000    3.8618    2.6111    0.1827   57.0000 
2109.5000 2109.5000    3.3673   97.9622    8.7141 -999.0000 -999.0000    3.9603    2.6253    0.1758   57.0000 
2109.6000 2109.6000    3.4024   95.6466    8.7157 -999.0000 -999.0000    3.9154    2.6373    0.1697   57.0000 
2109.7000 2109.7000    3.1524   92.8207    8.7229 -999.0000 -999.0000    3.4892    2.6409    0.1600   57.0000 
2109.8000 2109.8000    3.3019   94.8224    8.7128 -999.0000 -999.0000    3.2242    2.6362    0.1673   57.0000 
2109.9000 2109.9000    3.6939   96.6906    8.7216 -999.0000 -999.0000    2.9761    2.6302    0.1827   57.0000 
2110.0000 2110.0000    3.5560  102.7112    8.6977 -999.0000 -999.0000    2.6302    2.6159    0.1871   57.0000 
2110.1000 2110.1000    3.4357  104.7363    8.7066 -999.0000 -999.0000    2.5962    2.6080    0.1883   57.0000 
2110.2000 2110.2000    3.3904  107.2560    8.7189 -999.0000 -999.0000    2.6738    2.6001    0.1917   57.0000 
2110.3000 2110.3000    3.2517  112.5309    8.7183 -999.0000 -999.0000    3.0709    2.6016    0.1866   57.0000 
2110.4000 2110.4000    3.1712  112.1934    8.7333 -999.0000 -999.0000    3.2740    2.6084    0.1801   57.0000 
2110.5000 2110.5000    3.1321  110.0112    8.7401 -999.0000 -999.0000    3.3894    2.6181    0.1731   57.0000 
2110.6000 2110.6000    2.8470  103.2999    8.7277 -999.0000 -999.0000    3.4649    2.6247    0.1606   57.0000 
2110.7000 2110.7000    2.7764  102.4914    8.7111 -999.0000 -999.0000    3.6162    2.6239    0.1590   57.0000 
2110.8000 2110.8000    2.5536  103.1586    8.7123 -999.0000 -999.0000    3.9652    2.6258    0.1511   57.0000 
2110.9000 2110.9000    2.4665  101.4552    8.7159 -999.0000 -999.0000    4.5865    2.6281    0.1471   57.0000 
2111.0000 2111.0000    1.8486   85.3558    8.7217 -999.0000 -999.0000    6.7819    2.6367    0.1234   57.0000 
2111.1000 2111.1000    1.4343   75.4262    8.7542 -999.0000 -999.0000    8.2250    2.6386    0.1099   57.0000 
2111.2000 2111.2000    1.0793   69.7745    8.7545 -999.0000 -999.0000    9.5636    2.6400    0.0984   57.0000 
2111.3000 2111.3000    0.2873   67.0429    8.7643 -999.0000 -999.0000   10.2374    2.6315    0.0797   54.0000 
2111.4000 2111.4000   -0.0373   67.0350    8.7807 -999.0000 -999.0000    9.3253    2.6201    0.0768   54.0000 
2111.5000 2111.5000   -0.0701   67.3176    8.7305 -999.0000 -999.0000    7.9730    2.6075    0.0834   54.0000 
2111.6000 2111.6000    0.2932   69.8216    8.7873 -999.0000 -999.0000    5.3326    2.5983    0.0998   54.0000 
2111.7000 2111.7000    0.6104   73.6993    8.7950 -999.0000 -999.0000    4.4299    2.6002    0.1082   57.0000 
2111.8000 2111.8000    1.1055   79.5315    8.7803 -999.0000 -999.0000    3.8697    2.6043    0.1206   57.0000 
2111.9000 2111.9000    2.3940   90.7563    8.8034 -999.0000 -999.0000    3.6079    2.6121    0.1546   57.0000 
2112.0000 2112.0000    2.7923   93.5036    8.8377 -999.0000 -999.0000    3.8009    2.6131    0.1659   57.0000 
2112.1000 2112.1000    2.8882   92.4440    8.8189 -999.0000 -999.0000    4.1447    2.6118    0.1696   57.0000 
2112.2000 2112.2000    1.8438   84.5238    8.7756 -999.0000 -999.0000    4.9193    2.5983    0.1463   57.0000 
2112.3000 2112.3000    1.4060   78.9663    8.7674 -999.0000 -999.0000    5.0728    2.5950    0.1352   57.0000 
2112.4000 2112.4000    1.1656   75.8108    8.7593 -999.0000 -999.0000    4.9798    2.5953    0.1278   57.0000 
2112.5000 2112.5000    1.3098   74.3037    8.8134 -999.0000 -999.0000    4.7234    2.5976    0.1307   57.0000 
2112.6000 2112.6000    2.2477   81.7215    8.7615 -999.0000 -999.0000    4.2018    2.6062    0.1537   57.0000 
2112.7000 2112.7000    2.5439   86.5882    8.7671 -999.0000 -999.0000    4.0316    2.6085    0.1612   57.0000 
2112.8000 2112.8000    2.8770   90.0342    8.7719 -999.0000 -999.0000    3.9112    2.6077    0.1717   57.0000 
2112.9000 2112.9000    2.7961   88.1660    8.7455 -999.0000 -999.0000    3.7632    2.6026    0.1723   57.0000 
2113.0000 2113.0000    2.6408   88.0875    8.7122 -999.0000 -999.0000    3.7199    2.5988    0.1699   57.0000 
2113.1000 2113.1000    2.9516   89.2570    8.6718 -999.0000 -999.0000    3.6994    2.6007    0.1781   57.0000 
2113.2000 2113.2000    3.1863   92.3184    8.6835 -999.0000 -999.0000    3.7737    2.6115    0.1787   57.0000 
2113.3000 2113.3000    3.0233   93.0327    8.6991 -999.0000 -999.0000    3.9433    2.6156    0.1713   57.0000 
2113.4000 2113.4000    2.6389   92.5931    8.7114 -999.0000 -999.0000    4.2592    2.6146    0.1604   57.0000 
2113.5000 2113.5000    2.0846   86.8472    8.7106 -999.0000 -999.0000    5.5475    2.6083    0.1476   57.0000 
2113.6000 2113.6000    1.6438   80.9601    8.7327 -999.0000 -999.0000    6.6542    2.6073    0.1349   57.0000 
2113.7000 2113.7000    1.3064   74.3665    8.7537 -999.0000 -999.0000    7.9822    2.6131    0.1213   57.0000 
2113.8000 2113.8000    0.5656   63.4556    8.7165 -999.0000 -999.0000    9.5467    2.6260    0.0914   57.0000 
2113.9000 2113.9000    0.5321   60.0803    8.6932 -999.0000 -999.0000    9.0517    2.6339    0.0856   57.0000 
2114.0000 2114.0000    0.7809   60.3865    8.6810 -999.0000 -999.0000    7.8828    2.6332    0.0935   57.0000 
2114.1000 2114.1000    1.1888   62.2861    8.6955 -999.0000 -999.0000    6.5330    2.6327    0.1060   57.0000 
2114.2000 2114.2000    1.6223   73.5737    8.6769 -999.0000 -999.0000    4.4769    2.6278    0.1220   57.0000 
2114.3000 2114.3000    1.9517   80.3086    8.6703 -999.0000 -999.0000    3.9174    2.6222    0.1352   57.0000 
2114.4000 2114.4000    2.3551   88.1974    8.6837 -999.0000 -999.0000    3.5925    2.6126    0.1531   57.0000 
2114.5000 2114.5000    3.0254  100.0423    8.6961 -999.0000 -999.0000    3.3121    2.5958    0.1833   57.0000 
2114.6000 2114.6000    3.1450  103.4098    8.6849 -999.0000 -999.0000    3.2641    2.5929    0.1886   57.0000 
