~VERSION INFORMATION
 VERS.                 2.0:   CWLS LOG ASCII STANDARD - VERSION 2.0
 WRAP.                  NO:   SINGLE LINE PER DEPTH STEP
 CREA.                 06/02/2020 16:35:30
#CREATED USING IP VERSION 4.5.2019.2902 BY RMOTA ON 06/02/2020 16:35:30
~WELL INFORMATION
#MNEM.UNIT       DATA                          DESCRIPTION MNEMONIC
#---------      ---------------------------   --------------------------
 STRT    .M         15.6972                   : START DEPTH
 STOP    .M         2951.2260                 : STOP DEPTH
 STEP    .M         0.1524                    : STEP VALUE
 NULL    .      -999.0000                     : NULL VALUE
 DATE    .      06/02/2020                    : LAS file Creation Date
 WELL   .      7-MP-36D-BA       : Well Name
 COMP   .      PETROBRAS         : Company
 FLD    .      MASSAPE           : Field
 STATE  .      20240022534       : State
 COUNT  .      BRASIL            : Country
 API    .      20240022534       : API Number
 UWI    .                        : Unique Well Identifier (UWI)
 LOC    .      N= 8607444.13 M   : Location
 PDAT   .      NM                : Permanent Datum
 EPDAT  .      0                 : Elevation of Permanent Datum
 LGMEA  .      MR                : Log Measured from
 DRMEA  .      MR                : Drill Measured From
 APDAT  .      65.81             : Elevation Above Permanent Datum
 KB     .      66.11             : KB Elevation
 DF     .      65.81             : DF Elevation
 GL     .      56.41             : GL Elevation
 RWS    .      -999              : Def_Rw
 WST    .      -999              : Def_Rwt
 BHS    .      OPEN              : Completion Status
 PROV   .                        : Province
 SRVC   .                        : Contractor
 GDAT   .      WGS 84            : Geodatum
 LONG   .      -38.4351329444514 : Longitude
 LATI   .      -12.5962309720781 : Latitude
 COORDIN.                        : Grid System
 XCOORD .                        : X or East-West Coordinate
 YCOORD .                        : Y or North-South Coordinate
~CURVE INFORMATION
#MNEM              UNIT       API CODE   Curve Type Comments
#----------  --------------- ----------  ---------- -----------
 DEPTH      .M                         : Depth       
 BS         .in                        : BitSize     Loaded from DLIS: 7-mp-36d-ba_raw-1.dlis
 DCAL       .in                        :             Loaded from DLIS: 7-mp-36d-ba_raw-1.dlis
 GR         .gAPI                      : GammaRay    Loaded from DLIS: 7-mp-36d-ba_raw-1.dlis
 RT         .ohm.m                     : DeepRes     Loaded from DLIS: 7-mp-36d-ba_raw-1.dlis
 NPHI       .m3/m3                     : Neutron     Loaded from DLIS: 7-mp-36d-ba_raw-1.dlis
 RHOB       .g/cm3                     : Density     Loaded from DLIS: 7-mp-36d-ba_raw-1.dlis
 DT         .us/ft                     : Sonic       Loaded from DLIS: 7-mp-36d-ba_raw-1.dlis
 SP         .mV                        : SP          Loaded from DLIS: 7-mp-36d-ba_raw-1.dlis
 DRDN       .                          :             
 Lith_new   .                          :             
~A  DEPTH     BS       DCAL       GR        RT       NPHI      RHOB       DT        SP       DRDN    Lith_new 
# ...
2552.2428    8.5000   -0.1746  112.2064    3.8331    0.2991    2.6475   81.9010  253.7500    8.0462   57.0000 
2552.3952    8.5000   -0.1984  112.2064    3.6979    0.3005    2.6567   82.8773  253.1875    8.2231   57.0000 
2552.5476    8.5000   -0.1627  113.8793    3.5665    0.2856    2.6802   83.5346  252.9375    8.2710   57.0000 
2552.7000    8.5000   -0.1508  115.3664    3.5342    0.2954    2.6814   83.1469  252.7500    8.3644   57.0000 
2552.8524    8.5000   -0.1508  111.0983    3.4525    0.2890    2.6710   77.8131  252.8750    8.0320   57.0000 
2553.0048    8.5000   -0.1508  102.3620    3.6511    0.2454    2.6688   74.6259  252.5000    6.5859   57.0000 
2553.1572    8.5000   -0.1984   88.4211    4.1357    0.1686    2.6777   68.1034  252.6250    4.2487   57.0000 
2553.3096    8.5000   -0.2222   72.0909    5.0313    0.1140    2.6862   63.5527  252.2500    2.5750   57.0000 
2553.4620    8.5000   -0.2936   65.3993    6.6928    0.1118    2.6897   63.1651  252.3750    2.5035   57.0000 
2553.6144    8.5000   -0.2460   74.1356    7.8556    0.1601    2.6866   68.2851  252.1250    4.0434   57.0000 
2553.7668    8.5000   -0.2460   97.3318    6.1583    0.2194    2.6804   73.8200  252.1875    5.8592   57.0000 
2553.9192    8.5000   -0.1508  111.0868    4.3673    0.2486    2.6724   77.0238  253.1875    6.6972   57.0000 
2554.0716    8.5000   -0.1508  112.3880    3.7605    0.2323    2.6733   79.2196  253.5625    6.2899   57.0000 
2554.2240    8.5000   -0.1508  104.2229    4.2403    0.2265    2.6852   77.1188  253.8750    6.2808   57.0000 
2554.3764    8.5000   -0.1508  101.9247    4.7821    0.2221    2.6817   76.5481  254.4375    5.9840   57.0000 
2554.5288    8.5000   -0.1508   98.3931    4.9127    0.2277    2.6710   76.6911  254.5000    5.9132   57.0000 
2554.6812    8.5000   -0.1271   96.8686    5.1289    0.2082    2.6620   75.7664  254.0000    5.1948   57.0000 
2554.8336    8.5000   -0.1746   89.5011    5.5999    0.2017    2.6716   72.4333  253.8125    5.2716   57.0000 
2554.9860    8.5000   -0.1984   94.1480    6.8282    0.2197    2.6893   73.4982  253.7500    6.2002   57.0000 
2555.1384    8.5000   -0.2222   99.4511    7.0857    0.2269    2.6942   74.8860  253.5625    6.4149   57.0000 
2555.2908    8.5000   -0.1508  107.8076    5.9196    0.2405    2.6836   78.2748  253.4375    6.5740   57.0000 
2555.4432    8.5000   -0.1389  106.8224    5.3442    0.2376    2.6665   79.8262  253.1250    6.1426   57.0000 
2555.5956    8.5000   -0.1271  100.8169    5.5249    0.2532    2.6518   78.9220  252.8750    6.3780   57.0000 
2555.7480    8.5000   -0.0914   98.6517    5.2797    0.2562    2.6411   78.8721  252.3750    6.3245   57.0000 
2555.9004    8.5000   -0.0795   97.9094    4.8970    0.2431    2.6369   77.6941  252.0625    5.8427   57.0000 
2556.0528    8.5000   -0.1746  101.4352    4.7270    0.2255    2.6418   76.4469  251.1875    5.4238   57.0000 
2556.2052    8.5000   -0.2222   97.5253    4.8988    0.2292    2.6573   77.6995  250.8125    5.8962   57.0000 
2556.3576    8.5000   -0.2460  101.6078    5.0207    0.2404    2.6681   76.0260  251.3750    6.3844   57.0000 
2556.5100    8.5000   -0.2103  101.2929    4.6506    0.2463    2.6685   80.5047  251.5000    6.6231   57.0000 
2556.6624    8.5000   -0.2103  103.4726    4.4062    0.2576    2.6704   82.2523  251.7500    6.9702   57.0000 
2556.8148    8.5000   -0.1984  105.1427    4.1927    0.2701    2.6701   84.3639  251.0625    7.4490   57.0000 
2556.9672    8.5000   -0.1984  109.6038    4.0593    0.2982    2.6743   86.1483  251.1875    8.3930   57.0000 
2557.1196    8.5000   -0.2103  116.1096    4.2016    0.3018    2.6717   85.1871  250.8125    8.5084   57.0000 
2557.2720    8.5000   -0.2222  109.0579    4.5860    0.2918    2.6742   82.6015  250.3125    8.2363   57.0000 
2557.4244    8.5000   -0.2222  100.8792    5.6234    0.2634    2.6815   77.6278  250.0625    7.4563   57.0000 
2557.5768    8.5000   -0.2579   91.7712    6.8234    0.2378    2.6812   74.5638  249.8125    6.5016   57.0000 
2557.7292    8.5000   -0.2698   90.8434    8.8291    0.2283    2.6693   74.0133  249.8125    5.8553   57.0000 
2557.8816    8.5000   -0.3174   93.2598    9.1675    0.2268    2.6512   75.5062  250.0000    5.5140   57.0000 
2558.0340    8.5000   -0.2936   96.7915    9.6999    0.2384    2.6478   75.9823  249.6875    5.9220   57.0000 
2558.1864    8.5000   -0.3174  101.2452    9.8402    0.2355    2.6592   75.3868  249.5000    6.1673   57.0000 
2558.3388    8.5000   -0.3055   99.5723   10.7257    0.2148    2.6681   71.3570  249.3125    5.4809   57.0000 
2558.4912    8.5000   -0.2936   86.0031   14.6376    0.1461    2.6651   64.3688  248.8125    3.1897   57.0000 
2558.6436    8.5000   -0.3412   65.7760   27.5145    0.0741    2.6661   60.3057  248.0625    0.8168   57.0000 
2558.7960    8.5000   -0.3174   41.7977   32.7702    0.0182    2.6783   56.5901  246.9375   -0.7223   25.0000 
2558.9484    8.5000   -0.3174   30.0873   27.1773    0.0054    2.6872   53.8627  246.6875   -1.0535   49.0000 
2559.1008    8.5000   -0.3412   23.4068   23.7826    0.0014    2.6832   53.3172  246.3750   -1.3909   49.0000 
2559.2532    8.5000   -0.3412   23.4068   22.4890    0.0005    2.6616   53.3503  246.9375   -1.8785   49.0000 
2559.4056    8.5000   -0.2936   22.9023   20.7771    0.0010    2.6465   52.8124  246.6250   -2.1243   49.0000 
2559.5580    8.5000   -0.2936   24.3425   18.4998    0.0034    2.6444   52.8400  246.2500   -1.9421   49.0000 
2559.7104    8.5000   -0.2936   29.8404   16.8214    0.0061    2.6599   54.7525  245.5000   -1.4347   49.0000 
2559.8628    8.5000   -0.1984   36.4789   15.6002    0.0161    2.6897   57.8623  244.8125   -0.4694   25.0000 
2560.0152    8.5000   -0.1984   41.4903   15.2735    0.0244    2.7044   58.8218  244.4375   -0.1192   54.0000 
2560.1676    8.5000   -0.1865   39.3553   17.3559    0.0233    2.6955   58.8174  244.5625   -0.3997   25.0000 
2560.3200    8.5000   -0.1746   34.3208   22.5517    0.0115    2.6776   57.8845  244.2500   -1.1998   49.0000 
2560.4724    8.5000   -0.2222   29.9055   23.3225    0.0087    2.6667   54.3467  243.9375   -1.3543   49.0000 
2560.6248    8.5000   -0.2936   35.4385   16.5065    0.0191    2.6728   53.7461  244.8750   -0.8864   25.0000 
2560.7772    8.5000   -0.2698   53.5304   11.5004    0.0758    2.6751   57.7511  245.5000    1.0400   57.0000 
2560.9296    8.5000   -0.2222   78.4017    8.6413    0.1364    2.6786   62.8525  244.4375    3.1549   57.0000 
2561.0820    8.5000   -0.2698  103.6392    6.6763    0.2044    2.6784   68.4383  243.1250    5.3198   57.0000 
2561.2344    8.5000   -0.2698  114.9946    5.2695    0.2337    2.6672   76.5190  242.2500    6.0677   57.0000 
2561.3868    8.5000   -0.2222  117.8843    4.7593    0.2510    2.6560   78.4507  241.8750    6.3897   57.0000 
2561.5392    8.5000   -0.2460  112.8739    4.6949    0.2440    2.6479   78.0749  242.0625    6.1138   57.0000 
2561.6916    8.5000   -0.2460  109.7108    4.9684    0.2428    2.6555   76.7282  242.4375    6.2676   57.0000 
2561.8440    8.5000   -0.1746  107.9345    5.2259    0.2235    2.6630   74.5279  243.0625    5.7241   57.0000 
2561.9964    8.5000   -0.1508  109.1097    5.4604    0.2226    2.6669   73.4559  243.0625    5.8018   57.0000 
2562.1488    8.5000   -0.1746  106.4479    5.3437    0.2268    2.6686   73.6357  243.0625    5.8963   57.0000 
2562.3012    8.5000   -0.1865  101.2520    5.2712    0.2380    2.6635   75.1815  243.0625    6.1866   57.0000 
2562.4536    8.5000   -0.2460  101.6237    5.2236    0.2328    2.6609   75.5856  242.5625    5.9646   57.0000 
2562.6060    8.5000   -0.2460   99.3932    5.1979    0.2246    2.6633   75.2724  242.5000    5.7990   57.0000 
2562.7584    8.5000   -0.2579  102.0213    5.3081    0.2250    2.6706   75.3356  242.8750    5.9765   57.0000 
2562.9108    8.5000   -0.2460   96.2485    5.2508    0.2303    2.6815   74.5331  243.0625    6.3451   57.0000 
2563.0632    8.5000   -0.2222  100.8955    5.2624    0.2172    2.6812   73.9266  243.1875    5.8410   57.0000 
2563.2156    8.5000   -0.1746  103.6489    5.5670    0.2194    2.6784   74.9815  243.5625    5.8377   57.0000 
