~VERSION INFORMATION
 VERS.                 2.0:   CWLS LOG ASCII STANDARD - VERSION 2.0
 WRAP.                  NO:   SINGLE LINE PER DEPTH STEP
 CREA.                 06/02/2020 16:07:36
#CREATED USING IP VERSION 4.5.2019.2902 BY RMOTA ON 06/02/2020 16:07:36
~WELL INFORMATION
#MNEM.UNIT       DATA                          DESCRIPTION MNEMONIC
#---------      ---------------------------   --------------------------
 STRT    .M         18.4404                   : START DEPTH
 STOP    .M         3544.2144                 : STOP DEPTH
 STEP    .M         0.1524                    : STEP VALUE
 NULL    .      -999.0000                     : NULL VALUE
 DATE    .      06/02/2020                    : LAS file Creation Date
 WELL   .      7-MP-25-BA         : Well Name
 COMP   .      PETROBRAS          : Company
 FLD    .      MASSAPE            : Field
 STATE  .      20240021268        : State
 COUNT  .      BRASIL             : Country
 API    .      20240021268        : API Number
 UWI    .                         : Unique Well Identifier (UWI)
 LOC    .      N= 8.607.478,570 m : Location
 TOWN   .      CTU                : Township
 SCT    .      OH WIRELINE        : Section
 RANG   .      SCHLUMBERGER       : Range
 PDAT   .      NM                 : Permanent Datum
 EPDAT  .      0                  : Elevation of Permanent Datum
 LGMEA  .      MR                 : Log Measured from
 DRMEA  .      MR                 : Drill Measured From
 APDAT  .      65.76              : Elevation Above Permanent Datum
 KB     .      66.06              : KB Elevation
 DF     .      65.76              : DF Elevation
 GL     .      56.36              : GL Elevation
 RWS    .      -999               : Def_Rw
 WST    .      -999               : Def_Rwt
 BHS    .      OPEN               : Completion Status
 PROV   .                         : Province
 MDEC   .      -23.10323          : Magnetic Declination
 SRVC   .                         : Contractor
 GDAT   .      WGS 84             : Geodatum
 LONG   .      -38.4344958333174  : Longitude
 LATI   .      -12.5959183332655  : Latitude
 COORDIN.                         : Grid System
 XCOORD .                         : X or East-West Coordinate
 YCOORD .                         : Y or North-South Coordinate
~CURVE INFORMATION
#MNEM              UNIT       API CODE   Curve Type Comments
#----------  --------------- ----------  ---------- -----------
 DEPTH      .M                         : Depth       
 BS         .in                        : BitSize     
 GR         .gAPI                      : GammaRay    
 CAL        .inch                      : Caliper     
 RT         .ohm.m                     : DeepRes     
 NPHI       .m3/m3                     : Neutron     
 RHOB       .g/cm3                     : Density     
 DT         .us/ft                     : Sonic       
 SP         .mV                        : SP          
 DRDN       .                          :             
 Lith_new   .                          :             
~A  DEPTH     BS        GR       CAL        RT       NPHI      RHOB       DT        SP       DRDN    Lith_new 
# ...
1053.0840   12.2500   93.3611   12.3468    6.7179    0.2962    2.5660   88.0494  960.8125    6.1943   57.0000 
1053.2364   12.2500   95.4602   12.3506    7.5415    0.2855    2.5621   86.1816  960.9375    5.7589   57.0000 
1053.3888   12.2500   88.5175   12.3506    8.1509    0.2801    2.5412   87.1725  960.6875    5.1602   57.0000 
1053.5412   12.2500   85.8734   12.3393    9.0204    0.2394    2.5339   85.0517  960.9375    3.6590   57.0000 
1053.6936   12.2500   78.2503   12.3393    9.6346    0.2078    2.5405   79.3023  960.8125    2.7385   57.0000 
1053.8460   12.2500   72.7846   12.3393   10.5542    0.1806    2.5532   77.3102  960.4375    2.0860   57.0000 
1053.9984   12.2500   76.9618   12.3393   13.2023    0.2080    2.5501   80.2309  960.8750    2.9340   57.0000 
1054.1508   12.2500   88.6713   12.3844   14.8273    0.2871    2.5297   88.1024  960.6875    5.1644   57.0000 
1054.3032   12.2500  100.1593   12.3957    9.8770    0.3524    2.5074   97.7805  961.0625    6.8947   57.0000 
1054.4556   12.2500  100.2094   12.4183    5.2929    0.3817    2.4933  105.2098  960.8125    7.5888   57.0000 
1054.6080   12.2500   92.5785   12.4295    4.3315    0.3720    2.4957  109.2343  960.8125    7.3145   57.0000 
1054.7604   12.2500   89.3836   12.4370    4.0871    0.3629    2.5030  109.4535  959.8750    7.1566   57.0000 
1054.9128   12.2500   89.5580   12.4408    3.7713    0.3520    2.5138  107.4853  960.3750    7.0106   57.0000 
1055.0652   12.2500   89.1362   12.4446    3.4271    0.3258    2.5201  105.1715  960.5625    6.2607   57.0000 
1055.2176   12.2500   86.6273   12.4408    3.4919    0.3114    2.5174  105.9810  960.1875    5.7275   57.0000 
1055.3700   12.2500   89.0006   12.4408    3.6759    0.3308    2.5151  104.7541  960.3750    6.3289   57.0000 
1055.5224   12.2500   89.3856   12.4521    3.4598    0.3401    2.5130  105.0895  959.4375    6.5964   57.0000 
1055.6748   12.2500   88.7696   12.4408    3.1113    0.3388    2.5294  102.7029  959.3750    6.8820   57.0000 
1055.8272   12.2500   83.3167   12.4521    3.3127    0.2837    2.5574   96.0985  960.5625    5.6039   57.0000 
1055.9796   12.2500   80.3423   12.3957    5.0412    0.2454    2.5860   89.9987  960.1250    4.9001   57.0000 
1056.1320   12.2500   78.4883   12.3957    7.0250    0.2375    2.5962   87.7975  960.7500    4.8407   57.0000 
1056.2844   12.2500   72.9596   12.3844    7.3711    0.2334    2.5849   84.1052  960.3750    4.4778   57.0000 
1056.4368   12.2500   70.8615   12.4295    7.9084    0.2315    2.5656   83.7850  959.3750    4.0307   57.0000 
1056.5892   12.2500   71.3106   12.4746    9.0030    0.2337    2.5490   84.8864  959.8125    3.7695   57.0000 
1056.7416   12.2500   72.1519   12.5197    9.4212    0.2588    2.5470   84.0636  960.1875    4.5647   57.0000 
1056.8940   12.2500   76.4181   12.5498    9.6304    0.2723    2.5553   86.3062  959.8750    5.1805   57.0000 
1057.0464   12.2500   78.1610   12.5761    9.7524    0.2690    2.5648   86.4531  960.1250    5.2616   57.0000 
1057.1988   12.2500   79.2954   12.5874    9.4420    0.2639    2.5685   86.6542  960.4375    5.1671   57.0000 
1057.3512   12.2500   77.6318   12.6212    9.0963    0.2725    2.5645   88.8685  960.5000    5.3738   57.0000 
1057.5036   12.2500   79.8177   12.6174    8.2894    0.3016    2.5669   88.5375  960.4375    6.3907   57.0000 
1057.6560   12.2500   81.3274   12.6212    7.7777    0.3000    2.5692   90.1214  960.2500    6.3844   57.0000 
1057.8084   12.2500   77.6914   12.6437    7.4295    0.2971    2.5650   91.4543  960.2500    6.2028   57.0000 
1057.9608   12.2500   74.3239   12.6550    7.3827    0.2678    2.5537   90.2874  960.5625    5.0012   57.0000 
1058.1132   12.2500   73.8431   12.6663    6.7153    0.2615    2.5367   92.3146  960.9375    4.4523   57.0000 
1058.2656   12.2500   75.2373   12.6625    6.0840    0.2785    2.5278   93.7700  961.2500    4.8378   57.0000 
1058.4180   12.2500   78.6048   12.6663    5.5260    0.2940    2.5076   96.2867  961.1250    4.9513   57.0000 
1058.5704   12.2500   80.5870   12.6550    5.1747    0.3123    2.4881  100.7886  960.2500    5.1721   57.0000 
1058.7228   12.2500   85.6357   12.6663    4.7698    0.3219    2.4656  103.9714  959.8750    5.0414   57.0000 
1058.8752   12.2500   89.3616   12.6625    4.1913    0.3333    2.4551  107.6072  960.0000    5.2119   57.0000 
1059.0276   12.2500   90.2639   12.6625    3.6626    0.3474    2.4558  107.2376  958.1250    5.6961   57.0000 
1059.1800   12.2500   92.2849   12.6625    3.4981    0.3474    2.4765  106.7420  956.7500    6.1095   57.0000 
1059.3324   12.2500   88.3801   12.6550    3.5502    0.3385    2.4986  103.1707  959.4375    6.2538   57.0000 
1059.4848   12.2500   88.4596   12.6437    3.8791    0.3451    2.5236   97.6972  958.6875    6.9770   57.0000 
1059.6372   12.2500   85.8370   12.6250    4.4436    0.3112    2.5408   93.4212  959.8750    6.1888   57.0000 
1059.7896   12.2500   85.5961   12.6099    5.2536    0.3002    2.5553   89.9582  959.4375    6.1116   57.0000 
1059.9420   12.2500   86.5983   12.6024    5.8117    0.2724    2.5507   92.3900  959.6250    5.0930   57.0000 
1060.0944   12.2500   87.6491   12.6024    5.7496    0.3257    2.5357   95.8966  960.5625    6.5699   57.0000 
1060.2468   12.2500   90.5929   12.5986    4.5363    0.3939    2.5136  100.4669  960.2500    8.4011   57.0000 
1060.3992   12.2500   94.5879   12.8354    3.4947    0.4080    2.4871  106.9338  961.3750    8.3416   57.0000 
1060.5516   12.2500   93.9592   12.3168    3.1925    0.4183    2.4616  110.2108  961.1250    8.1739   57.0000 
1060.7040   12.2500   93.3583   13.1624    3.0362    0.3916    2.4494  111.4234  960.9375    7.0429   57.0000 
1060.8564   12.2500   89.4834   12.5799    2.7114    0.3904    2.4725  113.2930  960.1250    7.4645   57.0000 
1061.0088   12.2500   89.4219   12.5084    2.5499    0.3848    2.4969  114.7834  960.5000    7.7658   57.0000 
1061.1612   12.2500   89.2471   12.5084    2.3179    0.3881    2.4910  116.4104  960.2500    7.7574   57.0000 
1061.3136   12.2500   94.6557   12.4972    2.1937    0.4030    2.4549  117.9283  961.1250    7.5322   57.0000 
1061.4660   12.2500   94.0547   13.1661    2.0958    0.3788    2.4231  118.2949  961.1250    6.0874   57.0000 
1061.6184   12.2500   95.6754   12.4370    2.3154    0.3740    2.4168  118.2228  960.9375    5.8028   57.0000 
1061.7708   12.2500   85.2188   12.3957    2.6763    0.3560    2.4368  108.5708  961.2500    5.6029   57.0000 
1061.9232   12.2500   85.1586   12.3732    3.2070    0.3432    2.4637  102.2803  961.5000    5.7143   57.0000 
1062.0756   12.2500   80.1070   12.3769    4.4010    0.2982    2.4832   98.3027  961.4375    4.6038   57.0000 
1062.2280   12.2500   85.2188   12.3844    8.2265    0.3291    2.4751   96.9575  961.0625    5.4710   57.0000 
1062.3804   12.2500   87.0819   12.3732    7.9945    0.3348    2.4419  101.9868  961.5625    4.9996   57.0000 
1062.5328   12.2500   90.4472   12.3844    6.4070    0.3846    2.4176  110.2480  961.5000    6.1715   57.0000 
1062.6852   12.2500   91.1046   12.4070    5.3229    0.3853    2.4164  107.4314  961.9375    6.1710   57.0000 
1062.8376   12.2500   88.6842   12.3844    4.5606    0.3918    2.4390  105.5466  961.2500    6.8406   57.0000 
1062.9900   12.2500   84.7751   12.3919    4.1980    0.3871    2.4673  109.2788  961.8750    7.2513   57.0000 
1063.1424   12.2500   83.8135   12.3844    4.2149    0.3783    2.4492  109.2837  961.8125    6.5933   57.0000 
1063.2948   12.2500   86.5945   12.3919    3.9340    0.3816    2.4247  113.3854  961.8750    6.2137   57.0000 
1063.4472   12.2500   86.8131   12.3769    3.6069    0.4009    2.3984  117.7855  962.3125    6.3298   57.0000 
1063.5996   12.2500   86.5728   12.3732    3.5132    0.3948    2.3968  117.6918  962.3125    6.0972   57.0000 
1063.7520   12.2500   88.4958   12.3619    3.5315    0.3912    2.3845  116.6708  962.7500    5.7311   57.0000 
1063.9044   12.2500   90.6861   12.3506    3.3042    0.3446    2.3706  118.1685  961.6250    3.8998   57.0000 
1064.0568   12.2500   92.1226   12.3243    3.1097    0.3593    2.3654  121.1497  961.9375    4.2848   57.0000 
