~VERSION INFORMATION
 VERS.                 2.0:   CWLS LOG ASCII STANDARD - VERSION 2.0
 WRAP.                  NO:   SINGLE LINE PER DEPTH STEP
 CREA.                 06/02/2020 16:35:30
#CREATED USING IP VERSION 4.5.2019.2902 BY RMOTA ON 06/02/2020 16:35:30
~WELL INFORMATION
#MNEM.UNIT       DATA                          DESCRIPTION MNEMONIC
#---------      ---------------------------   --------------------------
 STRT    .M         15.6972                   : START DEPTH
 STOP    .M         2951.2260                 : STOP DEPTH
 STEP    .M         0.1524                    : STEP VALUE
 NULL    .      -999.0000                     : NULL VALUE
 DATE    .      06/02/2020                    : LAS file Creation Date
 WELL   .      7-MP-36D-BA       : Well Name
 COMP   .      PETROBRAS         : Company
 FLD    .      MASSAPE           : Field
 STATE  .      20240022534       : State
 COUNT  .      BRASIL            : Country
 API    .      20240022534       : API Number
 UWI    .                        : Unique Well Identifier (UWI)
 LOC    .      N= 8607444.13 M   : Location
 PDAT   .      NM                : Permanent Datum
 EPDAT  .      0                 : Elevation of Permanent Datum
 LGMEA  .      MR                : Log Measured from
 DRMEA  .      MR                : Drill Measured From
 APDAT  .      65.81             : Elevation Above Permanent Datum
 KB     .      66.11             : KB Elevation
 DF     .      65.81             : DF Elevation
 GL     .      56.41             : GL Elevation
 RWS    .      -999              : Def_Rw
 WST    .      -999              : Def_Rwt
 BHS    .      OPEN              : Completion Status
 PROV   .                        : Province
 SRVC   .                        : Contractor
 GDAT   .      WGS 84            : Geodatum
 LONG   .      -38.4351329444514 : Longitude
 LATI   .      -12.5962309720781 : Latitude
 COORDIN.                        : Grid System
 XCOORD .                        : X or East-West Coordinate
 YCOORD .                        : Y or North-South Coordinate
~CURVE INFORMATION
#MNEM              UNIT       API CODE   Curve Type Comments
#----------  --------------- ----------  ---------- -----------
 DEPTH      .M                         : Depth       
 BS         .in                        : BitSize     Loaded from DLIS: 7-mp-36d-ba_raw-1.dlis
 DCAL       .in                        :             Loaded from DLIS: 7-mp-36d-ba_raw-1.dlis
 GR         .gAPI                      : GammaRay    Loaded from DLIS: 7-mp-36d-ba_raw-1.dlis
 RT         .ohm.m                     : DeepRes     Loaded from DLIS: 7-mp-36d-ba_raw-1.dlis
 NPHI       .m3/m3                     : Neutron     Loaded from DLIS: 7-mp-36d-ba_raw-1.dlis
 RHOB       .g/cm3                     : Density     Loaded from DLIS: 7-mp-36d-ba_raw-1.dlis
 DT         .us/ft                     : Sonic       Loaded from DLIS: 7-mp-36d-ba_raw-1.dlis
 SP         .mV                        : SP          Loaded from DLIS: 7-mp-36d-ba_raw-1.dlis
 DRDN       .                          :             
 Lith_new   .                          :             
~A  DEPTH     BS       DCAL       GR        RT       NPHI      RHOB       DT        SP       DRDN    Lith_new 
# ...
2351.9892    8.5000   -0.1271   48.9375    6.6075    0.1552    2.4708   76.4605  267.8125   -0.3495   25.0000 
2352.1416    8.5000   -0.1152   48.7516    6.7024    0.1527    2.4785   76.4533  267.4375   -0.2864   54.0000 
2352.2940    8.5000   -0.0914   55.6423    6.8779    0.1571    2.4883   76.0861  266.6250    0.0720   54.0000 
2352.4464    8.5000   -0.0795   52.8542    6.8135    0.1604    2.4933   75.5655  266.7500    0.2142   54.0000 
2352.5988    8.5000   -0.1033   52.8245    6.7074    0.1589    2.4932   74.9509  267.2500    0.1404   54.0000 
2352.7512    8.5000   -0.1389   48.8561    6.6855    0.1547    2.4885   74.3976  267.9375   -0.1033   54.0000 
2352.9036    8.5000   -0.1746   51.6405    6.5468    0.1576    2.4886   74.1378  269.1875    0.0632   54.0000 
2353.0560    8.5000   -0.1984   50.3965    6.5442    0.1638    2.4939   75.5384  269.5625    0.3575   57.0000 
2353.2084    8.5000   -0.1271   54.0826    6.2021    0.1606    2.4963   76.4529  269.6875    0.2880   54.0000 
2353.3608    8.5000   -0.0557   55.3876    6.1443    0.1556    2.4956   77.2085  269.8125    0.0938   54.0000 
2353.5132    8.5000   -0.0557   55.9176    6.2387    0.1613    2.4923   77.4097  270.0625    0.1729   54.0000 
2353.6656    8.5000   -0.0081   51.3974    6.3727    0.1574    2.4764   76.6686  270.1875   -0.3817   25.0000 
2353.8180    8.5000   -0.0200   47.1222    6.3926    0.1537    2.4544   75.6630  270.1875   -0.9347   25.0000 
2353.9704    8.5000   -0.0319   43.9391    6.3133    0.1432    2.4363   75.2691  269.7500   -1.5667   49.0000 
2354.1228    8.5000   -0.1271   43.4721    6.3691    0.1611    2.4312   73.9055  269.5625   -1.0150   49.0000 
2354.2752    8.5000   -0.1627   43.7278    6.3405    0.1768    2.4295   73.5275  268.8125   -0.5275   25.0000 
2354.4276    8.5000   -0.2103   44.8914    6.4235    0.1733    2.4276   73.6632  268.5000   -0.6899   25.0000 
2354.5800    8.5000   -0.2222   42.6438    6.3019    0.1526    2.4257   73.8021  268.1250   -1.4171   49.0000 
2354.7324    8.5000   -0.2460   42.5740    6.3366    0.1424    2.4179   75.7464  267.6875   -1.9730   49.0000 
2354.8848    8.5000   -0.2579   45.6785    6.0326    0.1627    2.4139   77.6951  267.0000   -1.2990   49.0000 
2355.0372    8.5000   -0.2222   56.4765    5.6327    0.1800    2.4124   78.1301  266.6875   -0.7472   25.0000 
2355.1896    8.5000   -0.1865   57.3816    5.2533    0.1881    2.4198   78.0675  266.5625   -0.2582   54.0000 
2355.3420    8.5000   -0.2222   53.5084    5.8992    0.1669    2.4274   77.0980  266.2500   -0.8421   25.0000 
2355.4944    8.5000   -0.2222   46.8168    6.6275    0.1550    2.4332   74.4632  266.3750   -1.1533   49.0000 
2355.6468    8.5000   -0.2341   46.0710    7.0754    0.1473    2.4330   74.3394  267.4375   -1.4522   49.0000 
2355.7992    8.5000   -0.1984   46.1932    7.0117    0.1529    2.4254   74.8864  268.6250   -1.4587   49.0000 
2355.9516    8.5000   -0.1746   47.2804    6.8976    0.1575    2.4224   74.9587  269.0625   -1.2752   49.0000 
2356.1040    8.5000   -0.1865   49.1955    6.9194    0.1568    2.4282   74.7741  269.4375   -1.1307   49.0000 
2356.2564    8.5000   -0.1627   60.2354    6.9183    0.1621    2.4524   73.9335  269.6875   -0.2901   54.0000 
2356.4088    8.5000   -0.2460   69.7433    7.0124    0.1709    2.4939   72.9351  269.3750    0.8790   57.0000 
2356.5612    8.5000   -0.2817   83.2305    6.9293    0.2118    2.5478   73.5753  269.1875    3.3951   57.0000 
2356.7136    8.5000   -0.2341   99.7643    6.9523    0.2364    2.5914   74.1430  268.6250    4.8958   57.0000 
2356.8660    8.5000   -0.2103  109.4936    6.8140    0.2548    2.6121   75.8140  268.1250    5.8031   57.0000 
2357.0184    8.5000   -0.2460  113.4492    6.7210    0.2291    2.6169   77.5245  267.6875    4.9846   57.0000 
2357.1708    8.5000   -0.2222  103.2259    6.8698    0.2239    2.6175   77.7499  267.3750    4.7989   57.0000 
2357.3232    8.5000   -0.2579   97.1642    7.0736    0.2066    2.6143   78.3028  267.3125    4.1283   57.0000 
2357.4756    8.5000   -0.2698   90.9261    7.2193    0.2173    2.6026   77.0315  266.9375    4.2085   57.0000 
2357.6280    8.5000   -0.3174   88.8320    7.1883    0.2194    2.5910   75.6377  266.7500    4.0401   57.0000 
2357.7804    8.5000   -0.2936   87.8151    7.2230    0.2237    2.5730   74.6177  266.1875    3.7986   57.0000 
2357.9328    8.5000   -0.2817   86.7573    7.4467    0.2231    2.5561   73.7490  265.5000    3.4331   57.0000 
2358.0852    8.5000   -0.2817   81.1242    7.6528    0.2068    2.5387   73.5358  265.1875    2.5656   57.0000 
2358.2376    8.5000   -0.2698   72.6770    8.0505    0.1860    2.5279   74.0925  266.3750    1.7290   57.0000 
2358.3900    8.5000   -0.2936   65.6603    7.9585    0.1563    2.5251   73.4221  267.5625    0.6874   57.0000 
2358.5424    8.5000   -0.2460   58.9334    7.8845    0.1437    2.5215   72.6581  268.6875    0.2133   54.0000 
2358.6948    8.5000   -0.2222   56.9230    7.8260    0.1458    2.5222   72.5221  268.8125    0.3122   57.0000 
2358.8472    8.5000   -0.2222   54.5066    7.6583    0.1511    2.5204   72.5248  268.8750    0.4069   57.0000 
2358.9996    8.5000   -0.2460   56.8458    7.5943    0.1483    2.5137   72.6900  268.8125    0.1794   54.0000 
2359.1520    8.5000   -0.2341   52.4836    7.4745    0.1503    2.5089   72.5107  269.0625    0.1401   54.0000 
2359.3044    8.5000   -0.2460   52.6383    7.3323    0.1477    2.5016   71.8341  269.1250   -0.0465   54.0000 
2359.4568    8.5000   -0.2222   52.3315    7.3034    0.1417    2.5034   71.8521  269.1250   -0.1977   54.0000 
2359.6092    8.5000   -0.2460   52.5803    7.1903    0.1348    2.5017   72.3559  269.5000   -0.4777   25.0000 
2359.7616    8.5000   -0.2341   51.8290    7.0559    0.1398    2.5077   72.5377  269.5625   -0.1586   54.0000 
2359.9140    8.5000   -0.2222   48.4244    6.9458    0.1529    2.5034   72.7782  269.8125    0.1050   54.0000 
2360.0664    8.5000   -0.1984   50.1214    6.8733    0.1561    2.4989   72.5432  269.8125    0.1771   54.0000 
2360.2188    8.5000   -0.1508   46.1204    6.8845    0.1652    2.4962   72.3942  270.1250    0.4092   57.0000 
2360.3712    8.5000   -0.1746   46.7045    6.9474    0.1678    2.4992   72.8886  270.4375    0.6507   57.0000 
2360.5236    8.5000   -0.1508   48.1916    7.0804    0.1794    2.5078   73.8833  270.5625    1.1157   57.0000 
2360.6760    8.5000   -0.1627   49.7892    7.2392    0.1726    2.4949   74.3689  270.5000    0.5457   57.0000 
2360.8284    8.5000   -0.1627   49.9821    7.1842    0.1649    2.4829   74.4539  270.1875    0.0831   54.0000 
2360.9808    8.5000   -0.1984   49.9527    7.2780    0.1533    2.4806   73.9771  270.3750   -0.1803   54.0000 
2361.1332    8.5000   -0.1984   54.8456    7.3758    0.1469    2.5019   73.0397  270.7500    0.0827   54.0000 
2361.2856    8.5000   -0.1984   58.7078    7.4751    0.1495    2.5184   72.8397  270.8125    0.3975   57.0000 
2361.4380    8.5000   -0.1984   59.6975    7.4865    0.1488    2.5139   73.2873  271.1250    0.1190   54.0000 
2361.5904    8.5000   -0.1746   57.5882    7.5225    0.1483    2.4939   73.5978  271.1875   -0.3134   25.0000 
2361.7428    8.5000   -0.1746   54.4625    7.7377    0.1460    2.4757   74.3200  271.1250   -0.6926   25.0000 
2361.8952    8.5000   -0.1508   53.5022    7.7605    0.1490    2.4689   74.4824  271.1250   -0.6508   25.0000 
2362.0476    8.5000   -0.1271   51.8355    7.7333    0.1530    2.4744   74.4090  270.9375   -0.3396   25.0000 
2362.2000    8.5000   -0.1271   51.6496    7.6301    0.1539    2.4876   74.4943  271.5625   -0.0325   54.0000 
2362.3524    8.5000   -0.1033   50.5069    7.4734    0.1437    2.4986   73.8893  271.8125   -0.2114   54.0000 
2362.5048    8.5000   -0.1033   49.7013    7.7806    0.1409    2.4991   73.5943  272.2500   -0.3191   25.0000 
2362.6572    8.5000   -0.1271   51.5283    8.0187    0.1440    2.5031   73.1520  272.4375   -0.0885   54.0000 
2362.8096    8.5000   -0.1033   58.2862    8.0436    0.1638    2.5133   72.4958  272.6250    0.8446   57.0000 
2362.9620    8.5000   -0.0676   66.4000    8.0756    0.1724    2.5350   72.1691  272.8125    1.5891   57.0000 
