~VERSION INFORMATION
 VERS.                 2.0:   CWLS LOG ASCII STANDARD - VERSION 2.0
 WRAP.                  NO:   SINGLE LINE PER DEPTH STEP
 CREA.                 30/01/2020 17:31:38
#CREATED USING IP VERSION 4.5.2019.2902 BY RMOTA ON 30/01/2020 17:31:38
~WELL INFORMATION
#MNEM.UNIT       DATA                          DESCRIPTION MNEMONIC
#---------      ---------------------------   --------------------------
 STRT    .M         5.9400                    : START DEPTH
 STOP    .M         3362.3976                 : STOP DEPTH
 STEP    .M         0.1524                    : STEP VALUE
 NULL    .      -999.0000                     : NULL VALUE
 DATE    .      30/01/2020                    : LAS file Creation Date
 WELL   .      7-MP-31D-BA        : Well Name
 COMP   .      PETROBRAS          : Company
 FLD    .      MASSAPE            : Field
 STATE  .      BAHIA              : State
 COUNT  .      BRASIL             : Country
 API    .      20240021426        : API Number
 UWI    .                         : Unique Well Identifier (UWI)
 LOC    .      N= 8.608.492,720 m : Location
 TOWN   .      CATU               : Township
 SCT    .      OH WIRELINE        : Section
 RANG   .      SCHLUMBERGER       : Range
 PDAT   .      NM                 : Permanent Datum
 EPDAT  .      0                  : Elevation of Permanent Datum
 LGMEA  .      MR                 : Log Measured from
 DRMEA  .      MR                 : Drill Measured From
 APDAT  .      66.4               : Elevation Above Permanent Datum
 KB     .      66.7               : KB Elevation
 DF     .      66.4               : DF Elevation
 GL     .      57                 : GL Elevation
 RWS    .      -999               : Def_Rw
 WST    .      -999               : Def_Rwt
 BHS    .      OPEN               : Completion Status
 PROV   .                         : Province
 SRVC   .                         : Contractor
 GDAT   .      WGS 84             : Geodatum
 LONG   .      -38.4314536115858  : Longitude
 LATI   .      -12.5867413889037  : Latitude
 COORDIN.                         : Grid System
 XCOORD .                         : X or East-West Coordinate
 YCOORD .                         : Y or North-South Coordinate
~CURVE INFORMATION
#MNEM              UNIT       API CODE   Curve Type Comments
#----------  --------------- ----------  ---------- -----------
 DEPTH      .M                         : Depth       
 CALI       .inch                      : Caliper     
 BS         .in                        : BitSize     
 GR         .gAPI                      : GammaRay    
 RT         .ohm.m                     : DeepRes     
 NPHI       .m3/m3                     : Neutron     
 RHOB       .g/cm3                     :             
 DT         .us/ft                     : Sonic       
 SP         .mV                        : SP          
 N_Res      .                          :             
 Res        .                          :             
 DRDN       .                          :             
 Lith_new   .                          :             
 DEPTH      .M                         : Depth       
~A  DEPTH    CALI       BS        GR        RT       NPHI      RHOB       DT        SP      N_Res      Res       DRDN    Lith_new   DEPTH   
# ...
1708.5528   12.9157   12.2500   60.3386    1.8448    0.2757    2.7995  222.2482  615.4330 -999.0000 -999.0000   10.0664   57.0000 1708.5528 
1708.7052   12.9657   12.2500   55.9688    1.7956    0.3066    2.7841  220.3450  615.1324 -999.0000 -999.0000   10.7878   57.0000 1708.7052 
1708.8576   13.0657   12.2500   60.3524    1.7517    0.3260    2.7668  221.2412  613.7825 -999.0000 -999.0000   11.1241   57.0000 1708.8576 
1709.0100   13.1668   12.2500   61.8478    1.6517    0.3376    2.7672  217.9475  613.2618 -999.0000 -999.0000   11.6545   57.0000 1709.0100 
1709.1624   13.1445   12.2500   65.8498    1.5682    0.3572    2.7789  229.2045  613.3110 -999.0000 -999.0000   12.6078   57.0000 1709.1624 
1709.3148   13.0452   12.2500   60.7627    1.6030    0.3710    2.7885  277.0572  612.7633 -999.0000 -999.0000   13.0883   57.0000 1709.3148 
1709.4672   12.9563   12.2500   59.2912    1.6624    0.3627    2.7763  278.1722  612.7500 -999.0000 -999.0000   12.5550   57.0000 1709.4672 
1709.6196   12.8678   12.2500   66.8458    1.5934    0.3286    2.7740  278.0760  612.9941 -999.0000 -999.0000   11.4718   57.0000 1709.6196 
1709.7720   12.8287   12.2500   63.7937    1.4683    0.3201    2.7879  272.3407  613.0610 -999.0000 -999.0000   11.5759   57.0000 1709.7720 
1709.9244   12.8402   12.2500   64.1371    1.4112    0.3171    2.8031  270.0028  613.3066 -999.0000 -999.0000   11.6497   57.0000 1709.9244 
1710.0768   12.8158   12.2500   63.9162    1.4191    0.3405    2.7993  267.7916  612.7633 -999.0000 -999.0000   12.2716   57.0000 1710.0768 
1710.2292   12.8399   12.2500   68.1162    1.4781    0.3517    2.7931  264.1934  612.8110 -999.0000 -999.0000   12.5686   57.0000 1710.2292 
1710.3816   12.8651   12.2500   68.7227    1.5266    0.3682    2.7983  265.3377  612.9955 -999.0000 -999.0000   13.3449   57.0000 1710.3816 
1710.5340   12.8781   12.2500   62.7259    1.5572    0.3548    2.8131  268.7522  612.5728 -999.0000 -999.0000   13.1416   57.0000 1710.5340 
1710.6864   12.8907   12.2500   61.8417    1.6203    0.3388    2.8085  265.2738  612.5625 -999.0000 -999.0000   12.3633   57.0000 1710.6864 
1710.8388   12.8910   12.2500   60.8568    1.7369    0.3268    2.7965  272.4862  612.5625 -999.0000 -999.0000   11.7603   57.0000 1710.8388 
1710.9912   12.9157   12.2500   61.2956    1.8866    0.3363    2.7873  277.7908  612.6235 -999.0000 -999.0000   11.8949   57.0000 1710.9912 
1711.1436   12.9163   12.2500   61.8141    2.0057    0.3377    2.7873  278.4309  611.9537 -999.0000 -999.0000   12.1017   57.0000 1711.1436 
1711.2960   12.7929   12.2500   57.4352    2.0935    0.3259    2.8067  278.9053  612.1205 -999.0000 -999.0000   12.1326   57.0000 1711.2960 
1711.4484   12.8393   12.2500   54.5932    2.1311    0.2950    2.8203  275.2754  612.2471 -999.0000 -999.0000   11.3047   57.0000 1711.4484 
1711.6008   12.7170   12.2500   51.7086    2.1513    0.3257    2.8319  270.3887  612.3721 -999.0000 -999.0000   12.5606   57.0000 1711.6008 
1711.7532   12.7140   12.2500   56.0316    2.1881    0.3187    2.8332  270.0424  612.5580 -999.0000 -999.0000   12.2449   57.0000 1711.7532 
1711.9056   12.6893   12.2500   56.1002    2.1783    0.3321    2.8405  267.7566  612.7455 -999.0000 -999.0000   13.0592   57.0000 1711.9056 
1712.0580   12.6640   12.2500   55.2119    2.1207    0.3151    2.8688  219.6500  612.7500 -999.0000 -999.0000   13.0287   57.0000 1712.0580 
1712.2104   12.7251   12.2500   50.7993    2.0682    0.3387    2.8874  227.0804  612.2618 -999.0000 -999.0000   14.1474   57.0000 1712.2104 
1712.3628   12.6896   12.2500   53.9732    2.0863    0.3465    2.8914  226.1600  612.2500 -999.0000 -999.0000   14.2963   57.0000 1712.3628 
1712.5152   12.6270   12.2500   57.2511    2.1236    0.3287    2.8847  250.6546  611.8839 -999.0000 -999.0000   13.6779   57.0000 1712.5152 
1712.6676   12.6872   12.2500   58.0218    2.1680    0.3088    2.8889  275.4391  612.3022 -999.0000 -999.0000   13.0291   57.0000 1712.6676 
1712.8200   12.7875   12.2500   58.4562    2.2423    0.2830    2.8824  272.5568  612.1295 -999.0000 -999.0000   12.0797   57.0000 1712.8200 
1712.9724   12.8393   12.2500   55.2307    2.2270    0.2918    2.8856  273.8909  612.7352 -999.0000 -999.0000   12.4566   57.0000 1712.9724 
1713.1248   12.9022   12.2500   62.1334    2.1714    0.3000    2.8823  266.9690  612.8110 -999.0000 -999.0000   12.6503   57.0000 1713.1248 
1713.2772   12.9037   12.2500   63.0427    2.1099    0.3265    2.8924  263.0143  612.9346 -999.0000 -999.0000   13.8133   57.0000 1713.2772 
1713.4296   12.9407   12.2500   66.7584    2.0683    0.3037    2.8862  263.7110  613.0596 -999.0000 -999.0000   12.6921   57.0000 1713.4296 
1713.5820   12.9416   12.2500   65.6448    2.0780    0.2817    2.8692  262.6755  613.2455 -999.0000 -999.0000   11.6903   57.0000 1713.5820 
1713.7344   13.0651   12.2500   65.3376    2.0656    0.2562    2.8513  269.4430  613.3721 -999.0000 -999.0000   10.4046   57.0000 1713.7344 
1713.8868   13.0434   12.2500   65.3308    1.9851    0.2545    2.8345  262.2379  613.6191 -999.0000 -999.0000   10.1201   57.0000 1713.8868 
1714.0392   13.0428   12.2500   63.2914    1.9104    0.2576    2.8275  257.7292  614.6624 -999.0000 -999.0000   10.0879   57.0000 1714.0392 
1714.1916   13.0922   12.2500   59.8589    1.8524    0.2500    2.8175  257.6588  614.8705 -999.0000 -999.0000    9.5946   57.0000 1714.1916 
1714.3440   13.2415   12.2500   58.7980    1.7998    0.2860    2.7947  260.1516  615.6683 -999.0000 -999.0000   10.2104   57.0000 1714.3440 
1714.4964   13.3192   12.2500   55.9259    1.7529    0.3404    2.7703  278.4828  615.6875 -999.0000 -999.0000   11.6671   57.0000 1714.4964 
1714.6488   13.3704   12.2500   56.9706    1.7152    0.3747    2.7559  260.8813  615.8705 -999.0000 -999.0000   12.5123   57.0000 1714.6488 
1714.8012   13.4086   12.2500   53.3542    1.6715    0.3849    2.7507  259.0213  616.0580 -999.0000 -999.0000   12.8586   57.0000 1714.8012 
1714.9536   12.8786   12.2500   51.6789    1.6136    0.3632    2.7457  265.4736  616.4897 -999.0000 -999.0000   11.9767   57.0000 1714.9536 
1715.1060   12.8904   12.2500   53.9566    1.5927    0.3831    2.7477  260.9942  617.2323 -999.0000 -999.0000   12.7542   57.0000 1715.1060 
1715.2584   12.9404   12.2500   54.7426    1.5789    0.3523    2.7455  232.6206  617.4941 -999.0000 -999.0000   11.6511   57.0000 1715.2584 
1715.4108   12.9910   12.2500   61.9287    1.5342    0.3814    2.7548  247.4106  617.9272 -999.0000 -999.0000   12.9426   57.0000 1715.4108 
1715.5632   12.8934   12.2500   59.9755    1.4996    0.3446    2.8036  247.5546  618.1205 -999.0000 -999.0000   13.2421   57.0000 1715.5632 
1715.7156   12.8169   12.2500   55.4963    1.4746    0.3706    2.9193  231.2790  618.2471 -999.0000 -999.0000   16.4771   57.0000 1715.7156 
1715.8680   12.6793   12.2500   48.4557    1.4470    0.3452    3.0307  220.6026  618.5551 -999.0000 -999.0000   17.8527   57.0000 1715.8680 
1716.0204   12.8736   12.2500   45.5507    1.3982    0.3902    3.0802  231.5433  618.4404 -999.0000 -999.0000   19.3420   57.0000 1716.0204 
1716.1728   12.8907   12.2500   50.0359    1.3965    0.3616    3.0149  232.9073  619.1088 -999.0000 -999.0000   16.8427   57.0000 1716.1728 
1716.3252   12.9404   12.2500   54.7683    1.4091    0.3687    2.9268  231.5981  619.3691 -999.0000 -999.0000   15.1056   57.0000 1716.3252 
1716.4776   12.9663   12.2500   59.6974    1.4290    0.3579    2.8354  251.7060  619.2529 -999.0000 -999.0000   13.2237   57.0000 1716.4776 
1716.6300   12.9422   12.2500   65.4806    1.4514    0.3794    2.7938  225.3346  618.7008 -999.0000 -999.0000   13.3931   57.0000 1716.6300 
1716.7824   13.0404   12.2500   61.9535    1.4341    0.3674    2.7884  221.8598  618.3214 -999.0000 -999.0000   13.0856   57.0000 1716.7824 
1716.9348   13.0181   12.2500   61.8649    1.4154    0.3659    2.8078  219.1217  618.1904 -999.0000 -999.0000   13.5318   57.0000 1716.9348 
1717.0872   13.0545   12.2500   58.8114    1.4310    0.3456    2.8261  206.5557  617.9434 -999.0000 -999.0000   13.0721   57.0000 1717.0872 
