~VERSION INFORMATION
 VERS.                 2.0:   CWLS LOG ASCII STANDARD - VERSION 2.0
 WRAP.                  NO:   SINGLE LINE PER DEPTH STEP
 CREA.                 06/02/2020 16:08:49
#CREATED USING IP VERSION 4.5.2019.2902 BY RMOTA ON 06/02/2020 16:08:49
~WELL INFORMATION
#MNEM.UNIT       DATA                          DESCRIPTION MNEMONIC
#---------      ---------------------------   --------------------------
 STRT    .M         -0.4572                   : START DEPTH
 STOP    .M         3564.6360                 : STOP DEPTH
 STEP    .M         0.1524                    : STEP VALUE
 NULL    .      -999.0000                     : NULL VALUE
 DATE    .      06/02/2020                    : LAS file Creation Date
 WELL   .      7-MP-28D-BA        : Well Name
 COMP   .      PETROBRAS          : Company
 FLD    .      MASSAPE            : Field
 STATE  .      BAHIA              : State
 COUNT  .      BRASIL             : Country
 API    .      20240021354        : API Number
 UWI    .                         : Unique Well Identifier (UWI)
 LOC    .      N= 8.609.866,070 m : Location
 TOWN   .      CATU               : Township
 SCT    .      OH WIRELINE        : Section
 RANG   .      SCHLUMBERGER       : Range
 PDAT   .      NM                 : Permanent Datum
 EPDAT  .      0                  : Elevation of Permanent Datum
 LGMEA  .      MR                 : Log Measured from
 DRMEA  .      MR                 : Drill Measured From
 APDAT  .      105.72             : Elevation Above Permanent Datum
 KB     .      106.02             : KB Elevation
 DF     .      105.72             : DF Elevation
 GL     .      96.31999           : GL Elevation
 RWS    .      -999               : Def_Rw
 WST    .      -999               : Def_Rwt
 BHS    .      OPEN               : Completion Status
 PROV   .                         : Province
 SRVC   .                         : Contractor
 GDAT   .      WGS 84             : Geodatum
 LONG   .      -38.4270011107127  : Longitude
 LATI   .      -12.5743130556742  : Latitude
 COORDIN.                         : Grid System
 XCOORD .                         : X or East-West Coordinate
 YCOORD .                         : Y or North-South Coordinate
~CURVE INFORMATION
#MNEM              UNIT       API CODE   Curve Type Comments
#----------  --------------- ----------  ---------- -----------
 DEPTH      .M                         : Depth       
 BS         .in                        : BitSize     
 GR         .gAPI                      : GammaRay    
 CAL        .in                        : Caliper     
 RT         .ohm.m                     : DeepRes     
 NPHI       .m3/m3                     : Neutron     
 RHOB       .g/cm3                     :             
 DT         .us/ft                     : Sonic       
 SP         .mV                        : SP          Loaded from DLIS: 7-mp-28d-ba_raw-2p.dlis
 DRDN       .                          :             
 Lith_new   .                          :             
~A  DEPTH     BS        GR       CAL        RT       NPHI      RHOB       DT        SP       DRDN    Lith_new 
# ...
3548.4816    8.5000  125.6342    8.1501   11.4950    0.2361    2.5444   73.7125 -999.0000    3.6945   57.0000 
3548.6340    8.5000  125.6342    8.1387   10.6863    0.2379    2.5387   72.8649 -999.0000    3.7050   57.0000 
3548.7864    8.5000  125.6342    8.1501   10.8299    0.2419    2.5428   72.9168 -999.0000    3.9810   57.0000 
3548.9388    8.5000  125.6342    8.1614   11.3598    0.2374    2.5531   72.3389 -999.0000    4.0494   57.0000 
3549.0912    8.5000  125.6342    8.1539   11.8060    0.2363    2.5613   69.6068 -999.0000    4.1414   57.0000 
3549.2436    8.5000  125.6342    8.1463   12.3526    0.2351    2.5670   70.4732 -999.0000    4.2236   57.0000 
3549.3960    8.5000  125.6342    8.1614   13.5228 -999.0000    2.5738   69.2344 -999.0000 -999.0000 -999.0000 
3549.5484    8.5000  125.6342    8.1501   15.5205 -999.0000    2.5780   71.1569 -999.0000 -999.0000 -999.0000 
3549.7008    8.5000  125.6342    8.1539   16.1871 -999.0000    2.5763   74.3868 -999.0000 -999.0000 -999.0000 
3549.8532    8.5000  125.6342    8.1539   14.0196 -999.0000    2.5695   74.4079 -999.0000 -999.0000 -999.0000 
3550.0056    8.5000  125.6342    8.1539   12.7300 -999.0000    2.5611   74.8227 -999.0000 -999.0000 -999.0000 
3550.1580    8.5000  125.6342    8.1387   12.4969 -999.0000    2.5532   75.5343 -999.0000 -999.0000 -999.0000 
3550.3104    8.5000  125.6342    8.1387   12.2665 -999.0000    2.5450   75.4664 -999.0000 -999.0000 -999.0000 
3550.4628    8.5000  125.6342    8.1311   12.9649 -999.0000    2.5413   75.4569 -999.0000 -999.0000 -999.0000 
3550.6152    8.5000  125.6342    8.1160   11.4098 -999.0000    2.5412   75.4376 -999.0000 -999.0000 -999.0000 
3550.7676    8.5000  125.6342    8.1274   10.8674 -999.0000    2.5444   75.4386 -999.0000 -999.0000 -999.0000 
3550.9200    8.5000  125.6342    8.1311   10.6439 -999.0000    2.5461   75.4171 -999.0000 -999.0000 -999.0000 
3551.0724    8.5000  125.6342    8.1236    9.4997 -999.0000    2.5449   75.4175 -999.0000 -999.0000 -999.0000 
3551.2248    8.5000  125.6342    8.1236    8.8513 -999.0000    2.5455   75.4288 -999.0000 -999.0000 -999.0000 
3551.3772    8.5000  125.6342    8.1236    8.3187 -999.0000    2.5458   75.4171 -999.0000 -999.0000 -999.0000 
3551.5296    8.5000  125.6342    8.1236    7.8820 -999.0000    2.5472   75.4182 -999.0000 -999.0000 -999.0000 
3551.6820    8.5000  125.6342    8.1160    7.4734 -999.0000    2.5440   75.4193 -999.0000 -999.0000 -999.0000 
3551.8344    8.5000  125.6342    8.1311    7.8831 -999.0000    2.5408   75.3956 -999.0000 -999.0000 -999.0000 
3551.9868    8.5000  125.6342    8.1160    8.9231 -999.0000    2.5395   75.3997 -999.0000 -999.0000 -999.0000 
3552.1392    8.5000  125.6342    8.1103    9.5026 -999.0000    2.5358   75.4043 -999.0000 -999.0000 -999.0000 
3552.2916    8.5000  125.6342    8.1009   10.3163 -999.0000    2.5325   75.4088 -999.0000 -999.0000 -999.0000 
3552.4440    8.5000  125.6342    8.1217   10.9435 -999.0000    2.5308   75.4033 -999.0000 -999.0000 -999.0000 
3552.5964    8.5000  125.6342    8.1103   13.7874 -999.0000    2.5344   75.4100 -999.0000 -999.0000 -999.0000 
3552.7488    8.5000  125.6342    8.1103   15.4004 -999.0000    2.5343   75.4066 -999.0000 -999.0000 -999.0000 
3552.9012    8.5000  125.6342    8.0876   14.6663 -999.0000    2.5249   75.3950 -999.0000 -999.0000 -999.0000 
3553.0536    8.5000  125.6342    8.0842   11.0867 -999.0000    2.5118   75.4067 -999.0000 -999.0000 -999.0000 
3553.2060    8.5000  125.6342    8.0803    9.1898 -999.0000    2.5043   75.4113 -999.0000 -999.0000 -999.0000 
3553.3584    8.5000  125.6342    3.7320    8.0243 -999.0000    2.5028   75.4093 -999.0000 -999.0000 -999.0000 
3553.5108    8.5000  125.6342    3.7320    7.5158 -999.0000    2.5041   75.4027 -999.0000 -999.0000 -999.0000 
3553.6632    8.5000  125.6342    3.7320    6.5701 -999.0000    2.5041   75.4124 -999.0000 -999.0000 -999.0000 
3553.8156    8.5000  125.6342    3.7320    6.4339 -999.0000    2.5041   75.4089 -999.0000 -999.0000 -999.0000 
3553.9680    8.5000  125.6342    3.7320    6.6015 -999.0000    2.5041   75.4072 -999.0000 -999.0000 -999.0000 
3554.1204    8.5000  125.6342    3.7320    6.7586 -999.0000    2.5041   75.3944 -999.0000 -999.0000 -999.0000 
3554.2728    8.5000  125.6342    3.7320    7.0414 -999.0000    2.5041   75.4060 -999.0000 -999.0000 -999.0000 
3554.4252    8.5000  125.6342    3.7320    7.4217 -999.0000    2.5041   75.4057 -999.0000 -999.0000 -999.0000 
3554.5776    8.5000  125.6342    3.7320    7.7230 -999.0000    2.5041   75.4009 -999.0000 -999.0000 -999.0000 
3554.7300    8.5000  125.6342    3.7320    8.0360 -999.0000    2.5041   75.4079 -999.0000 -999.0000 -999.0000 
3554.8824    8.5000  125.6342    3.7320    8.3973 -999.0000    2.5041   75.4045 -999.0000 -999.0000 -999.0000 
3555.0348    8.5000  125.6342    3.7320    9.3281 -999.0000    2.5041   75.3908 -999.0000 -999.0000 -999.0000 
3555.1872    8.5000  125.6342    3.7320   10.2783 -999.0000    2.5041   75.3976 -999.0000 -999.0000 -999.0000 
3555.3396    8.5000  125.6342    3.7320   10.9510 -999.0000    2.5041   75.4037 -999.0000 -999.0000 -999.0000 
3555.4920    8.5000  125.6342    3.7320   11.2292 -999.0000    2.5041   75.4017 -999.0000 -999.0000 -999.0000 
3555.6444    8.5000  125.6342    3.7320   11.1771 -999.0000    2.5041   75.4004 -999.0000 -999.0000 -999.0000 
3555.7968    8.5000  125.6342    3.7320   10.6804 -999.0000    2.5041   75.4015 -999.0000 -999.0000 -999.0000 
3555.9492    8.5000  125.6342    3.7320   10.3841 -999.0000    2.5041   75.3902 -999.0000 -999.0000 -999.0000 
3556.1016    8.5000  125.6342    3.7320   10.0887 -999.0000    2.5041   75.3967 -999.0000 -999.0000 -999.0000 
3556.2540    8.5000  125.6342    3.7320    9.8805 -999.0000    2.5041   75.4016 -999.0000 -999.0000 -999.0000 
3556.4064    8.5000  125.6342    3.7320    9.7748 -999.0000    2.5041   75.3969 -999.0000 -999.0000 -999.0000 
3556.5588    8.5000  125.6342    3.7320    9.7765 -999.0000    2.5041   75.3996 -999.0000 -999.0000 -999.0000 
3556.7112    8.5000  125.6342    3.7320    9.7656 -999.0000    2.5041   75.4053 -999.0000 -999.0000 -999.0000 
3556.8636    8.5000  125.6342    3.7320    9.7233 -999.0000    2.5041   75.4008 -999.0000 -999.0000 -999.0000 
3557.0160    8.5000  125.6342    3.7320    9.7224 -999.0000    2.5041   75.3954 -999.0000 -999.0000 -999.0000 
3557.1684    8.5000  125.6342    3.7320    9.7221 -999.0000    2.5041   75.3978 -999.0000 -999.0000 -999.0000 
3557.3208    8.5000  125.6342    3.7320    9.7084 -999.0000    2.5041   75.4071 -999.0000 -999.0000 -999.0000 
3557.4732    8.5000  125.6342    3.7320    9.6662 -999.0000    2.5041   75.4039 -999.0000 -999.0000 -999.0000 
3557.6256    8.5000  125.6342    3.7320    9.6779 -999.0000    2.5041   75.4116 -999.0000 -999.0000 -999.0000 
3557.7780    8.5000  125.6342    3.7320    9.6853 -999.0000    2.5041   75.4001 -999.0000 -999.0000 -999.0000 
3557.9304    8.5000  125.6342    3.7320    9.6898 -999.0000    2.5041   75.4018 -999.0000 -999.0000 -999.0000 
3558.0828    8.5000  125.6342    3.7320    9.6972 -999.0000    2.5041   75.3976 -999.0000 -999.0000 -999.0000 
3558.2352    8.5000  125.6342    3.7320    9.6930 -999.0000    2.5041   75.3918 -999.0000 -999.0000 -999.0000 
3558.3876    8.5000  125.6342    3.7320    9.6944 -999.0000    2.5041   75.3966 -999.0000 -999.0000 -999.0000 
3558.5400    8.5000  125.6342    3.7320    9.7286 -999.0000    2.5041   75.3962 -999.0000 -999.0000 -999.0000 
3558.6924    8.5000  125.6342    3.7320    9.7062 -999.0000    2.5041   75.3983 -999.0000 -999.0000 -999.0000 
3558.8448    8.5000  125.6342    3.7320    9.7532 -999.0000    2.5041   75.4013 -999.0000 -999.0000 -999.0000 
3558.9972    8.5000  125.6342    3.7320    9.7450 -999.0000    2.5041   75.3969 -999.0000 -999.0000 -999.0000 
3559.1496    8.5000  125.6342    3.7320    9.7352 -999.0000    2.5041   75.3910 -999.0000 -999.0000 -999.0000 
3559.3020    8.5000  125.6342    3.7320    9.7198 -999.0000    2.5041   75.3956 -999.0000 -999.0000 -999.0000 
3559.4544    8.5000  125.6342    3.7320    9.7083 -999.0000    2.5041   75.3921 -999.0000 -999.0000 -999.0000 
