~VERSION INFORMATION
 VERS.                 2.0:   CWLS LOG ASCII STANDARD - VERSION 2.0
 WRAP.                  NO:   SINGLE LINE PER DEPTH STEP
 CREA.                 06/02/2020 16:44:49
#CREATED USING IP VERSION 4.5.2019.2902 BY RMOTA ON 06/02/2020 16:44:49
~WELL INFORMATION
#MNEM.UNIT       DATA                          DESCRIPTION MNEMONIC
#---------      ---------------------------   --------------------------
 STRT    .M         1550.0001                 : START DEPTH
 STOP    .M         2926.1001                 : STOP DEPTH
 STEP    .M         0.1000                    : STEP VALUE
 NULL    .      -999.0000                     : NULL VALUE
 DATE    .      06/02/2020                    : LAS file Creation Date
 WELL   .      7-MP-47DP-BA    : Well Name
 COMP   .      PETROBRAS       : Company
 FLD    .      MASSAPE         : Field
 STATE  .      BAHIA           : State
 API    .      20240025025     : API Number
 UWI    .                      : Unique Well Identifier (UWI)
 LOC    .      20240025025     : Location
 PDAT   .      NM              : Permanent Datum
 EPDAT  .      0.0             : Elevation of Permanent Datum
 LGMEA  .      MR              : Log Measured from
 DRMEA  .      MR              : Drill Measured From
 APDAT  .      65.68           : Elevation Above Permanent Datum
 KB     .      -999.25         : KB Elevation
 DF     .      65.68           : DF Elevation
 GL     .      56.28           : GL Elevation
 RWS    .      -999            : Def_Rw
 WST    .      -999            : Def_Rwt
 PROV   .                      : Province
 SRVC   .                      : Contractor
 GDAT   .      WGS 84          : Geodatum
 LONG   .      -38.435024444394: Longitude
 LATI   .      0               : Latitude
 COORDIN.                      : Grid System
 XCOORD .                      : X or East-West Coordinate
 YCOORD .                      : Y or North-South Coordinate
~CURVE INFORMATION
#MNEM              UNIT       API CODE   Curve Type Comments
#----------  --------------- ----------  ---------- -----------
 DEPTH      .M                         : Depth       
 BS         .in                        : BitSize     
 CAL        .in                        : Caliper     
 GR         .api                       : GammaRay    
 ILD        .ohmm                      : DeepRes     
 NPHI       .decp                      : Neutron     
 RHOB       .g/cc                      : Density     
 DT         .uspf                      : Sonic       
 DRDN       .                          :             
 Lith_new   .                          :             
~A  DEPTH     BS       CAL        GR       ILD       NPHI      RHOB       DT       DRDN    Lith_new 
# ...
1806.0001    8.5000   11.7006   92.2811    1.7702 -999.0000 -999.0000   98.2545 -999.0000 -999.0000 
1806.1001    8.5000   11.6630   89.4348    1.8000 -999.0000 -999.0000   98.2041 -999.0000 -999.0000 
1806.2001    8.5000   11.5869   87.4941    1.8314 -999.0000 -999.0000   97.5590 -999.0000 -999.0000 
1806.3001    8.5000   11.4839   87.8391    1.8889 -999.0000 -999.0000   97.3478 -999.0000 -999.0000 
1806.4001    8.5000   11.4018   91.1167    1.9178 -999.0000 -999.0000   95.9196 -999.0000 -999.0000 
1806.5001    8.5000   11.3224   91.0544    1.9424 -999.0000 -999.0000   94.9083 -999.0000 -999.0000 
1806.6001    8.5000   11.2566   91.0640    1.9758 -999.0000 -999.0000   93.6633 -999.0000 -999.0000 
1806.7001    8.5000   11.1908   92.7603    2.0385 -999.0000 -999.0000   92.2812 -999.0000 -999.0000 
1806.8001    8.5000   11.1699   93.5222    2.0743 -999.0000 -999.0000   91.7163 -999.0000 -999.0000 
1806.9001    8.5000   11.1824   92.6549    2.1049 -999.0000 -999.0000   91.2665 -999.0000 -999.0000 
1807.0001    8.5000   11.2178   90.2398    2.1740 -999.0000 -999.0000   90.7290 -999.0000 -999.0000 
1807.1001    8.5000   11.2539   90.8340    2.2093 -999.0000 -999.0000   90.4439 -999.0000 -999.0000 
1807.2001    8.5000   11.3189   92.4201    2.2466 -999.0000 -999.0000   90.0417 -999.0000 -999.0000 
1807.3001    8.5000   11.4657   93.7234    2.3531 -999.0000 -999.0000   88.6338 -999.0000 -999.0000 
1807.4001    8.5000   11.5565   93.0717    2.4234 -999.0000 -999.0000   88.0417 -999.0000 -999.0000 
1807.5001    8.5000   11.5926   91.7109    2.4934 -999.0000 -999.0000   87.3857 -999.0000 -999.0000 
1807.6001    8.5000   11.5793   90.4267    2.5720 -999.0000 -999.0000   86.9890 -999.0000 -999.0000 
1807.7001    8.5000   11.5067   90.7477    2.5666 -999.0000 -999.0000   87.1421 -999.0000 -999.0000 
1807.8001    8.5000   11.4178   91.4425    2.5274 -999.0000 -999.0000   87.5852 -999.0000 -999.0000 
1807.9001    8.5000   11.3379   90.1200    2.3951 -999.0000 -999.0000   89.1342 -999.0000 -999.0000 
1808.0001    8.5000   11.1726   87.1634    2.3275 -999.0000 -999.0000   92.6544 -999.0000 -999.0000 
1808.1001    8.5000   11.1612   87.8439    2.2702 -999.0000 -999.0000   93.3455 -999.0000 -999.0000 
1808.2001    8.5000   11.1434   90.1439    2.2273 -999.0000 -999.0000   94.2200 -999.0000 -999.0000 
1808.3001    8.5000   11.1256   93.6611    2.1628 -999.0000 -999.0000   96.0375 -999.0000 -999.0000 
1808.4001    8.5000   11.1069   94.2170    2.1183 -999.0000 -999.0000   96.3036 -999.0000 -999.0000 
1808.5001    8.5000   11.1005   95.5970    2.0498 -999.0000 -999.0000   96.1640 -999.0000 -999.0000 
1808.6001    8.5000   11.1045   97.0442    1.8718 -999.0000 -999.0000   96.9764 -999.0000 -999.0000 
1808.7001    8.5000   11.1338   96.5075    1.7983 -999.0000 -999.0000   97.6620 -999.0000 -999.0000 
1808.8001    8.5000   11.1657   96.5554    1.7384 -999.0000 -999.0000   97.9245 -999.0000 -999.0000 
1808.9001    8.5000   11.2448   96.8813    1.6827 -999.0000 -999.0000   97.7370 -999.0000 -999.0000 
1809.0001    8.5000   11.2809   95.0364    1.6883 -999.0000 -999.0000   97.2735 -999.0000 -999.0000 
1809.1001    8.5000   11.3159   92.2859    1.7118 -999.0000 -999.0000   96.5186 -999.0000 -999.0000 
1809.2001    8.5000   11.3132   90.9969    1.8007 -999.0000 -999.0000   94.7330 -999.0000 -999.0000 
1809.3001    8.5000   11.2771   93.3257    1.8595 -999.0000 -999.0000   94.0596 -999.0000 -999.0000 
1809.4001    8.5000   11.2535   95.1370    1.9090 -999.0000 -999.0000   93.2874 -999.0000 -999.0000 
1809.5001    8.5000   11.2342   95.4341    1.9726 -999.0000 -999.0000   92.7189 -999.0000 -999.0000 
1809.6001    8.5000   11.1813   92.4584    1.9776 -999.0000 -999.0000   93.2823 -999.0000 -999.0000 
1809.7001    8.5000   11.1353   91.1502    1.9625 -999.0000 -999.0000   93.8550 -999.0000 -999.0000 
1809.8001    8.5000   11.0673   90.2973    1.9329 -999.0000 -999.0000   94.0909 -999.0000 -999.0000 
1809.9001    8.5000   10.9745   87.7672    1.8654 -999.0000 -999.0000   95.3962 -999.0000 -999.0000 
1810.0001    8.5000   10.9296   87.6139    1.8569 -999.0000 -999.0000   95.7771 -999.0000 -999.0000 
1810.1001    8.5000   10.8950   89.6600    1.8499 -999.0000 -999.0000   95.5868 -999.0000 -999.0000 
1810.2001    8.5000   10.8251   95.9037    1.8689 -999.0000 -999.0000   95.5818 -999.0000 -999.0000 
1810.3001    8.5000   10.7791   97.6911    1.8835 -999.0000 -999.0000   95.6966 -999.0000 -999.0000 
1810.4001    8.5000   10.7475   97.0154    1.9115 -999.0000 -999.0000   95.1058 -999.0000 -999.0000 
1810.5001    8.5000   10.6723   97.3652    2.0023 -999.0000 -999.0000   94.3257 -999.0000 -999.0000 
1810.6001    8.5000   10.6354   97.8300    2.0860 -999.0000 -999.0000   93.9930 -999.0000 -999.0000 
1810.7001    8.5000   10.6111   97.9067    2.1921 -999.0000 -999.0000   93.4769 -999.0000 -999.0000 
1810.8001    8.5000   10.5894   95.9948    2.3665 -999.0000 -999.0000   91.6192 -999.0000 -999.0000 
1810.9001    8.5000   10.5761   95.5204    2.4154 -999.0000 -999.0000   90.8367 -999.0000 -999.0000 
1811.0001    8.5000   10.5825   96.0619    2.4395 -999.0000 -999.0000   90.2886 -999.0000 -999.0000 
1811.1001    8.5000   10.5711   96.6417    2.4328 -999.0000 -999.0000   90.0729 -999.0000 -999.0000 
1811.2001    8.5000   10.5057   98.0265    2.4147 -999.0000 -999.0000   89.5441 -999.0000 -999.0000 
1811.3001    8.5000   10.4795   99.7372    2.3893 -999.0000 -999.0000   90.3916 -999.0000 -999.0000 
1811.4001    8.5000   10.4590   99.6893    2.3609 -999.0000 -999.0000   91.3452 -999.0000 -999.0000 
1811.5001    8.5000   10.4506   90.8148    2.2747 -999.0000 -999.0000   93.0793 -999.0000 -999.0000 
1811.6001    8.5000   10.4616   86.0134    2.2203 -999.0000 -999.0000   93.7918 -999.0000 -999.0000 
1811.7001    8.5000   10.4651   84.0008    2.1655 -999.0000 -999.0000   94.7653 -999.0000 -999.0000 
1811.8001    8.5000   10.4449   92.0048    2.0550 -999.0000 -999.0000   96.8994 -999.0000 -999.0000 
1811.9001    8.5000   10.4149   97.4659    2.0153 -999.0000 -999.0000   96.5290 -999.0000 -999.0000 
1812.0001    8.5000   10.3871  101.4095    1.9907 -999.0000 -999.0000   96.2294 -999.0000 -999.0000 
1812.1001    8.5000   10.3332   99.6270    1.9735 -999.0000 -999.0000   96.4067 -999.0000 -999.0000 
1812.2001    8.5000   10.2929   97.5681    1.9764 -999.0000 -999.0000   95.4996 -999.0000 -999.0000 
1812.3001    8.5000   10.2735   97.0985    1.9868 -999.0000 -999.0000   94.3857 -999.0000 -999.0000 
1812.4001    8.5000   10.2172   97.3652    2.0109 -999.0000 -999.0000   92.8156 -999.0000 -999.0000 
1812.5001    8.5000   10.1910   95.3766    2.0248 -999.0000 -999.0000   92.4499 -999.0000 -999.0000 
1812.6001    8.5000   10.1769   93.3113    2.0416 -999.0000 -999.0000   92.1395 -999.0000 -999.0000 
1812.7001    8.5000   10.1507   92.0703    2.0635 -999.0000 -999.0000   91.6890 -999.0000 -999.0000 
1812.8001    8.5000   10.1203   90.7126    2.1253 -999.0000 -999.0000   91.8298 -999.0000 -999.0000 
1812.9001    8.5000   10.1313   89.1313    2.1722 -999.0000 -999.0000   91.4985 -999.0000 -999.0000 
1813.0001    8.5000   10.1214   87.0708    2.2304 -999.0000 -999.0000   90.9039 -999.0000 -999.0000 
1813.1001    8.5000   10.1442   85.1445    2.3776 -999.0000 -999.0000   89.4383 -999.0000 -999.0000 
1813.2001    8.5000   10.1571   85.8105    2.4657 -999.0000 -999.0000   88.1284 -999.0000 -999.0000 
1813.3001    8.5000   10.1628   86.1795    2.5533 -999.0000 -999.0000   86.7894 -999.0000 -999.0000 
1813.4001    8.5000   10.1940   83.3523    2.6905 -999.0000 -999.0000   84.9816 -999.0000 -999.0000 
1813.5001    8.5000   10.2104   83.1942    2.7190 -999.0000 -999.0000   84.5894 -999.0000 -999.0000 
1813.6001    8.5000   10.2290   84.0519    2.7179 -999.0000 -999.0000   84.1528 -999.0000 -999.0000 
1813.7001    8.5000   10.2488   88.7192    2.6682 -999.0000 -999.0000   85.1625 -999.0000 -999.0000 
1813.8001    8.5000   10.2822   88.9907    2.6365 -999.0000 -999.0000   85.7996 -999.0000 -999.0000 
1813.9001    8.5000   10.2917   88.9428    2.6072 -999.0000 -999.0000   86.5976 -999.0000 -999.0000 
