~VERSION INFORMATION
 VERS.                 2.0:   CWLS LOG ASCII STANDARD - VERSION 2.0
 WRAP.                  NO:   SINGLE LINE PER DEPTH STEP
 CREA.                 06/02/2020 16:33:07
#CREATED USING IP VERSION 4.5.2019.2902 BY RMOTA ON 06/02/2020 16:33:07
~WELL INFORMATION
#MNEM.UNIT       DATA                          DESCRIPTION MNEMONIC
#---------      ---------------------------   --------------------------
 STRT    .M         500.8250                  : START DEPTH
 STOP    .M         3050.8250                 : STOP DEPTH
 STEP    .M         0.1000                    : STEP VALUE
 NULL    .      -999.0000                     : NULL VALUE
 DATE    .      06/02/2020                    : LAS file Creation Date
 WELL   .      7-MP-34D-BA     : Well Name
 COMP   .      PETROBRAS       : Company
 FLD    .      MASSAPE         : Field
 STATE  .      BAHIA           : State
 API    .      20240022160     : API Number
 UWI    .                      : Unique Well Identifier (UWI)
 LOC    .                      : Location
 PDAT   .      NM              : Permanent Datum
 EPDAT  .      0.0             : Elevation of Permanent Datum
 LGMEA  .      MR              : Log Measured from
 DRMEA  .      MR              : Drill Measured From
 APDAT  .      65.65           : Elevation Above Permanent Datum
 KB     .      65.95           : KB Elevation
 DF     .      65.65           : DF Elevation
 RWS    .      -999            : Def_Rw
 WST    .      -999            : Def_Rwt
 PROV   .                      : Province
 SRVC   .                      : Contractor
 GDAT   .      WGS 84          : Geodatum
 LONG   .      -38.435477499961: Longitude
 LATI   .      0               : Latitude
 COORDIN.                      : Grid System
 XCOORD .                      : X or East-West Coordinate
 YCOORD .                      : Y or North-South Coordinate
~CURVE INFORMATION
#MNEM              UNIT       API CODE   Curve Type Comments
#----------  --------------- ----------  ---------- -----------
 DEPTH      .M                         : Depth       
 CAL        .inch                      : Caliper     
 BS         .in                        : BitSize     
 GR         .gAPI                      : GammaRay    
 ILD        .ohm.m                     : DeepRes     
 RHOB       .G/CC                      : Density     
 NPHI       .dec                       : Neutron     
 DT         .uS/ft                     : Sonic       
 DRDN       .                          :             
 Lith_new   .                          :             
~A  DEPTH    CAL        BS        GR       ILD       RHOB      NPHI       DT       DRDN    Lith_new 
# ...
1012.8250   12.4132   12.2500  122.5402    2.6131    2.4650    0.3647   67.6816    6.4560   57.0000 
1012.9250   12.4514   12.2500  119.8656    2.5085    2.4492    0.3677   55.9133    6.2408   57.0000 
1013.0250   12.4409   12.2500  117.7990    2.4857    2.4451    0.3695   49.4352    6.2181   57.0000 
1013.1250   12.4385   12.2500  116.6617    2.5150    2.4449    0.3681   47.8199    6.1684   57.0000 
1013.2250   12.4205   12.2500  114.6885    2.5727    2.4462    0.3634   48.4903    6.0367   57.0000 
1013.3250   12.3747   12.2500  114.0275    2.6458    2.4418    0.3543   50.2531    5.6440   57.0000 
1013.4250   12.3744   12.2500  112.8269    2.7336    2.4390    0.3420   54.2852    5.1813   57.0000 
1013.5250   12.3729   12.2500  110.5997    2.8497    2.4413    0.3341   60.8510    4.9608   57.0000 
1013.6250   12.3721   12.2500  107.1597    3.0351    2.4531    0.3290   68.6250    5.0283   57.0000 
1013.7250   12.3706   12.2500  102.3388    3.3752    2.4737    0.3277   74.5337    5.3981   57.0000 
1013.8250   12.3680   12.2500   94.8398    4.0180    2.5031    0.3200   78.3770    5.7285   57.0000 
1013.9250   12.3644   12.2500   85.1662    5.1981    2.5366    0.3036   80.7990    5.8503   57.0000 
1014.0250   12.3643   12.2500   74.7410    7.2578    2.5672    0.2759   83.1031    5.5412   57.0000 
1014.1250   12.3639   12.2500   65.3359   10.5059    2.5899    0.2466   85.7296    5.0166   57.0000 
1014.2250   12.3649   12.2500   59.2574   14.6166    2.6029    0.2195   85.1092    4.3762   57.0000 
1014.3250   12.3654   12.2500   55.3959   18.0474    2.6059    0.1984   81.5679    3.7297   57.0000 
1014.4250   12.3672   12.2500   52.2823   19.4144    2.5983    0.1763   75.9934    2.8451   57.0000 
1014.5250   12.3643   12.2500   48.9923   18.8942    2.5833    0.1548   71.2929    1.8250   57.0000 
1014.6250   12.3594   12.2500   43.8850   17.2458    2.5642    0.1347   69.4607    0.7760   57.0000 
1014.7250   12.3541   12.2500   39.0352   15.0882    2.5414    0.1240   69.1184   -0.0387   54.0000 
1014.8250   12.3492   12.2500   35.4019   12.9193    2.5061    0.1245   69.8434   -0.7261   25.0000 
1014.9250   12.3495   12.2500   32.0865   11.0833    2.4537    0.1370   70.6612   -1.3594   49.0000 
1015.0250   12.3503   12.2500   29.9099    9.7047    2.3914    0.1558   72.1857   -1.9784   49.0000 
1015.1250   12.3409   12.2500   27.9969    8.7468    2.3393    0.1749   74.8454   -2.3833   49.0000 
1015.2250   12.3433   12.2500   26.4975    8.1178    2.3086    0.1876   78.5740   -2.5731   49.0000 
1015.3250   12.3448   12.2500   26.0859    7.7014    2.2953    0.1923   82.3214   -2.6837   49.0000 
1015.4250   12.3508   12.2500   27.0320    7.3863    2.2855    0.1905   85.5653   -2.9392   49.0000 
1015.5250   12.3604   12.2500   28.5721    7.0973    2.2763    0.1876   87.6199   -3.2221   49.0000 
1015.6250   12.3613   12.2500   29.9434    6.8295    2.2705    0.1862   86.1087   -3.3843   49.0000 
1015.7250   12.3603   12.2500   30.9643    6.6213    2.2783    0.1861   81.0311   -3.2321   49.0000 
1015.8250   12.3605   12.2500   31.2669    6.5005    2.2968    0.1843   72.7801   -2.9191   49.0000 
1015.9250   12.3607   12.2500   31.0084    6.4557    2.3192    0.1819   63.7357   -2.5518   49.0000 
1016.0250   12.3607   12.2500   31.0511    6.4365    2.3287    0.1803   58.9020   -2.4145   49.0000 
1016.1250   12.3602   12.2500   31.1280    6.3691    2.3236    0.1830   59.3974   -2.4287   49.0000 
1016.2250   12.3585   12.2500   31.0933    6.1904    2.3072    0.1895   65.2913   -2.5403   49.0000 
1016.3250   12.3576   12.2500   31.6307    5.8951    2.2925    0.1982   74.4531   -2.5426   49.0000 
1016.4250   12.3622   12.2500   32.3620    5.5436    2.2771    0.2053   82.5643   -2.6136   49.0000 
1016.5250   12.3651   12.2500   33.3940    5.2223    2.2611    0.2095   88.6806   -2.7936   49.0000 
1016.6250   12.3691   12.2500   34.6602    5.0031    2.2416    0.2102   91.5709   -3.1617   49.0000 
1016.7250   12.3703   12.2500   35.5684    4.9376    2.2333    0.2075   88.9179   -3.4174   49.0000 
1016.8250   12.3689   12.2500   36.4006    5.0634    2.2423    0.1989   82.1362   -3.5247   49.0000 
1016.9250   12.3698   12.2500   37.0929    5.4046    2.2800    0.1846   71.1520   -3.2472   49.0000 
1017.0250   12.3710   12.2500   37.8018    5.9425    2.3332    0.1714   61.1122   -2.6217   49.0000 
1017.1250   12.3714   12.2500   40.8185    6.5740    2.3941    0.1657   55.9811   -1.5950   49.0000 
1017.2250   12.3719   12.2500   44.9263    7.1076    2.4410    0.1692   56.8066   -0.5390   25.0000 
1017.3250   12.3723   12.2500   50.3811    7.3698    2.4642    0.1811   63.2755    0.3223   57.0000 
1017.4250   12.3724   12.2500   57.4287    7.3423    2.4591    0.1977   72.1449    0.7735   57.0000 
1017.5250   12.3725   12.2500   63.2853    7.1524    2.4339    0.2197   80.1561    0.9997   57.0000 
1017.6250   12.3726   12.2500   69.5304    6.9588    2.4131    0.2378   86.4980    1.1906   57.0000 
1017.7250   12.3723   12.2500   74.9965    6.8826    2.4151    0.2488   90.4102    1.5941   57.0000 
1017.8250   12.3676   12.2500   77.9175    7.0023    2.4399    0.2497   92.3408    2.1210   57.0000 
1017.9250   12.3615   12.2500   77.9350    7.3500    2.4631    0.2438   92.8276    2.3890   57.0000 
1018.0250   12.3554   12.2500   74.3718    7.8839    2.4648    0.2355   92.0653    2.1446   57.0000 
1018.1250   12.3517   12.2500   69.2443    8.4569    2.4477    0.2262   90.5837    1.4939   57.0000 
1018.2250   12.3580   12.2500   65.8184    8.8626    2.4349    0.2189   88.9301    0.9946   57.0000 
1018.3250   12.3632   12.2500   64.5208    8.9990    2.4390    0.2168   87.6199    1.0077   57.0000 
1018.4250   12.3667   12.2500   64.3309    8.9516    2.4547    0.2194   86.7867    1.4070   57.0000 
1018.5250   12.3656   12.2500   64.1185    8.8682    2.4632    0.2237   86.4566    1.7188   57.0000 
1018.6250   12.3664   12.2500   61.1866    8.8085    2.4484    0.2239   86.5602    1.4310   57.0000 
1018.7250   12.3715   12.2500   57.3072    8.7325    2.4148    0.2189   86.8663    0.5930   57.0000 
1018.8250   12.3795   12.2500   54.3045    8.5870    2.3767    0.2119   86.9138   -0.4014   25.0000 
1018.9250   12.3857   12.2500   51.4780    8.3944    2.3580    0.2063   85.9122   -0.9636   25.0000 
1019.0250   12.3834   12.2500   49.6261    8.2456    2.3612    0.2041   82.8449   -0.9745   25.0000 
1019.1250   12.3761   12.2500   47.4325    8.2229    2.3719    0.2030   78.5582   -0.7966   25.0000 
1019.2250   12.3666   12.2500   43.4595    8.3454    2.3753    0.2009   74.3475   -0.7957   25.0000 
1019.3250   12.3588   12.2500   39.4407    8.5639    2.3621    0.1967   73.1153   -1.2001   49.0000 
1019.4250   12.3542   12.2500   35.3208    8.7873    2.3441    0.1929   74.7602   -1.6895   49.0000 
1019.5250   12.3526   12.2500   32.1314    8.9226    2.3201    0.1901   77.7235   -2.2616   49.0000 
1019.6250   12.3528   12.2500   30.4808    8.9273    2.3043    0.1893   80.2561   -2.6045   49.0000 
1019.7250   12.3532   12.2500   29.5695    8.8156    2.2963    0.1883   81.2510   -2.7975   49.0000 
1019.8250   12.3541   12.2500   29.5389    8.6355    2.3034    0.1887   81.2388   -2.6416   49.0000 
1019.9250   12.3542   12.2500   29.5908    8.4229    2.3170    0.1898   81.0837   -2.3335   49.0000 
1020.0250   12.3536   12.2500   29.9162    8.1992    2.3226    0.1937   80.9189   -2.0906   49.0000 
1020.1250   12.3541   12.2500   30.3907    7.9652    2.3158    0.1981   81.0786   -2.0821   49.0000 
1020.2250   12.3543   12.2500   31.3156    7.7199    2.2950    0.2038   81.4454   -2.3064   49.0000 
1020.3250   12.3542   12.2500   33.2303    7.4700    2.2767    0.2086   82.0082   -2.5121   49.0000 
1020.4250   12.3550   12.2500   36.9793    7.2449    2.2634    0.2115   82.6653   -2.6817   49.0000 
1020.5250   12.3547   12.2500   42.6879    7.0793    2.2602    0.2115   83.2969   -2.7478   49.0000 
1020.6250   12.3543   12.2500   49.1616    7.0025    2.2695    0.2089   83.8781   -2.6476   49.0000 
1020.7250   12.3543   12.2500   55.0536    7.0202    2.2913    0.2080   84.2525   -2.2399   49.0000 
