~VERSION INFORMATION
 VERS.                 2.0:   CWLS LOG ASCII STANDARD - VERSION 2.0
 WRAP.                  NO:   SINGLE LINE PER DEPTH STEP
 CREA.                 28/08/2020 11:52:07
#CREATED USING IP VERSION 4.5.2019.2902 BY CANDIDO ON 28/08/2020 11:52:07
~WELL INFORMATION
#MNEM.UNIT       DATA                          DESCRIPTION MNEMONIC
#---------      ---------------------------   --------------------------
 STRT    .M         639.0000                  : START DEPTH
 STOP    .M         3007.1000                 : STOP DEPTH
 STEP    .M         0.1000                    : STEP VALUE
 NULL    .      -999.0000                     : NULL VALUE
 DATE    .      28/08/2020                    : LAS file Creation Date
 WELL   .      7-MP-55D-BA     : Well Name
 COMP   .      PETROBRAS       : Company
 FLD    .      MASSAPE         : Field
 STATE  .      BAHIA           : State
 COUNT  .      -999.25         : Country
 API    .      20240028408     : API Number
 UWI    .                      : Unique Well Identifier (UWI)
 LOC    .      -999.25         : Location
 TOWN   .      -999.25         : Township
 SCT    .      -999.25         : Section
 RANG   .      -999.25         : Range
 PDAT   .      NM              : Permanent Datum
 EPDAT  .      0.00            : Elevation of Permanent Datum
 LGMEA  .      MR              : Log Measured from
 DRMEA  .      MR              : Drill Measured From
 APDAT  .      65.67           : Elevation Above Permanent Datum
 KB     .      65.97           : KB Elevation
 DF     .      65.67           : DF Elevation
 GL     .      56.27           : GL Elevation
 RWS    .      -999            : Def_Rw
 WST    .      -999            : Def_Rwt
 PROV   .                      : Province
 SRVC   .                      : Contractor
 GDAT   .      WGS 84          : Geodatum
 LONG   .      -38.435231944455: Longitude
 LATI   .      0               : Latitude
 COORDIN.                      : Grid System
 XCOORD .                      : X or East-West Coordinate
 YCOORD .                      : Y or North-South Coordinate
~CURVE INFORMATION
#MNEM                UNIT       API CODE   Curve Type Comments
#----------    --------------- ----------  ---------- -----------
 DEPTH        .M                         : Depth       
 TVD          .M                         : Depth       
 TVDSS        .M                         : Depth       
 GR           .api                       : GammaRay    
 CAL          .in                        : Caliper     
 BS           .in                        : BitSize     
 Lith_new     .                          :             
 RT           .ohmm                      : DeepRes     
 NPHI         .decp                      : Neutron     
 RHOB         .g/cc                      : Density     
 Res          .                          :             
 N_Res        .                          :             
 VCLGR        .Dec                       : Vcl         
 Phi_Gaymard  .                          :             
 Phie_Gaymard .                          :             
 SwArch       .Dec                       :             
 SwSim        .Dec                       :             
~A  DEPTH    TVD      TVDSS       GR       CAL        BS     Lith_new     RT       NPHI      RHOB      Res      N_Res     VCLGR   Phi_Gaym~ Phie_Gay~   SwArch    SwSim   
# ...
2904.4000 2890.6865 -2825.0165   86.9896    8.5360    8.5000   54.0000   16.9597    0.0886    2.6082    0.0000    1.0000    0.4286    0.0656    0.0375    1.3000    0.4437 
2904.5000 2890.7863 -2825.1163   67.9520    8.5590    8.5000   49.0000   19.1419    0.0694    2.5767    1.0000    0.0000    0.1462    0.0599    0.0511    0.3781    0.3258 
2904.6000 2890.8860 -2825.2160   62.8682    8.5696    8.5000   49.0000   20.1764    0.0457    2.5646    1.0000    0.0000    0.0904    0.0514    0.0468    0.3905    0.3532 
2904.7000 2890.9857 -2825.3157   59.1966    8.5310    8.5000   49.0000   20.8721    0.0446    2.5616    1.0000    0.0000    0.0542    0.0520    0.0492    0.3407    0.3226 
2904.8000 2891.0854 -2825.4154   58.9676    8.5323    8.5000   49.0000   21.2825    0.0455    2.5620    1.0000    0.0000    0.0521    0.0523    0.0496    0.3314    0.3147 
2904.9000 2891.1852 -2825.5152   59.7233    8.5314    8.5000   49.0000   21.3209    0.0484    2.5657    1.0000    0.0000    0.0592    0.0522    0.0492    0.3326    0.3134 
2905.0000 2891.2849 -2825.6149   60.3721    8.4725    8.5000   49.0000   21.4489    0.0512    2.5605    1.0000    0.0000    0.0655    0.0554    0.0518    0.3184    0.2989 
2905.1000 2891.3846 -2825.7146   58.5554    8.4800    8.5000   49.0000   21.9220    0.0538    2.5484    1.0000    0.0000    0.0482    0.0609    0.0580    0.2761    0.2650 
2905.2000 2891.4844 -2825.8144   57.2119    8.4827    8.5000   49.0000   21.9894    0.0595    2.5375    1.0000    0.0000    0.0360    0.0674    0.0650    0.2435    0.2369 
2905.3000 2891.5841 -2825.9141   54.8914    8.4342    8.5000   49.0000   21.7558    0.0631    2.5338    1.0000    0.0000    0.0157    0.0704    0.0693    0.2256    0.2231 
2905.4000 2891.6838 -2826.0138   55.0975    8.4372    8.5000   49.0000   20.4752    0.0624    2.5304    1.0000    0.0000    0.0174    0.0713    0.0701    0.2316    0.2289 
2905.5000 2891.7836 -2826.1136   56.1509    8.4530    8.5000   49.0000   19.7284    0.0621    2.5362    1.0000    0.0000    0.0265    0.0691    0.0672    0.2461    0.2416 
2905.6000 2891.8833 -2826.2133   59.1890    8.4654    8.5000   49.0000   19.1203    0.0658    2.5413    1.0000    0.0000    0.0541    0.0690    0.0652    0.2622    0.2523 
2905.7000 2891.9831 -2826.3131   62.9293    8.4002    8.5000   49.0000   18.6093    0.0684    2.5506    1.0000    0.0000    0.0910    0.0671    0.0610    0.2934    0.2735 
2905.8000 2892.0828 -2826.4128   64.7231    8.3960    8.5000   49.0000   18.7736    0.0713    2.5556    1.0000    0.0000    0.1100    0.0671    0.0597    0.3043    0.2785 
2905.9000 2892.1825 -2826.5125   64.7766    8.3801    8.5000   49.0000   19.2147    0.0736    2.5588    1.0000    0.0000    0.1105    0.0673    0.0599    0.2990    0.2733 
2906.0000 2892.2823 -2826.6123   64.0667    8.3794    8.5000   49.0000   19.8539    0.0726    2.5627    1.0000    0.0000    0.1030    0.0656    0.0589    0.2965    0.2722 
2906.1000 2892.3820 -2826.7120   59.2195    8.3571    8.5000   49.0000   21.0294    0.0706    2.5595    1.0000    0.0000    0.0544    0.0655    0.0619    0.2589    0.2483 
2906.2000 2892.4817 -2826.8117   57.6165    8.3546    8.5000   49.0000   21.1949    0.0685    2.5571    1.0000    0.0000    0.0396    0.0651    0.0625    0.2516    0.2442 
2906.3000 2892.5815 -2826.9115   57.1509    8.3689    8.5000   49.0000   20.9996    0.0669    2.5533    1.0000    0.0000    0.0354    0.0655    0.0632    0.2499    0.2434 
2906.4000 2892.6812 -2827.0112   60.0592    8.3463    8.5000   49.0000   19.9941    0.0622    2.5492    1.0000    0.0000    0.0624    0.0645    0.0605    0.2779    0.2646 
2906.5000 2892.7810 -2827.1110   61.5324    8.3145    8.5000   49.0000   19.4629    0.0603    2.5480    1.0000    0.0000    0.0769    0.0640    0.0591    0.2957    0.2778 
2906.6000 2892.8807 -2827.2107   63.8453    8.3229    8.5000   49.0000   19.0736    0.0630    2.5506    1.0000    0.0000    0.1006    0.0644    0.0579    0.3129    0.2875 
2906.7000 2892.9804 -2827.3104   72.1199    8.3032    8.5000   49.0000   19.2274    0.0697    2.5689    1.0000    0.0000    0.1973    0.0622    0.0499    0.4266    0.3400 
2906.8000 2893.0802 -2827.4102   77.7075    8.3038    8.5000   25.0000   19.9465    0.0773    2.5858    0.0000    1.0000    0.2746    0.0624    0.0453    0.5712    0.3721 
2906.9000 2893.1799 -2827.5099   81.3638    8.3112    8.5000   54.0000   21.0816    0.0814    2.6011    0.0000    1.0000    0.3311    0.0619    0.0414    0.7798    0.3841 
2907.0000 2893.2797 -2827.6097   76.8144    8.3117    8.5000   54.0000   23.7792    0.0839    2.6186    0.0000    1.0000    0.2615    0.0611    0.0451    0.5780    0.3548 
2907.1000 2893.3794 -2827.7094   70.1199    8.3011    8.5000   54.0000   24.4898    0.0812    2.6123    0.0000    1.0000    0.1721    0.0601    0.0497    0.3865    0.3077 
2907.2000 2893.4792 -2827.8092   64.3644    8.2823    8.5000   25.0000   24.2686    0.0703    2.5975    0.0000    1.0000    0.1061    0.0555    0.0496    0.3276    0.2909 
2907.3000 2893.5789 -2827.9089   57.9676    8.2742    8.5000   49.0000   21.6478    0.0674    2.5702    1.0000    0.0000    0.0428    0.0606    0.0580    0.2667    0.2575 
2907.4000 2893.6787 -2828.0087   56.6013    8.2715    8.5000   49.0000   20.1178    0.0658    2.5617    1.0000    0.0000    0.0305    0.0622    0.0603    0.2635    0.2575 
2907.5000 2893.7784 -2828.1084   55.7158    8.2939    8.5000   49.0000   18.8932    0.0771    2.5634    1.0000    0.0000    0.0228    0.0679    0.0664    0.2488    0.2451 
2907.6000 2893.8782 -2828.2082   55.9295    8.3095    8.5000   25.0000   18.0623    0.0843    2.5604    0.0000    1.0000    0.0246    0.0729    0.0711    0.2414    0.2378 
2907.7000 2893.9779 -2828.3079   60.2958    8.3479    8.5000   49.0000   17.2578    0.0850    2.5537    1.0000    0.0000    0.0647    0.0751    0.0703    0.2574    0.2472 
2907.8000 2894.0776 -2828.4076   62.5324    8.3568    8.5000   49.0000   17.0433    0.0920    2.5441    1.0000    0.0000    0.0870    0.0818    0.0747    0.2487    0.2361 
2907.9000 2894.1774 -2828.5074   65.0056    8.3746    8.5000   25.0000   16.8264    0.0997    2.5420    0.0000    1.0000    0.1130    0.0868    0.0770    0.2478    0.2318 
2908.0000 2894.2771 -2828.6071   72.1199    8.3803    8.5000   25.0000   16.3490    0.1055    2.5498    0.0000    1.0000    0.1973    0.0881    0.0707    0.2904    0.2545 
2908.1000 2894.3769 -2828.7069   77.7762    8.3487    8.5000   54.0000   16.1954    0.1190    2.5627    0.0000    1.0000    0.2756    0.0936    0.0678    0.3287    0.2676 
2908.2000 2894.4766 -2828.8066   83.2798    8.3271    8.5000   57.0000   16.1625    0.1266    2.5770    0.0000    1.0000    0.3628    0.0958    0.0611    0.4110    0.2943 
2908.3000 2894.5764 -2828.9064   83.9821    8.3511    8.5000   57.0000   16.3653    0.1324    2.6026    0.0000    1.0000    0.3748    0.0962    0.0602    0.4739    0.3177 
2908.4000 2894.6761 -2829.0062   80.7837    8.3435    8.5000   57.0000   16.3951    0.1349    2.6054    0.0000    1.0000    0.3218    0.0976    0.0662    0.4016    0.2990 
2908.5000 2894.7759 -2829.1059   79.6463    8.3242    8.5000   57.0000   16.1840    0.1212    2.5968    0.0000    1.0000    0.3039    0.0892    0.0621    0.4180    0.3139 
2908.6000 2894.8757 -2829.2057   89.2720    8.3898    8.5000   54.0000   14.9576    0.1122    2.5715    0.0000    1.0000    0.4720    0.0874    0.0462    0.6872    0.3621 
2908.7000 2894.9754 -2829.3054   95.2413    8.3987    8.5000   54.0000   14.2350    0.1073    2.5717    0.0000    1.0000    0.5979    0.0843    0.0339    1.0641    0.3666 
2908.8000 2895.0752 -2829.4052   96.8595    8.3933    8.5000   57.0000   13.7071    0.1131    2.5843    0.0000    1.0000    0.6353    0.0857    0.0313    1.3000    0.3769 
2908.9000 2895.1749 -2829.5049   82.8065    8.3864    8.5000   57.0000   13.6852    0.1239    2.6239    0.0000    1.0000    0.3549    0.0885    0.0571    0.6414    0.4185 
2909.0000 2895.2747 -2829.6047   73.6694    8.3966    8.5000   57.0000   14.1653    0.1290    2.6313    0.0000    1.0000    0.2177    0.0916    0.0717    0.3488    0.2998 
