~VERSION INFORMATION
 VERS.                 2.0:   CWLS LOG ASCII STANDARD - VERSION 2.0
 WRAP.                  NO:   SINGLE LINE PER DEPTH STEP
 CREA.                 06/02/2020 16:07:36
#CREATED USING IP VERSION 4.5.2019.2902 BY RMOTA ON 06/02/2020 16:07:36
~WELL INFORMATION
#MNEM.UNIT       DATA                          DESCRIPTION MNEMONIC
#---------      ---------------------------   --------------------------
 STRT    .M         18.4404                   : START DEPTH
 STOP    .M         3544.2144                 : STOP DEPTH
 STEP    .M         0.1524                    : STEP VALUE
 NULL    .      -999.0000                     : NULL VALUE
 DATE    .      06/02/2020                    : LAS file Creation Date
 WELL   .      7-MP-25-BA         : Well Name
 COMP   .      PETROBRAS          : Company
 FLD    .      MASSAPE            : Field
 STATE  .      20240021268        : State
 COUNT  .      BRASIL             : Country
 API    .      20240021268        : API Number
 UWI    .                         : Unique Well Identifier (UWI)
 LOC    .      N= 8.607.478,570 m : Location
 TOWN   .      CTU                : Township
 SCT    .      OH WIRELINE        : Section
 RANG   .      SCHLUMBERGER       : Range
 PDAT   .      NM                 : Permanent Datum
 EPDAT  .      0                  : Elevation of Permanent Datum
 LGMEA  .      MR                 : Log Measured from
 DRMEA  .      MR                 : Drill Measured From
 APDAT  .      65.76              : Elevation Above Permanent Datum
 KB     .      66.06              : KB Elevation
 DF     .      65.76              : DF Elevation
 GL     .      56.36              : GL Elevation
 RWS    .      -999               : Def_Rw
 WST    .      -999               : Def_Rwt
 BHS    .      OPEN               : Completion Status
 PROV   .                         : Province
 MDEC   .      -23.10323          : Magnetic Declination
 SRVC   .                         : Contractor
 GDAT   .      WGS 84             : Geodatum
 LONG   .      -38.4344958333174  : Longitude
 LATI   .      -12.5959183332655  : Latitude
 COORDIN.                         : Grid System
 XCOORD .                         : X or East-West Coordinate
 YCOORD .                         : Y or North-South Coordinate
~CURVE INFORMATION
#MNEM              UNIT       API CODE   Curve Type Comments
#----------  --------------- ----------  ---------- -----------
 DEPTH      .M                         : Depth       
 BS         .in                        : BitSize     
 GR         .gAPI                      : GammaRay    
 CAL        .inch                      : Caliper     
 RT         .ohm.m                     : DeepRes     
 NPHI       .m3/m3                     : Neutron     
 RHOB       .g/cm3                     : Density     
 DT         .us/ft                     : Sonic       
 SP         .mV                        : SP          
 DRDN       .                          :             
 Lith_new   .                          :             
~A  DEPTH     BS        GR       CAL        RT       NPHI      RHOB       DT        SP       DRDN    Lith_new 
# ...
2276.8560   12.2500   91.5568   12.2491    3.7974    0.2280    2.6377   79.3334  700.3750    5.3535   57.0000 
2277.0084   12.2500   91.5568   12.2604    3.9171    0.2216    2.6456   78.0082  699.5000    5.2997   57.0000 
2277.1608   12.2500   92.1873   12.2717    4.1213    0.2163    2.6574   76.6539  699.5625    5.3588   57.0000 
2277.3132   12.2500   95.5372   12.2566    4.3798    0.2041    2.6641   76.3105  704.6250    5.0860   57.0000 
2277.4656   12.2500   94.5901   12.2642    4.8036    0.2029    2.6621   74.1370  700.8125    5.0067   57.0000 
2277.6180   12.2500   85.8554   12.2717    5.2519    0.1922    2.6518   73.2153  695.6875    4.4413   57.0000 
2277.7704   12.2500   79.4537   12.2717    5.6678    0.1751    2.6465   74.4694  688.7500    3.7659   57.0000 
2277.9228   12.2500   77.0333   12.2566    5.9277    0.1777    2.6424   76.0644  688.6875    3.7710   57.0000 
2278.0752   12.2500   83.1568   12.2717    5.1053    0.2142    2.6324   79.1788  698.5625    4.7858   57.0000 
2278.2276   12.2500   86.3139   12.2642    4.1997    0.2407    2.6232   81.1032  699.6875    5.4878   57.0000 
2278.3800   12.2500   89.9972   12.2341    3.8584    0.2440    2.6178   80.9934  698.3750    5.4880   57.0000 
2278.5324   12.2500   88.1883   12.2491    3.7419    0.2421    2.6209   82.0654  697.0625    5.4875   57.0000 
2278.6848   12.2500   87.1360   12.3017    3.6956    0.2451    2.6188   82.4636  699.4375    5.5472   57.0000 
2278.8372   12.2500   83.0317   12.2566    3.6997    0.2481    2.6171   83.8249  700.3750    5.6126   57.0000 
2278.9896   12.2500   88.2369   12.2604    3.6167    0.2340    2.6125   83.0146  697.2500    5.0498   57.0000 
2279.1420   12.2500   92.3113   12.2792    3.6666    0.2379    2.6166   82.6403  694.8750    5.2614   57.0000 
2279.2944   12.2500   95.4684   12.2717    3.6954    0.2438    2.6184   81.9477  697.2500    5.4945   57.0000 
2279.4468   12.2500   94.5763   12.2642    3.5726    0.2461    2.6196   81.1694  697.6875    5.5954   57.0000 
2279.5992   12.2500   92.8941   12.2379    3.5894    0.2364    2.6266   80.4535  696.2500    5.4132   57.0000 
2279.7516   12.2500   91.1317   12.2416    4.0226    0.2216    2.6392   79.5788  697.5000    5.1699   57.0000 
2279.9040   12.2500   84.3741   12.1890    4.3435    0.2048    2.6473   78.8068  701.1250    4.7734   57.0000 
2280.0564   12.2500   85.5895   12.1664    4.2852    0.1990    2.6430   76.9386  695.3750    4.4928   57.0000 
2280.2088   12.2500   87.6391   12.1815    4.1634    0.1859    2.6406   77.0064  698.0000    4.0077   57.0000 
2280.3612   12.2500   88.5254   12.1589    4.7178    0.1803    2.6493   74.0479  695.5625    3.9963   57.0000 
2280.5136   12.2500   81.9946   12.1289    5.3599    0.1497    2.6557   70.8389  702.8750    3.1048   57.0000 
2280.6660   12.2500   78.5250   12.1589    6.5896    0.1511    2.6524   71.7740  703.7500    3.0869   57.0000 
2280.8184   12.2500   80.9017   12.1439    6.9288    0.1589    2.6486   70.4503  706.4375    3.2684   57.0000 
2280.9708   12.2500   82.1658   12.1213    6.3679    0.1777    2.6480   68.9782  699.0625    3.8824   57.0000 
2281.1232   12.2500   79.6425   12.1289    5.9470    0.1677    2.6593   67.9688  696.2500    3.7761   57.0000 
2281.2756   12.2500   75.3742   12.1063    5.7212    0.1508    2.6640   65.3373  697.7500    3.3047   57.0000 
2281.4280   12.2500   76.6919   12.1251    7.2453    0.1672    2.6648   70.3020  705.7500    3.8711   57.0000 
2281.5804   12.2500   85.3697   12.1138    5.6087    0.2126    2.6571   75.6306  698.7500    5.2292   57.0000 
2281.7328   12.2500   93.7965   12.1364    4.2908    0.2443    2.6510   79.4078  698.6875    6.1645   57.0000 
2281.8852   12.2500   99.3689   12.1815    3.6625    0.2616    2.6415   83.1520  698.3750    6.5495   57.0000 
2282.0376   12.2500   96.0037   12.2040    3.4925    0.2620    2.6313   82.4267  701.0625    6.3595   57.0000 
2282.1900   12.2500   95.9419   12.1965    3.4742    0.2574    2.6259   82.0605  701.2500    6.0982   57.0000 
2282.3424   12.2500   93.7919   12.2416    3.5712    0.2413    2.6284   82.3889  700.7500    5.6113   57.0000 
2282.4948   12.2500   95.9687   12.2491    3.5820    0.2325    2.6390   81.8798  697.2500    5.5292   57.0000 
2282.6472   12.2500   95.5481   12.2491    3.5761    0.2397    2.6430   81.3778  692.4375    5.8491   57.0000 
2282.7996   12.2500   96.0748   12.2341    3.5604    0.2393    2.6413   80.9674  691.2500    5.8022   57.0000 
2282.9520   12.2500   94.2628   12.2416    3.5597    0.2343    2.6369   81.6319  693.8750    5.5482   57.0000 
2283.1044   12.2500   94.0527   12.2491    3.5937    0.2375    2.6355   81.6937  693.0000    5.6272   57.0000 
2283.2568   12.2500   95.8434   12.2379    3.6759    0.2464    2.6414   81.8234  693.6875    6.0416   57.0000 
2283.4092   12.2500   95.9486   12.2379    3.7495    0.2485    2.6434   80.6314  700.5625    6.1522   57.0000 
2283.5616   12.2500   93.0596   12.2491    3.8332    0.2177    2.6420   78.9920  695.9375    5.0974   57.0000 
2283.7140   12.2500   90.8691   12.2792    3.6709    0.2028    2.6309   78.3334  690.3750    4.3789   57.0000 
2283.8664   12.2500   89.3189   12.2717    4.3747    0.1758    2.6319   74.9201  692.4375    3.4982   57.0000 
2284.0188   12.2500   86.1342   12.2717    5.1648    0.1590    2.6439   71.6837  694.9375    3.1789   57.0000 
2284.1712   12.2500   77.9804   12.2942    6.5269    0.1295    2.6570   70.7674  690.3750    2.4566   57.0000 
2284.3236   12.2500   73.6657   12.2942    8.0312    0.1249    2.6501   68.1457  693.1875    2.1647   57.0000 
2284.4760   12.2500   75.1130   12.2491    8.6596    0.1390    2.6380   71.2245  695.9375    2.3914   57.0000 
2284.6284   12.2500   78.9266   12.1815    7.6419    0.1659    2.6345   75.1083  694.6250    3.2194   57.0000 
2284.7808   12.2500   82.6362   12.1815    6.8383    0.1971    2.6419   76.4157  695.6250    4.4066   57.0000 
2284.9332   12.2500   84.7669   12.2115    5.7377    0.2120    2.6439   77.1905  699.9375    4.9453   57.0000 
2285.0856   12.2500   84.4261   12.1890    5.8546    0.1876    2.6421   73.5248  696.9375    4.0973   57.0000 
2285.2380   12.2500   82.5056   12.1890    6.7633    0.1708    2.6401   74.0924  689.6875    3.4960   57.0000 
2285.3904   12.2500   80.2956   12.1928    7.0129    0.1795    2.6484   71.3595  692.2500    3.9520   57.0000 
2285.5428   12.2500   75.4697   12.1664    6.5496    0.1798    2.6610   71.3059  697.2500    4.2117   57.0000 
2285.6952   12.2500   72.8388   12.2040    7.0443    0.1456    2.6667   69.8258  698.1250    3.1870   57.0000 
2285.8476   12.2500   71.5760   12.2115    7.9878    0.1249    2.6578   67.9575  700.5000    2.3196   57.0000 
2286.0000   12.2500   78.1909   12.1965    9.0240    0.1341    2.6493   71.2181  694.9375    2.4569   57.0000 
2286.1524   12.2500   81.7521   12.2040    7.4270    0.1413    2.6480   69.8223  697.0625    2.6712   57.0000 
2286.3048   12.2500   79.2264   12.2266    6.7966    0.1308    2.6674   73.6947  698.4375    2.7077   57.0000 
2286.4572   12.2500   73.2279   12.1890    6.5494    0.1270    2.6801   69.2009  696.3125    2.8359   57.0000 
2286.6096   12.2500   72.5081   12.1364    6.4477    0.1428    2.6707   70.6955  696.3750    3.1749   57.0000 
2286.7620   12.2500   82.9265   12.1928    7.4210    0.1916    2.6427   78.0584  697.6875    4.2397   57.0000 
2286.9144   12.2500   96.2916   12.2040    5.8609    0.2478    2.6247   82.2180  697.3125    5.7541   57.0000 
2287.0668   12.2500  103.3493   12.2040    4.1798    0.2920    2.6276   87.0998  691.7500    7.2860   57.0000 
2287.2192   12.2500  102.4022   12.2792    3.1849    0.3151    2.6398   87.4101  696.4375    8.3001   57.0000 
2287.3716   12.2500  101.9812   12.3393    2.9893    0.3147    2.6468   86.0648  698.5625    8.4250   57.0000 
2287.5240   12.2500  102.8163   12.3995    2.9911    0.3051    2.6476   86.3281  695.3750    8.1233   57.0000 
2287.6764   12.2500  101.5534   12.2266    3.0124    0.2803    2.6486   85.0693  696.3125    7.3147   57.0000 
2287.8288   12.2500  101.5600   12.2115    2.9540    0.2643    2.6537   86.2824  697.3750    6.8844   57.0000 
