~VERSION INFORMATION
 VERS.                 2.0:   CWLS LOG ASCII STANDARD - VERSION 2.0
 WRAP.                  NO:   SINGLE LINE PER DEPTH STEP
 CREA.                 06/02/2020 16:44:49
#CREATED USING IP VERSION 4.5.2019.2902 BY RMOTA ON 06/02/2020 16:44:49
~WELL INFORMATION
#MNEM.UNIT       DATA                          DESCRIPTION MNEMONIC
#---------      ---------------------------   --------------------------
 STRT    .M         1550.0001                 : START DEPTH
 STOP    .M         2926.1001                 : STOP DEPTH
 STEP    .M         0.1000                    : STEP VALUE
 NULL    .      -999.0000                     : NULL VALUE
 DATE    .      06/02/2020                    : LAS file Creation Date
 WELL   .      7-MP-47DP-BA    : Well Name
 COMP   .      PETROBRAS       : Company
 FLD    .      MASSAPE         : Field
 STATE  .      BAHIA           : State
 API    .      20240025025     : API Number
 UWI    .                      : Unique Well Identifier (UWI)
 LOC    .      20240025025     : Location
 PDAT   .      NM              : Permanent Datum
 EPDAT  .      0.0             : Elevation of Permanent Datum
 LGMEA  .      MR              : Log Measured from
 DRMEA  .      MR              : Drill Measured From
 APDAT  .      65.68           : Elevation Above Permanent Datum
 KB     .      -999.25         : KB Elevation
 DF     .      65.68           : DF Elevation
 GL     .      56.28           : GL Elevation
 RWS    .      -999            : Def_Rw
 WST    .      -999            : Def_Rwt
 PROV   .                      : Province
 SRVC   .                      : Contractor
 GDAT   .      WGS 84          : Geodatum
 LONG   .      -38.435024444394: Longitude
 LATI   .      0               : Latitude
 COORDIN.                      : Grid System
 XCOORD .                      : X or East-West Coordinate
 YCOORD .                      : Y or North-South Coordinate
~CURVE INFORMATION
#MNEM              UNIT       API CODE   Curve Type Comments
#----------  --------------- ----------  ---------- -----------
 DEPTH      .M                         : Depth       
 BS         .in                        : BitSize     
 CAL        .in                        : Caliper     
 GR         .api                       : GammaRay    
 ILD        .ohmm                      : DeepRes     
 NPHI       .decp                      : Neutron     
 RHOB       .g/cc                      : Density     
 DT         .uspf                      : Sonic       
 DRDN       .                          :             
 Lith_new   .                          :             
~A  DEPTH     BS       CAL        GR       ILD       NPHI      RHOB       DT       DRDN    Lith_new 
# ...
2310.0001    8.5000    8.9265   92.1613    2.3207    0.2152    2.5521  130.7641    3.2154   57.0000 
2310.1001    8.5000    8.9391   89.9714    2.3830    0.2084    2.5558  132.1790    3.0647   57.0000 
2310.2001    8.5000    8.9509   88.2943    2.4583    0.1987    2.5559  132.9631    2.7419   57.0000 
2310.3001    8.5000    8.9684   86.9286    2.5833    0.1975    2.5550  134.7463    2.6839   57.0000 
2310.4001    8.5000    8.9706   87.4941    2.6050    0.1960    2.5538  134.9527    2.6083   57.0000 
2310.5001    8.5000    8.9672   87.3695    2.5940    0.1952    2.5547  135.2469    2.6019   57.0000 
2310.6001    8.5000    8.9444   84.9256    2.4872    0.2046    2.5575  123.4666    2.9689   57.0000 
2310.7001    8.5000    8.9398   84.7771    2.4229    0.2108    2.5588  116.8369    3.2018   57.0000 
2310.8001    8.5000    8.9338   86.2817    2.3680    0.2082    2.5590  110.2728    3.1203   57.0000 
2310.9001    8.5000    8.9360   92.2955    2.2652    0.2088    2.5553   97.2023    3.0661   57.0000 
2311.0001    8.5000    8.9436   94.6003    2.2103    0.2101    2.5500   90.9955    3.0051   57.0000 
2311.1001    8.5000    8.9486   95.9229    2.1454    0.2173    2.5458   91.1944    3.1573   57.0000 
2311.2001    8.5000    8.9566   97.3125    2.0820    0.2281    2.5414   90.5585    3.4307   57.0000 
2311.3001    8.5000    8.9737   99.6078    1.9811    0.2448    2.5337   90.9807    3.8330   57.0000 
2311.4001    8.5000    8.9843  100.0678    1.9477    0.2375    2.5350   91.2192    3.6177   57.0000 
2311.5001    8.5000    8.9931   99.6461    1.9255    0.2358    2.5386   91.6628    3.6323   57.0000 
2311.6001    8.5000    8.9896   99.5263    1.8943    0.2413    2.5515   92.5282    4.0754   57.0000 
2311.7001    8.5000    8.9733   99.4449    1.8725    0.2407    2.5565   93.4025    4.1540   57.0000 
2311.8001    8.5000    8.9471   99.3155    1.8429    0.2549    2.5595   94.3567    4.6851   57.0000 
2311.9001    8.5000    8.9159   99.1430    1.7433    0.2826    2.5574   96.9684    5.5689   57.0000 
2312.0001    8.5000    8.9068   98.8699    1.6791    0.2846    2.5541   97.9847    5.5690   57.0000 
2312.1001    8.5000    8.9083  100.7051    1.6158    0.2830    2.5519   98.8395    5.4710   57.0000 
2312.2001    8.5000    8.8965  103.4557    1.5196    0.2875    2.5474  100.5864    5.5308   57.0000 
2312.3001    8.5000    8.9003  103.7479    1.4915    0.2940    2.5462  101.4469    5.7216   57.0000 
2312.4001    8.5000    8.8980  102.6842    1.4758    0.2916    2.5448  101.6995    5.6168   57.0000 
2312.5001    8.5000    8.9083  102.6554    1.4654    0.2796    2.5394  102.6311    5.1079   57.0000 
2312.6001    8.5000    8.9144  103.7575    1.4644    0.2830    2.5369  103.3429    5.1713   57.0000 
2312.7001    8.5000    8.9140  104.6392    1.4721    0.2958    2.5324  103.8795    5.5071   57.0000 
2312.8001    8.5000    8.9311  104.4140    1.4728    0.2977    2.5284  104.1537    5.4907   57.0000 
2312.9001    8.5000    8.9267  102.8279    1.4816    0.2983    2.5220  104.0101    5.3848   57.0000 
2313.0001    8.5000    8.9270  101.4718    1.4928    0.2863    2.5183  102.9624    4.9119   57.0000 
2313.1001    8.5000    8.9320   99.1047    1.5094    0.2773    2.5158  101.0048    4.5579   57.0000 
2313.2001    8.5000    8.9273   86.7178    1.6057    0.2439    2.5104   94.5977    3.3391   57.0000 
2313.3001    8.5000    8.9227   78.2219    1.7034    0.2247    2.5143   92.0722    2.7756   57.0000 
2313.4001    8.5000    8.9455   71.3791    1.8389    0.1931    2.5194   88.3919    1.8234   57.0000 
2313.5001    8.5000    8.9550   65.5523    2.3041    0.1253    2.5358   79.5226   -0.1081   54.0000 
2313.6001    8.5000    8.9185   63.8703    2.6796    0.1155    2.5441   75.7737   -0.2678   54.0000 
2313.7001    8.5000    8.8988   61.8146    3.1871    0.1159    2.5471   72.7668   -0.1967   54.0000 
2313.8001    8.5000    8.7950   64.3208    4.7673    0.1235    2.5560   78.3421    0.2361   54.0000 
2313.9001    8.5000    8.7745   68.0728    5.9356    0.1292    2.5590   81.0613    0.4858   57.0000 
2314.0001    8.5000    8.7672   71.9014    7.4092    0.1321    2.5630   85.1980    0.6634   57.0000 
2314.1001    8.5000    8.7448   72.8886   10.8079    0.1436    2.5732   96.8322    1.2511   57.0000 
2314.2001    8.5000    8.7471   71.0102   11.9880    0.1517    2.5680  102.7131    1.4162   57.0000 
2314.3001    8.5000    8.7517   68.6382   12.3973    0.1510    2.5583  100.8326    1.1992   57.0000 
2314.4001    8.5000    8.7741   65.8781   12.3023    0.1531    2.5449   99.4565    1.0024   57.0000 
2314.5001    8.5000    8.8201   65.3414   12.2554    0.1613    2.5117   98.5949    0.6103   57.0000 
2314.6001    8.5000    8.8444   68.0440   12.4874    0.1674    2.5038   97.4896    0.6550   57.0000 
2314.7001    8.5000    8.8752   72.9892   12.1172    0.1782    2.5011   96.6565    0.9634   57.0000 
2314.8001    8.5000    8.9064   79.5013    8.1800    0.2174    2.5018   99.2746    2.2834   57.0000 
2314.9001    8.5000    8.9159   78.5685    6.0774    0.2363    2.5022  102.8341    2.9224   57.0000 
2315.0001    8.5000    8.9068   76.8434    4.6325    0.2353    2.5004  105.7432    2.8539   57.0000 
2315.1001    8.5000    8.8767   73.7527    3.3010    0.2117    2.5051  100.6863    2.1564   57.0000 
2315.2001    8.5000    8.8615   74.5178    3.1255    0.2074    2.5098   97.3025    2.1093   57.0000 
2315.3001    8.5000    8.8547   76.6310    3.1554    0.2046    2.5149   93.9054    2.1166   57.0000 
2315.4001    8.5000    8.8737   82.9274    3.4934    0.2347    2.5244   84.6643    3.3111   57.0000 
2315.5001    8.5000    8.8756   87.7241    3.5701    0.2592    2.5217   80.4165    4.0738   57.0000 
2315.6001    8.5000    8.8771   92.8609    3.4670    0.2703    2.5186   82.5191    4.3805   57.0000 
2315.7001    8.5000    8.8874   98.0217    2.9070    0.2651    2.5078   85.5091    3.9931   57.0000 
2315.8001    8.5000    8.8596   99.8378    2.6475    0.2549    2.5030   92.0779    3.5572   57.0000 
2315.9001    8.5000    8.8456   92.5590    2.4810    0.2254    2.5021   92.2942    2.5546   57.0000 
2316.0001    8.5000    8.8406   80.6082    2.4209    0.1928    2.5040   91.4404    1.5067   57.0000 
2316.1001    8.5000    8.8083   54.1892    2.7043    0.1147    2.5181   86.4549   -0.8139   25.0000 
2316.2001    8.5000    8.7999   47.7059    3.1760    0.0942    2.5262   82.3558   -1.3352   49.0000 
2316.3001    8.5000    8.7916   48.0221    3.9975    0.0903    2.5358   77.1921   -1.2744   49.0000 
2316.4001    8.5000    8.7250   60.3515    7.5830    0.1135    2.5490   71.1465   -0.2356   54.0000 
2316.5001    8.5000    8.6931   67.8651    9.0135    0.1365    2.5557   70.4502    0.6648   57.0000 
2316.6001    8.5000    8.6840   74.9730    9.2294    0.1687    2.5620   71.5034    1.8630   57.0000 
2316.7001    8.5000    8.7364   92.8897    8.3137    0.2269    2.5632   76.1691    3.8266   57.0000 
2316.8001    8.5000    8.7809  102.0564    5.9423    0.2471    2.5618   80.5898    4.4732   57.0000 
2316.9001    8.5000    8.8383  106.8962    4.3001    0.2588    2.5567   84.9381    4.7600   57.0000 
2317.0001    8.5000    8.9239  103.4365    2.7451    0.2703    2.5487   93.1790    4.9844   57.0000 
2317.1001    8.5000    8.9436  100.1892    2.4282    0.2731    2.5449   95.6508    5.0011   57.0000 
2317.2001    8.5000    8.9577  100.5965    2.2508    0.2690    2.5435   98.3439    4.8372   57.0000 
2317.3001    8.5000    8.9562  103.8741    2.1392    0.2697    2.5439   99.9685    4.8663   57.0000 
2317.4001    8.5000    8.9482  108.4455    2.1502    0.2800    2.5434  100.5950    5.2019   57.0000 
2317.5001    8.5000    8.9341  107.9999    2.1761    0.2752    2.5460  100.4563    5.0921   57.0000 
2317.6001    8.5000    8.9208  105.3165    2.2064    0.2732    2.5471  100.9283    5.0485   57.0000 
2317.7001    8.5000    8.9018  101.7018    2.2531    0.2732    2.5486  101.7803    5.0786   57.0000 
2317.8001    8.5000    8.8912  102.7129    2.2658    0.2755    2.5478  101.8358    5.1379   57.0000 
2317.9001    8.5000    8.8855  105.3740    2.2703    0.2829    2.5456  101.8104    5.3436   57.0000 
