~VERSION INFORMATION
 VERS.                 2.0:   CWLS LOG ASCII STANDARD - VERSION 2.0
 WRAP.                  NO:   SINGLE LINE PER DEPTH STEP
 CREA.                 06/02/2020 16:08:49
#CREATED USING IP VERSION 4.5.2019.2902 BY RMOTA ON 06/02/2020 16:08:49
~WELL INFORMATION
#MNEM.UNIT       DATA                          DESCRIPTION MNEMONIC
#---------      ---------------------------   --------------------------
 STRT    .M         -0.4572                   : START DEPTH
 STOP    .M         3564.6360                 : STOP DEPTH
 STEP    .M         0.1524                    : STEP VALUE
 NULL    .      -999.0000                     : NULL VALUE
 DATE    .      06/02/2020                    : LAS file Creation Date
 WELL   .      7-MP-28D-BA        : Well Name
 COMP   .      PETROBRAS          : Company
 FLD    .      MASSAPE            : Field
 STATE  .      BAHIA              : State
 COUNT  .      BRASIL             : Country
 API    .      20240021354        : API Number
 UWI    .                         : Unique Well Identifier (UWI)
 LOC    .      N= 8.609.866,070 m : Location
 TOWN   .      CATU               : Township
 SCT    .      OH WIRELINE        : Section
 RANG   .      SCHLUMBERGER       : Range
 PDAT   .      NM                 : Permanent Datum
 EPDAT  .      0                  : Elevation of Permanent Datum
 LGMEA  .      MR                 : Log Measured from
 DRMEA  .      MR                 : Drill Measured From
 APDAT  .      105.72             : Elevation Above Permanent Datum
 KB     .      106.02             : KB Elevation
 DF     .      105.72             : DF Elevation
 GL     .      96.31999           : GL Elevation
 RWS    .      -999               : Def_Rw
 WST    .      -999               : Def_Rwt
 BHS    .      OPEN               : Completion Status
 PROV   .                         : Province
 SRVC   .                         : Contractor
 GDAT   .      WGS 84             : Geodatum
 LONG   .      -38.4270011107127  : Longitude
 LATI   .      -12.5743130556742  : Latitude
 COORDIN.                         : Grid System
 XCOORD .                         : X or East-West Coordinate
 YCOORD .                         : Y or North-South Coordinate
~CURVE INFORMATION
#MNEM              UNIT       API CODE   Curve Type Comments
#----------  --------------- ----------  ---------- -----------
 DEPTH      .M                         : Depth       
 BS         .in                        : BitSize     
 GR         .gAPI                      : GammaRay    
 CAL        .in                        : Caliper     
 RT         .ohm.m                     : DeepRes     
 NPHI       .m3/m3                     : Neutron     
 RHOB       .g/cm3                     :             
 DT         .us/ft                     : Sonic       
 SP         .mV                        : SP          Loaded from DLIS: 7-mp-28d-ba_raw-2p.dlis
 DRDN       .                          :             
 Lith_new   .                          :             
~A  DEPTH     BS        GR       CAL        RT       NPHI      RHOB       DT        SP       DRDN    Lith_new 
# ...
2035.4544    8.5000   92.8474    8.4113    2.2714    0.3334    2.5419   87.4997 -999.0000    6.9248   57.0000 
2035.6068    8.5000   97.7515    8.4567    2.3389    0.3100    2.5427   86.0361 -999.0000    6.2108   57.0000 
2035.7592    8.5000   92.0930    8.5703    2.4291    0.2729    2.5439   82.4742 -999.0000    4.9669   57.0000 
2035.9116    8.5000   90.6870    8.5476    2.6362    0.2419    2.5465   81.9670 -999.0000    4.0558   57.0000 
2036.0640    8.5000   82.5554    8.4454    3.2298    0.2237    2.5666   79.0419 -999.0000    3.9944   57.0000 
2036.2164    8.5000   82.3412    8.4794    4.0628    0.2011    2.5951   75.5433 -999.0000    3.7869   57.0000 
2036.3688    8.5000   77.5001    8.4340    4.9629    0.1807    2.6220   72.0887 -999.0000    3.6056   57.0000 
2036.5212    8.5000   79.1648    8.4794    6.1247    0.1349    2.6375   67.6570 -999.0000    2.3489   57.0000 
2036.6736    8.5000   76.7518    8.5022    8.3723    0.1050    2.6543   62.5865 -999.0000    1.6766   57.0000 
2036.8260    8.5000   78.1638    8.5476   15.1925    0.0829    2.6648   61.8087 -999.0000    1.1238   57.0000 
2036.9784    8.5000   73.6751    8.5476   25.4090    0.0884    2.6705   63.2356 -999.0000    1.3362   57.0000 
2037.1308    8.5000   72.2605    8.5362   27.5329    0.1007    2.6649   63.9938 -999.0000    1.6043   57.0000 
2037.2832    8.5000   72.5079    8.4794   23.2261    0.1153    2.6548   66.0506 -999.0000    1.8364   57.0000 
2037.4356    8.5000   71.0467    8.5022   11.9155    0.1211    2.6369   70.6709 -999.0000    1.6410   57.0000 
2037.5880    8.5000   71.6529    8.5135    8.0887    0.1535    2.6168   77.6210 -999.0000    2.3171   57.0000 
2037.7404    8.5000   73.6244    8.4567    7.2683    0.1911    2.5983   80.0284 -999.0000    3.2364   57.0000 
2037.8928    8.5000   81.1370    8.5022    5.6033    0.2194    2.5900   79.8729 -999.0000    4.1064   57.0000 
2038.0452    8.5000   81.1370    8.6612    4.2064    0.2173    2.5950   76.0292 -999.0000    4.2256   57.0000 
2038.1976    8.5000   80.3781    8.6612    4.4319    0.2126    2.6040   76.1394 -999.0000    4.1919   57.0000 
2038.3500    8.5000   82.1872    8.6384    4.8260    0.2064    2.6031   78.0464 -999.0000    3.9219   57.0000 
2038.5024    8.5000   84.6123    8.5703    5.6251    0.2066    2.6021   75.7087 -999.0000    3.9289   57.0000 
2038.6548    8.5000   87.8457    8.5476    6.0945    0.2056    2.6038   77.0862 -999.0000    3.9670   57.0000 
2038.8072    8.5000   87.0452    8.7066    6.4201    0.2096    2.6086   78.7292 -999.0000    4.1448   57.0000 
2038.9596    8.5000   85.3787    8.6157    6.6234    0.2072    2.5987   76.9790 -999.0000    3.7903   57.0000 
2039.1120    8.5000   87.5438    8.6384    6.5802    0.2154    2.5893   80.0746 -999.0000    3.9181   57.0000 
2039.2644    8.5000   82.9044    8.7407    6.3149    0.2265    2.5816   83.0898 -999.0000    4.1352   57.0000 
2039.4168    8.5000   86.7940    8.7975    5.7763    0.2404    2.5743   85.4919 -999.0000    4.4465   57.0000 
2039.5692    8.5000   87.2560    8.7293    5.4348    0.2598    2.5680   85.4436 -999.0000    4.9952   57.0000 
2039.7216    8.5000   94.7194    8.5703    4.4803    0.2655    2.5652   85.4932 -999.0000    5.1443   57.0000 
2039.8740    8.5000   95.8727    8.5703    3.8574    0.2724    2.5642   84.7979 -999.0000    5.3513   57.0000 
2040.0264    8.5000   99.7124    8.5476    3.7080    0.3042    2.5590   84.5812 -999.0000    6.2707   57.0000 
2040.1788    8.5000   94.3171    8.6384    3.6279    0.2904    2.5571   84.9954 -999.0000    5.8669   57.0000 
2040.3312    8.5000   93.1068    8.7293    3.3476    0.2884    2.5678   84.8443 -999.0000    6.0606   57.0000 
2040.4836    8.5000   87.5945    8.9110    3.4795    0.2442    2.5818   83.6115 -999.0000    4.8675   57.0000 
2040.6360    8.5000   93.3516    9.0133    3.9438    0.2571    2.5896   84.2943 -999.0000    5.3510   57.0000 
2040.7884    8.5000   90.1241    9.0246    4.4243    0.2476    2.5801   85.9564 -999.0000    4.7605   57.0000 
2040.9408    8.5000   87.3508    9.0700    4.1164    0.2549    2.5693   87.0245 -999.0000    4.8376   57.0000 
2041.0932    8.5000   85.2313    9.2063    3.5783    0.2521    2.5660   86.0631 -999.0000    4.7323   57.0000 
2041.2456    8.5000   86.6433    9.2177    3.2475    0.2709    2.5701   86.7947 -999.0000    5.4613   57.0000 
2041.3980    8.5000   97.6870    9.2518    3.1474    0.2788    2.5720   88.6127 -999.0000    5.7331   57.0000 
2041.5504    8.5000   98.5495    9.0473    3.2568    0.2940    2.5701   88.6429 -999.0000    6.1701   57.0000 
2041.7028    8.5000  102.1803    8.9565    2.9115    0.2946    2.5666   93.1884 -999.0000    6.1584   57.0000 
2041.8552    8.5000   97.4015    8.8883    2.5059    0.3008    2.5696   92.4160 -999.0000    6.4309   57.0000 
2042.0076    8.5000   97.5495    8.9224    2.1919    0.2941    2.5667   92.0441 -999.0000    6.1029   57.0000 
2042.1600    8.5000   96.9443    9.0928    2.0138    0.2989    2.5641   93.0564 -999.0000    6.2364   57.0000 
2042.3124    8.5000   99.3026    9.1836    1.9336    0.2875    2.5603   93.8953 -999.0000    5.7553   57.0000 
2042.4648    8.5000   98.1284    9.2290    1.8977    0.2981    2.5573   95.1835 -999.0000    6.0625   57.0000 
2042.6172    8.5000  102.3644    9.1836    1.8584    0.2884    2.5536   95.9426 -999.0000    5.6604   57.0000 
2042.7696    8.5000   93.4890    9.1836    1.8132    0.2984    2.5450   96.4276 -999.0000    5.7187   57.0000 
2042.9220    8.5000   96.8861    9.1495    1.8105    0.2978    2.5224   95.4615 -999.0000    5.2522   57.0000 
2043.0744    8.5000   95.5388    9.1155    1.8288    0.3405    2.5097   94.3628 -999.0000    6.4751   57.0000 
2043.2268    8.5000   99.9764    9.1155    1.7964    0.3368    2.4991   96.5734 -999.0000    6.2131   57.0000 
2043.3792    8.5000   99.7109    9.1836    1.8015    0.3385    2.5105   95.8284 -999.0000    6.5810   57.0000 
2043.5316    8.5000   94.8607    9.2745    1.8126    0.2870    2.5201   91.0255 -999.0000    5.0631   57.0000 
2043.6840    8.5000   96.7589    9.2972    1.8350    0.2952    2.5418   89.7580 -999.0000    5.8118   57.0000 
2043.8364    8.5000   92.3764    9.2290    1.8611    0.2743    2.5389   94.0627 -999.0000    4.6910   57.0000 
2043.9888    8.5000   96.0140    9.2290    1.9122    0.2612    2.4813   99.4716 -999.0000    2.7723   57.0000 
2044.1412    8.5000   93.3090    9.2858    2.0012    0.2391    2.3872   96.1858 -999.0000    0.0067   54.0000 
2044.2936    8.5000  101.1206    9.4335    2.0536    0.2674    2.2878   94.9330 -999.0000   -0.8104   25.0000 
2044.4460    8.5000   94.0474    9.5471    2.0594    0.3541    2.2496   94.6493 -999.0000    1.6889   57.0000 
2044.5984    8.5000   96.9317    9.6833    2.0442    0.3913    2.2323   92.2795 -999.0000    2.6610   57.0000 
2044.7508    8.5000   92.1515    9.6038    2.0346    0.3647    2.2490   98.7201 -999.0000    2.3188   57.0000 
2044.9032    8.5000  101.4476    9.7061    2.0154    0.3123    2.2589  107.1005 -999.0000    0.5678   57.0000 
2045.0556    8.5000   99.1685    9.7969    2.0208    0.3213    2.2649   91.2287 -999.0000    1.0899   57.0000 
2045.2080    8.5000   99.9145    9.7515    2.0425    0.3849    2.2733   88.6234 -999.0000    3.3668   57.0000 
2045.3604    8.5000   96.0748    9.7061    2.0017    0.4298    2.3080   82.6521 -999.0000    5.9227   57.0000 
2045.5128    8.5000   94.9204    9.6152    1.9258    0.4189    2.3767   84.3574 -999.0000    6.9421   57.0000 
2045.6652    8.5000   95.7273    9.5925    1.8097    0.3984    2.4368   92.9338 -999.0000    7.3422   57.0000 
2045.8176    8.5000   99.5005    9.5698    1.7022    0.3499    2.4718   95.6654 -999.0000    6.2385   57.0000 
2045.9700    8.5000  106.2216    9.5243    1.7085    0.3432    2.4880   96.7166 -999.0000    6.2731   57.0000 
2046.1224    8.5000  102.3891    9.4789    1.7540    0.3510    2.4994   93.9735 -999.0000    6.7826   57.0000 
2046.2748    8.5000  100.0305    9.4221    1.8198    0.3294    2.5161   91.3926 -999.0000    6.4098   57.0000 
2046.4272    8.5000   96.9470    9.3313    1.8647    0.2884    2.5343   90.7457 -999.0000    5.4613   57.0000 
