~VERSION INFORMATION
 VERS.                 2.0:   CWLS LOG ASCII STANDARD - VERSION 2.0
 WRAP.                  NO:   SINGLE LINE PER DEPTH STEP
 CREA.                 06/02/2020 16:44:49
#CREATED USING IP VERSION 4.5.2019.2902 BY RMOTA ON 06/02/2020 16:44:49
~WELL INFORMATION
#MNEM.UNIT       DATA                          DESCRIPTION MNEMONIC
#---------      ---------------------------   --------------------------
 STRT    .M         1550.0001                 : START DEPTH
 STOP    .M         2926.1001                 : STOP DEPTH
 STEP    .M         0.1000                    : STEP VALUE
 NULL    .      -999.0000                     : NULL VALUE
 DATE    .      06/02/2020                    : LAS file Creation Date
 WELL   .      7-MP-47DP-BA    : Well Name
 COMP   .      PETROBRAS       : Company
 FLD    .      MASSAPE         : Field
 STATE  .      BAHIA           : State
 API    .      20240025025     : API Number
 UWI    .                      : Unique Well Identifier (UWI)
 LOC    .      20240025025     : Location
 PDAT   .      NM              : Permanent Datum
 EPDAT  .      0.0             : Elevation of Permanent Datum
 LGMEA  .      MR              : Log Measured from
 DRMEA  .      MR              : Drill Measured From
 APDAT  .      65.68           : Elevation Above Permanent Datum
 KB     .      -999.25         : KB Elevation
 DF     .      65.68           : DF Elevation
 GL     .      56.28           : GL Elevation
 RWS    .      -999            : Def_Rw
 WST    .      -999            : Def_Rwt
 PROV   .                      : Province
 SRVC   .                      : Contractor
 GDAT   .      WGS 84          : Geodatum
 LONG   .      -38.435024444394: Longitude
 LATI   .      0               : Latitude
 COORDIN.                      : Grid System
 XCOORD .                      : X or East-West Coordinate
 YCOORD .                      : Y or North-South Coordinate
~CURVE INFORMATION
#MNEM              UNIT       API CODE   Curve Type Comments
#----------  --------------- ----------  ---------- -----------
 DEPTH      .M                         : Depth       
 BS         .in                        : BitSize     
 CAL        .in                        : Caliper     
 GR         .api                       : GammaRay    
 ILD        .ohmm                      : DeepRes     
 NPHI       .decp                      : Neutron     
 RHOB       .g/cc                      : Density     
 DT         .uspf                      : Sonic       
 DRDN       .                          :             
 Lith_new   .                          :             
~A  DEPTH     BS       CAL        GR       ILD       NPHI      RHOB       DT       DRDN    Lith_new 
# ...
2054.0001    8.5000    8.9325   98.5648    3.3323    0.2109    2.5448   85.3864    2.9246   57.0000 
2054.1001    8.5000    8.9220   99.4353    3.2836    0.2126    2.5434   85.8379    2.9527   57.0000 
2054.2001    8.5000    8.9166  102.1044    3.2600    0.2144    2.5386   86.2714    2.9201   57.0000 
2054.3001    8.5000    8.9164  100.0391    3.3227    0.2127    2.5378   85.8797    2.8470   57.0000 
2054.4001    8.5000    8.9122   96.5219    3.4167    0.2069    2.5388   85.3458    2.6715   57.0000 
2054.5001    8.5000    8.9267   86.7657    3.6160    0.1972    2.5490   84.5232    2.5548   57.0000 
2054.6001    8.5000    8.9231   83.5312    3.6784    0.1972    2.5566   84.1193    2.7065   57.0000 
2054.7001    8.5000    8.9284   82.3668    3.6784    0.1993    2.5612   83.8968    2.8656   57.0000 
2054.8001    8.5000    8.9292   86.6699    3.4539    0.2098    2.5675   84.6444    3.3442   57.0000 
2054.9001    8.5000    8.9378   91.1598    3.2369    0.2167    2.5638   85.2950    3.4977   57.0000 
2055.0001    8.5000    8.9439   95.7216    2.9788    0.2187    2.5597   86.2307    3.4844   57.0000 
2055.1001    8.5000    8.9581  100.2739    2.4929    0.2277    2.5506   88.8028    3.6020   57.0000 
2055.2001    8.5000    8.9614   99.4545    2.3126    0.2298    2.5477   90.0749    3.6148   57.0000 
2055.3001    8.5000    8.9599   98.1559    2.1844    0.2378    2.5474   90.6196    3.8762   57.0000 
2055.4001    8.5000    8.9659   96.9340    2.0615    0.2516    2.5456   91.5349    4.2978   57.0000 
2055.5001    8.5000    8.9628   96.0475    2.0555    0.2508    2.5454   92.9961    4.2682   57.0000 
2055.6001    8.5000    8.9628   96.8621    2.0788    0.2531    2.5453   92.8175    4.3419   57.0000 
2055.7001    8.5000    8.9595   98.5057    2.1260    0.2445    2.5439   92.3033    4.0286   57.0000 
2055.8001    8.5000    8.9501  101.1220    2.2536    0.2306    2.5443   90.9651    3.5721   57.0000 
2055.9001    8.5000    8.9486  101.0118    2.3131    0.2288    2.5441   90.3907    3.5110   57.0000 
2056.0001    8.5000    8.9497   99.7036    2.3550    0.2312    2.5444   89.5788    3.5937   57.0000 
2056.1001    8.5000    8.9615   99.1909    2.3518    0.2262    2.5483   89.1789    3.5052   57.0000 
2056.2001    8.5000    8.9615  100.2739    2.3148    0.2263    2.5497   89.5038    3.5376   57.0000 
2056.3001    8.5000    8.9668  100.8345    2.2677    0.2325    2.5504   90.0478    3.7569   57.0000 
2056.4001    8.5000    8.9752  101.0597    2.1736    0.2416    2.5465   91.0318    3.9821   57.0000 
2056.5001    8.5000    8.9820  100.2116    2.1370    0.2490    2.5436   91.8328    4.1720   57.0000 
2056.6001    8.5000    8.9800   99.6845    2.1062    0.2619    2.5390   92.8025    4.5079   57.0000 
2056.7001    8.5000    8.9808   97.8684    2.0466    0.2658    2.5300   94.5298    4.4594   57.0000 
2056.8001    8.5000    8.9773   97.2646    2.0118    0.2673    2.5243   94.9551    4.3959   57.0000 
2056.9001    8.5000    8.9652   97.0058    1.9770    0.2702    2.5200   95.6464    4.4071   57.0000 
2057.0001    8.5000    8.9714   97.8540    1.9163    0.2721    2.5237   96.4105    4.5416   57.0000 
2057.1001    8.5000    8.9733   99.8666    1.8955    0.2715    2.5303   97.3522    4.6579   57.0000 
2057.2001    8.5000    8.9753   99.8762    1.8856    0.2730    2.5384   97.4030    4.8684   57.0000 
2057.3001    8.5000    8.9829   98.9178    1.8819    0.2734    2.5440   97.3932    4.9918   57.0000 
2057.4001    8.5000    8.9795  101.0597    1.8812    0.2751    2.5378   97.1013    4.9252   57.0000 
2057.5001    8.5000    8.9765  103.4892    1.8730    0.2631    2.5295   96.7228    4.3590   57.0000 
2057.6001    8.5000    8.9760  105.6791    1.8629    0.2598    2.5201   96.3649    4.0633   57.0000 
2057.7001    8.5000    8.9718  106.1774    1.8395    0.2772    2.5111   95.9154    4.4622   57.0000 
2057.8001    8.5000    8.9763  106.7812    1.8358    0.2791    2.5101   96.1454    4.5053   57.0000 
2057.9001    8.5000    8.9767  106.0768    1.8304    0.2827    2.5108   96.7386    4.6382   57.0000 
2058.0001    8.5000    8.9871  105.8947    1.8370    0.2920    2.5115   98.1763    4.9625   57.0000 
2058.1001    8.5000    8.9867  106.1199    1.8428    0.2927    2.5090   98.8224    4.9361   57.0000 
2058.2001    8.5000    8.9844  106.7476    1.8414    0.2931    2.5086   99.7363    4.9426   57.0000 
2058.3001    8.5000    8.9795  105.7414    1.8136    0.3035    2.5081  101.4618    5.2780   57.0000 
2058.4001    8.5000    8.9558  104.5769    1.7918    0.3089    2.5054  102.0772    5.4032   57.0000 
2058.5001    8.5000    8.9311  105.1759    1.7688    0.3064    2.5069  102.3721    5.3534   57.0000 
2058.6001    8.5000    8.9022  104.3757    1.7241    0.3122    2.5067  102.5700    5.5426   57.0000 
2058.7001    8.5000    8.8505  104.5865    1.7112    0.2938    2.4980  102.4557    4.7513   57.0000 
2058.8001    8.5000    8.8338  102.6985    1.6953    0.2828    2.4964  102.3406    4.3544   57.0000 
2058.9001    8.5000    8.8319  101.8791    1.6836    0.2839    2.4923  102.0925    4.3094   57.0000 
2059.0001    8.5000    8.8383  100.9926    1.6806    0.2878    2.4897  101.8813    4.3861   57.0000 
2059.1001    8.5000    8.8437  102.0405    1.6888    0.2915    2.4933  101.7534    4.5841   57.0000 
2059.2001    8.5000    8.8573  103.0467    1.7004    0.2846    2.4967  101.7326    4.4211   57.0000 
2059.3001    8.5000    8.8414  103.5163    1.7417    0.2840    2.4971  101.9350    4.4090   57.0000 
2059.4001    8.5000    8.8376  106.7269    1.7647    0.2821    2.4938  101.8188    4.2780   57.0000 
2059.5001    8.5000    8.8418  111.4117    1.7937    0.2702    2.4870  101.9029    3.7468   57.0000 
2059.6001    8.5000    8.8516  123.1613    1.8689    0.2886    2.4663  101.7936    3.9460   57.0000 
2059.7001    8.5000    8.8599  124.2011    1.9237    0.2976    2.4567  101.7476    4.0550   57.0000 
2059.8001    8.5000    8.8587  123.8992    1.9971    0.2937    2.4486  101.7412    3.7623   57.0000 
2059.9001    8.5000    8.8587  116.3633    2.2080    0.2857    2.4441  101.0750    3.4053   57.0000 
2060.0001    8.5000    8.8416  112.3301    2.3629    0.2822    2.4521   99.9651    3.4500   57.0000 
2060.1001    8.5000    8.8464  106.7668    2.5603    0.2813    2.4654   98.6748    3.6841   57.0000 
2060.2001    8.5000    8.8409  100.2643    3.0859    0.2683    2.4800   97.5754    3.5414   57.0000 
2060.3001    8.5000    8.8728   90.9697    3.3611    0.2481    2.5014   95.4590    3.2976   57.0000 
2060.4001    8.5000    8.9036   93.4343    3.5599    0.2422    2.4995   94.5120    3.0636   57.0000 
2060.5001    8.5000    8.9293  100.3346    3.6137    0.2421    2.4893   94.3858    2.8550   57.0000 
2060.6001    8.5000    8.9668  114.0488    3.3290    0.2652    2.4586   95.9530    3.0121   57.0000 
2060.7001    8.5000    8.9893  115.5055    3.1289    0.2805    2.4440   97.2160    3.2288   57.0000 
2060.8001    8.5000    8.9858  114.2532    2.9716    0.2844    2.4314   98.4078    3.1062   57.0000 
2060.9001    8.5000    8.9904  113.0090    2.8867    0.2914    2.4140  101.2035    2.9943   57.0000 
2061.0001    8.5000    8.9908  113.4786    2.9823    0.2876    2.4049  102.1302    2.6848   57.0000 
2061.1001    8.5000    8.9794  112.9147    3.1864    0.3008    2.3986  102.5554    2.9985   57.0000 
2061.2001    8.5000    8.9920  106.6183    3.9377    0.2935    2.3970  101.2181    2.7225   57.0000 
2061.3001    8.5000    8.9932  104.6680    4.4894    0.2828    2.4029  100.3282    2.4841   57.0000 
2061.4001    8.5000    9.0004  103.5515    5.1023    0.2696    2.4127   99.3135    2.2385   57.0000 
2061.5001    8.5000    9.0284  103.5994    6.0966    0.2586    2.4323   97.7027    2.2649   57.0000 
2061.6001    8.5000    9.0260  102.7656    6.0851    0.2554    2.4431   97.3397    2.3747   57.0000 
2061.7001    8.5000    9.0302  103.1394    5.6464    0.2614    2.4537   97.6852    2.7886   57.0000 
2061.8001    8.5000    9.0393  103.2544    4.3720    0.2633    2.4662   97.1249    3.1014   57.0000 
2061.9001    8.5000    9.0440   98.3124    3.9228    0.2521    2.5070   94.7513    3.5437   57.0000 
