~VERSION INFORMATION
 VERS.                 2.0:   CWLS LOG ASCII STANDARD - VERSION 2.0
 WRAP.                  NO:   SINGLE LINE PER DEPTH STEP
 CREA.                 06/02/2020 16:35:30
#CREATED USING IP VERSION 4.5.2019.2902 BY RMOTA ON 06/02/2020 16:35:30
~WELL INFORMATION
#MNEM.UNIT       DATA                          DESCRIPTION MNEMONIC
#---------      ---------------------------   --------------------------
 STRT    .M         15.6972                   : START DEPTH
 STOP    .M         2951.2260                 : STOP DEPTH
 STEP    .M         0.1524                    : STEP VALUE
 NULL    .      -999.0000                     : NULL VALUE
 DATE    .      06/02/2020                    : LAS file Creation Date
 WELL   .      7-MP-36D-BA       : Well Name
 COMP   .      PETROBRAS         : Company
 FLD    .      MASSAPE           : Field
 STATE  .      20240022534       : State
 COUNT  .      BRASIL            : Country
 API    .      20240022534       : API Number
 UWI    .                        : Unique Well Identifier (UWI)
 LOC    .      N= 8607444.13 M   : Location
 PDAT   .      NM                : Permanent Datum
 EPDAT  .      0                 : Elevation of Permanent Datum
 LGMEA  .      MR                : Log Measured from
 DRMEA  .      MR                : Drill Measured From
 APDAT  .      65.81             : Elevation Above Permanent Datum
 KB     .      66.11             : KB Elevation
 DF     .      65.81             : DF Elevation
 GL     .      56.41             : GL Elevation
 RWS    .      -999              : Def_Rw
 WST    .      -999              : Def_Rwt
 BHS    .      OPEN              : Completion Status
 PROV   .                        : Province
 SRVC   .                        : Contractor
 GDAT   .      WGS 84            : Geodatum
 LONG   .      -38.4351329444514 : Longitude
 LATI   .      -12.5962309720781 : Latitude
 COORDIN.                        : Grid System
 XCOORD .                        : X or East-West Coordinate
 YCOORD .                        : Y or North-South Coordinate
~CURVE INFORMATION
#MNEM              UNIT       API CODE   Curve Type Comments
#----------  --------------- ----------  ---------- -----------
 DEPTH      .M                         : Depth       
 BS         .in                        : BitSize     Loaded from DLIS: 7-mp-36d-ba_raw-1.dlis
 DCAL       .in                        :             Loaded from DLIS: 7-mp-36d-ba_raw-1.dlis
 GR         .gAPI                      : GammaRay    Loaded from DLIS: 7-mp-36d-ba_raw-1.dlis
 RT         .ohm.m                     : DeepRes     Loaded from DLIS: 7-mp-36d-ba_raw-1.dlis
 NPHI       .m3/m3                     : Neutron     Loaded from DLIS: 7-mp-36d-ba_raw-1.dlis
 RHOB       .g/cm3                     : Density     Loaded from DLIS: 7-mp-36d-ba_raw-1.dlis
 DT         .us/ft                     : Sonic       Loaded from DLIS: 7-mp-36d-ba_raw-1.dlis
 SP         .mV                        : SP          Loaded from DLIS: 7-mp-36d-ba_raw-1.dlis
 DRDN       .                          :             
 Lith_new   .                          :             
~A  DEPTH     BS       DCAL       GR        RT       NPHI      RHOB       DT        SP       DRDN    Lith_new 
# ...
1773.4788    8.5000    0.9198  104.6887    3.0879    0.3442    2.4503  101.7950  268.6250    5.4913   57.0000 
1773.6312    8.5000    0.9674  104.6887    3.3318    0.3528    2.4485  104.9845  268.7500    5.7084   57.0000 
1773.7836    8.5000    0.9674  101.9051    3.5726    0.4009    2.4483  107.3035  268.8125    7.3443   57.0000 
1773.9360    8.5000    0.7533  102.1143    3.7913    0.4239    2.4495  108.8329  269.0625    8.1467   57.0000 
1774.0884    8.5000    0.8009  103.6677    3.9293    0.4223    2.4578  106.4939  269.1250    8.3062   57.0000 
1774.2408    8.5000    0.8841  108.4543    4.0368    0.3857    2.4632  102.3912  269.1250    7.0868   57.0000 
1774.3932    8.5000    0.9674  105.3163    3.8290    0.3606    2.4536   99.8533  269.3750    6.0230   57.0000 
1774.5456    8.5000    1.0150  105.8730    3.4680    0.3583    2.4448  100.0903  269.5000    5.7821   57.0000 
1774.6980    8.5000    1.0626  100.7690    3.0623    0.3667    2.4414   99.3491  269.4375    6.1110   57.0000 
1774.8504    8.5000    1.1815  100.2907    2.5050    0.3415    2.4591   98.4527  269.3750    5.7087   57.0000 
1775.0028    8.5000    1.1815   91.2771    2.1189    0.3146    2.4792   97.1220  269.4375    5.1992   57.0000 
1775.1552    8.5000    1.2172   86.2130    2.0054    0.3097    2.4994   94.3189  269.3125    5.4369   57.0000 
1775.3076    8.5000    1.3005   84.5992    1.9754    0.3155    2.5151   92.9673  269.3125    5.9012   57.0000 
1775.4600    8.5000    1.3719   93.1151    1.9747    0.3321    2.5283   92.2856  269.3750    6.7084   57.0000 
1775.6124    8.5000    1.3600   89.0142    1.9785    0.3249    2.5367   91.0953  269.3125    6.6060   57.0000 
1775.7648    8.5000    1.3362   87.6772    1.9853    0.3192    2.5412   91.5312  269.0000    6.4764   57.0000 
1775.9172    8.5000    1.2767   84.1222    1.9886    0.3195    2.5405   91.0566  268.8125    6.4643   57.0000 
1776.0696    8.5000    1.3005   86.7815    1.9983    0.3182    2.5435   89.2485  268.5000    6.5197   57.0000 
1776.2220    8.5000    1.3124   91.1940    2.0080    0.3073    2.5478   88.9202  268.1875    6.1846   57.0000 
1776.3744    8.5000    1.2767   79.5386    2.0639    0.2936    2.5477   88.1205  268.4375    5.8024   57.0000 
1776.5268    8.5000    1.2767   85.1149    2.0905    0.2860    2.5502   87.8099  268.6875    5.4707   57.0000 
1776.6792    8.5000    1.2767   81.5652    2.0136    0.2757    2.5443   89.1706  268.8750    5.1069   57.0000 
1776.8316    8.5000    1.2648   94.7309    1.9599    0.2837    2.5425   92.2387  269.1875    5.2151   57.0000 
1776.9840    8.5000    1.2291   91.7155    1.8845    0.3089    2.5362   92.1245  269.3125    6.0572   57.0000 
1777.1364    8.5000    1.2767   89.2610    1.8449    0.3273    2.5401   91.7425  269.3750    6.6888   57.0000 
1777.2888    8.5000    1.2767   89.6327    1.9281    0.3152    2.5408   91.6283  269.3125    6.3633   57.0000 
1777.4412    8.5000    1.3005   89.2151    2.0259    0.2824    2.5480   91.7654  269.0625    5.4239   57.0000 
1777.5936    8.5000    1.2172   94.1527    1.9521    0.2566    2.5552   92.1954  269.0000    4.7124   57.0000 
1777.7460    8.5000    1.1340   88.0945    1.9046    0.2606    2.5600   91.5364  268.6875    4.8450   57.0000 
1777.8984    8.5000    1.1696   90.2263    1.8937    0.2957    2.5400   91.6229  268.7500    5.4733   57.0000 
1778.0508    8.5000    1.1815   83.9847    1.8879    0.3360    2.5224   92.5760  268.6250    6.6253   57.0000 
1778.2032    8.5000    1.1340   88.6391    1.8778    0.3569    2.5246   91.7665  268.6250    7.4676   57.0000 
1778.3556    8.5000    1.0626   91.0555    1.8609    0.3490    2.5408   93.3811  268.3750    7.5169   57.0000 
1778.5080    8.5000    1.1577   96.3678    1.8246    0.3413    2.5409   92.1178  268.1250    7.1365   57.0000 
1778.6604    8.5000    1.0150   97.1424    1.8661    0.3197    2.5336   91.2119  268.0000    6.2953   57.0000 
1778.8128    8.5000    0.9436   93.4249    1.9085    0.3014    2.5364   91.7145  267.9375    5.8798   57.0000 
1778.9652    8.5000    0.9317   95.2121    1.8993    0.2941    2.5500   91.2359  268.0000    5.8464   57.0000 
1779.1176    8.5000    0.9912   90.2006    1.8886    0.3019    2.5507   91.7095  267.9375    6.0522   57.0000 
1779.2700    8.5000    1.0864   93.2277    1.8755    0.3277    2.5433   89.8820  268.0625    6.6962   57.0000 
1779.4224    8.5000    1.2053   95.3158    1.8993    0.3286    2.5303   90.9547  268.1250    6.4919   57.0000 
1779.5748    8.5000    1.2172   98.2391    1.8626    0.3349    2.5254   90.9873  268.1250    6.6814   57.0000 
1779.7272    8.5000    1.1815   97.8144    1.8173    0.3472    2.5349   90.7258  268.0625    7.3852   57.0000 
1779.8796    8.5000    1.0864   99.2760    1.8237    0.3554    2.5491   94.8153  268.0000    7.8430   57.0000 
1780.0320    8.5000    1.0507   98.8334    1.8277    0.3668    2.5460   94.2221  267.7500    8.0964   57.0000 
1780.1844    8.5000    1.0150   95.4004    1.8506    0.3539    2.5359   95.3590  267.6250    7.3543   57.0000 
1780.3368    8.5000    1.1340   91.7914    1.8351    0.3570    2.5113   97.0832  267.6250    7.0642   57.0000 
1780.4892    8.5000    1.2053   95.3662    1.8387    0.3521    2.5212   94.9103  267.5625    7.2560   57.0000 
1780.6416    8.5000    1.1340   99.7512    1.9062    0.3231    2.5274   91.8118  267.3125    6.4180   57.0000 
1780.7940    8.5000    0.9912   98.0232    1.9383    0.3196    2.5446   92.0545  267.4375    6.5843   57.0000 
1780.9464    8.5000    0.9198   97.7942    1.9152    0.3418    2.5209   93.2630  267.3750    6.5221   57.0000 
1781.0988    8.5000    0.8484   95.5536    1.9250    0.3571    2.4828   91.2961  267.3125    6.3644   57.0000 
1781.2512    8.5000    0.8484   92.1206    2.2335    0.2980    2.4692   86.0718  267.3125    4.4692   57.0000 
1781.4036    8.5000    0.8484   89.5183    2.7354    0.2249    2.5200   81.4023  267.4375    3.3663   57.0000 
1781.5560    8.5000    0.7652   88.8355    2.8677    0.2063    2.5675   78.9222  267.4375    3.3809   57.0000 
1781.7084    8.5000    0.7295   94.8709    2.4521    0.2443    2.5732   81.9546  267.4375    4.4332   57.0000 
1781.8608    8.5000    0.7771   98.9550    2.1196    0.2913    2.5369   88.2303  267.7500    5.2080   57.0000 
1782.0132    8.5000    0.6819  103.9004    2.1124    0.3725    2.5187   92.3358  267.9375    7.7862   57.0000 
1782.1656    8.5000    0.7295   98.7543    2.2757    0.3713    2.5436   86.9762  268.0000    8.5882   57.0000 
1782.3180    8.5000    0.5867   93.7429    2.6397    0.2805    2.5955   79.6321  268.3125    6.6215   57.0000 
1782.4704    8.5000    0.6105   74.7832    4.0046    0.1292    2.6647   70.6128  268.7500    3.1299   57.0000 
1782.6228    8.5000    0.5867   62.2007    7.7984    0.0436    2.7273   59.1841  269.0000    1.3059   57.0000 
1782.7752    8.5000    0.5391   43.0531    8.0532    0.0287    2.7638   54.2280  269.3750    1.3687   57.0000 
1782.9276    8.5000    0.5153   43.2859    7.3639    0.0396    2.7662   51.4660  269.4375    1.5245   57.0000 
1783.0800    8.5000    0.5629   42.6126    7.5836    0.0904    2.7351   52.7832  269.7500    2.4145   57.0000 
1783.2324    8.5000    0.6224   54.0768   10.1742    0.1552    2.6890   59.2931  269.8750    3.6263   57.0000 
1783.3848    8.5000    0.5867   63.6536    5.2027    0.2248    2.6310   70.7900  269.7500    4.7109   57.0000 
1783.5372    8.5000    0.6343   77.5371    3.4997    0.2677    2.5828   81.6592  269.8125    5.3414   57.0000 
1783.6896    8.5000    0.7295   85.8468    2.6428    0.2727    2.5565   86.0911  269.6875    5.1572   57.0000 
1783.8420    8.5000    0.7533   89.7923    2.4136    0.2874    2.5568   87.7899  269.6875    5.7726   57.0000 
1783.9944    8.5000    0.8246   95.2315    2.3274    0.2895    2.5667   87.8566  269.6875    6.0685   57.0000 
1784.1468    8.5000    0.8960   94.5523    2.2562    0.3013    2.5721   88.1434  269.6875    6.4406   57.0000 
1784.2992    8.5000    1.0864  100.5151    2.1837    0.3035    2.5686   90.5934  269.8750    6.5067   57.0000 
1784.4516    8.5000    1.1102  103.5819    2.0045    0.3105    2.5682   92.5631  270.1250    6.6613   57.0000 
