~VERSION INFORMATION
 VERS.                 2.0:   CWLS LOG ASCII STANDARD - VERSION 2.0
 WRAP.                  NO:   SINGLE LINE PER DEPTH STEP
 CREA.                 06/02/2020 16:08:49
#CREATED USING IP VERSION 4.5.2019.2902 BY RMOTA ON 06/02/2020 16:08:49
~WELL INFORMATION
#MNEM.UNIT       DATA                          DESCRIPTION MNEMONIC
#---------      ---------------------------   --------------------------
 STRT    .M         -0.4572                   : START DEPTH
 STOP    .M         3564.6360                 : STOP DEPTH
 STEP    .M         0.1524                    : STEP VALUE
 NULL    .      -999.0000                     : NULL VALUE
 DATE    .      06/02/2020                    : LAS file Creation Date
 WELL   .      7-MP-28D-BA        : Well Name
 COMP   .      PETROBRAS          : Company
 FLD    .      MASSAPE            : Field
 STATE  .      BAHIA              : State
 COUNT  .      BRASIL             : Country
 API    .      20240021354        : API Number
 UWI    .                         : Unique Well Identifier (UWI)
 LOC    .      N= 8.609.866,070 m : Location
 TOWN   .      CATU               : Township
 SCT    .      OH WIRELINE        : Section
 RANG   .      SCHLUMBERGER       : Range
 PDAT   .      NM                 : Permanent Datum
 EPDAT  .      0                  : Elevation of Permanent Datum
 LGMEA  .      MR                 : Log Measured from
 DRMEA  .      MR                 : Drill Measured From
 APDAT  .      105.72             : Elevation Above Permanent Datum
 KB     .      106.02             : KB Elevation
 DF     .      105.72             : DF Elevation
 GL     .      96.31999           : GL Elevation
 RWS    .      -999               : Def_Rw
 WST    .      -999               : Def_Rwt
 BHS    .      OPEN               : Completion Status
 PROV   .                         : Province
 SRVC   .                         : Contractor
 GDAT   .      WGS 84             : Geodatum
 LONG   .      -38.4270011107127  : Longitude
 LATI   .      -12.5743130556742  : Latitude
 COORDIN.                         : Grid System
 XCOORD .                         : X or East-West Coordinate
 YCOORD .                         : Y or North-South Coordinate
~CURVE INFORMATION
#MNEM              UNIT       API CODE   Curve Type Comments
#----------  --------------- ----------  ---------- -----------
 DEPTH      .M                         : Depth       
 BS         .in                        : BitSize     
 GR         .gAPI                      : GammaRay    
 CAL        .in                        : Caliper     
 RT         .ohm.m                     : DeepRes     
 NPHI       .m3/m3                     : Neutron     
 RHOB       .g/cm3                     :             
 DT         .us/ft                     : Sonic       
 SP         .mV                        : SP          Loaded from DLIS: 7-mp-28d-ba_raw-2p.dlis
 DRDN       .                          :             
 Lith_new   .                          :             
~A  DEPTH     BS        GR       CAL        RT       NPHI      RHOB       DT        SP       DRDN    Lith_new 
# ...
3337.1028    8.5000   55.1728    8.3432   25.4721    0.0552    2.5799   65.0265 -999.0000   -1.5280   49.0000 
3337.2552    8.5000   55.3521    8.3432   25.4318    0.0550    2.5850   63.4397 -999.0000   -1.4219   49.0000 
3337.4076    8.5000   62.0211    8.2977   25.4679    0.0556    2.5955   65.4402 -999.0000   -1.1611   49.0000 
3337.5600    8.5000   59.1601    8.2977   25.2858    0.0597    2.6018   65.6314 -999.0000   -0.9587   25.0000 
3337.7124    8.5000   57.3991    8.2750   25.3674    0.0600    2.6038   65.8076 -999.0000   -0.9157   25.0000 
3337.8648    8.5000   54.3677    8.2750   25.5238    0.0692    2.6002   65.8577 -999.0000   -0.7348   25.0000 
3338.0172    8.5000   56.1831    8.3204   25.6602    0.0723    2.5950   64.1246 -999.0000   -0.7274   25.0000 
3338.1696    8.5000   57.6196    8.3204   26.0290    0.0727    2.5890   64.1408 -999.0000   -0.8225   25.0000 
3338.3220    8.5000   56.3750    8.2864   26.0831    0.0688    2.5903   65.2867 -999.0000   -0.8511   25.0000 
3338.4744    8.5000   59.6024    8.2750   26.1870    0.0646    2.5987   65.4591 -999.0000   -0.8398   25.0000 
3338.6268    8.5000   60.5540    8.2977   26.3446    0.0642    2.5983   66.9046 -999.0000   -0.9066   25.0000 
3338.7792    8.5000   62.6215    8.2636   26.2970    0.0603    2.5994   66.4019 -999.0000   -0.9859   25.0000 
3338.9316    8.5000   58.1838    8.2750   26.2261    0.0600    2.5992   65.7151 -999.0000   -1.0104   49.0000 
3339.0840    8.5000   56.9712    8.2750   26.1864    0.0584    2.6028   65.3989 -999.0000   -0.9857   25.0000 
3339.2364    8.5000   52.8163    8.2636   26.3504    0.0626    2.6024   65.3743 -999.0000   -0.8874   25.0000 
3339.3888    8.5000   50.2219    8.2523   26.5496    0.0673    2.5976   64.7772 -999.0000   -0.8366   25.0000 
3339.5412    8.5000   47.9989    8.2750   26.6152    0.0701    2.5965   64.3130 -999.0000   -0.7125   25.0000 
3339.6936    8.5000   53.5561    8.2636   26.2261    0.0671    2.5994   64.5424 -999.0000   -0.7541   25.0000 
3339.8460    8.5000   61.0335    8.2750   26.1099    0.0660    2.6048   64.5964 -999.0000   -0.6728   25.0000 
3339.9984    8.5000   62.2286    8.2750   26.4551    0.0645    2.6044   63.8130 -999.0000   -0.7986   25.0000 
3340.1508    8.5000   58.9931    8.2636   26.6473    0.0675    2.5950   62.3683 -999.0000   -0.9160   25.0000 
3340.3032    8.5000   54.7492    8.2977   27.0540    0.0690    2.5904   63.7665 -999.0000   -0.8817   25.0000 
3340.4556    8.5000   56.3626    8.2977   27.1491    0.0658    2.5915   63.9665 -999.0000   -0.9853   25.0000 
3340.6080    8.5000   61.4148    8.2977   27.0268    0.0636    2.5896   64.4532 -999.0000   -1.1095   49.0000 
3340.7604    8.5000   59.3637    8.2864   26.7774    0.0597    2.5856   64.8033 -999.0000   -1.3315   49.0000 
3340.9128    8.5000   57.9618    8.2523   26.6169    0.0635    2.5810   64.0011 -999.0000   -1.2699   49.0000 
3341.0652    8.5000   52.2719    8.2750   26.5144    0.0637    2.5838   65.2591 -999.0000   -1.1638   49.0000 
3341.2176    8.5000   55.2976    8.2523   25.8919    0.0680    2.5893   61.6699 -999.0000   -0.9163   25.0000 
3341.3700    8.5000   57.3266    8.2750   25.7171    0.0684    2.5965   62.3775 -999.0000   -0.7072   25.0000 
3341.5224    8.5000   61.7727    8.2296   25.1942    0.0727    2.6084   64.1166 -999.0000   -0.3406   25.0000 
3341.6748    8.5000   63.1847    8.3091   24.3290    0.0687    2.6172   -5.1047 -999.0000   -0.3275   25.0000 
3341.8272    8.5000   60.4374    8.2977   24.8249    0.0698    2.6171   66.1201 -999.0000   -0.3869   25.0000 
3341.9796    8.5000   57.8068    8.3318   24.9951    0.0616    2.6104   65.9933 -999.0000   -0.7678   25.0000 
3342.1320    8.5000   58.4516    8.2977   25.5576    0.0625    2.6067   67.6019 -999.0000   -0.7693   25.0000 
3342.2844    8.5000   59.9863    8.2977   25.7819    0.0605    2.6152   67.4070 -999.0000   -0.6223   25.0000 
3342.4368    8.5000   64.3744    8.2977   25.2907    0.0622    2.6161   66.7357 -999.0000   -0.6448   25.0000 
3342.5892    8.5000   62.5555    8.3204   25.6627    0.0597    2.6117   66.7474 -999.0000   -0.7875   25.0000 
3342.7416    8.5000   64.9383    8.2977   25.6089    0.0583    2.6061   65.8880 -999.0000   -0.9800   25.0000 
3342.8940    8.5000   60.1468    8.3204   25.7620    0.0580    2.6041   65.7674 -999.0000   -0.9666   25.0000 
3343.0464    8.5000   58.7322    8.3091   25.9025    0.0582    2.6035   66.0908 -999.0000   -1.0448   49.0000 
3343.1988    8.5000   59.1356    8.3204   26.1621    0.0585    2.5944   65.5456 -999.0000   -1.2240   49.0000 
3343.3512    8.5000   63.5733    8.3432   26.0877    0.0616    2.5865   66.0257 -999.0000   -1.2443   49.0000 
3343.5036    8.5000   65.8777    8.3886   25.8928    0.0579    2.5832   65.3194 -999.0000   -1.4179   49.0000 
3343.6560    8.5000   60.0280    8.3886   25.9442    0.0569    2.5853   65.3038 -999.0000   -1.3400   49.0000 
3343.8084    8.5000   57.2410    8.4340   26.3455    0.0572    2.5910   65.0532 -999.0000   -1.2834   49.0000 
3343.9608    8.5000   55.8045    8.4227   26.5951    0.0616    2.5881   65.2378 -999.0000   -1.1994   49.0000 
3344.1132    8.5000   58.6285    8.4113   26.8841    0.0588    2.5887   64.1882 -999.0000   -1.2345   49.0000 
3344.2656    8.5000   58.0222    8.3886   26.5515    0.0538    2.5970   64.6259 -999.0000   -1.1918   49.0000 
3344.4180    8.5000   57.6324    8.4227   26.1886    0.0528    2.6089   64.5326 -999.0000   -0.9655   25.0000 
3344.5704    8.5000   57.6698    8.3886   26.2953    0.0563    2.6173   65.9673 -999.0000   -0.8030   25.0000 
3344.7228    8.5000   56.8614    8.4113   26.4985    0.0604    2.6119   65.0338 -999.0000   -0.7612   25.0000 
3344.8752    8.5000   57.3992    8.3772   26.3073    0.0607    2.6112   65.3957 -999.0000   -0.7686   25.0000 
3345.0276    8.5000   55.5804    8.3659   25.7596    0.0618    2.6105   64.6574 -999.0000   -0.7098   25.0000 
3345.1800    8.5000   54.5374    8.3886   24.8912    0.0572    2.6087   65.1267 -999.0000   -0.9716   25.0000 
3345.3324    8.5000   56.7238    8.3545   25.1645    0.0593    2.6023   64.4521 -999.0000   -1.0003   49.0000 
3345.4848    8.5000   56.9259    8.4113   25.7460    0.0590    2.6000   65.2173 -999.0000   -1.0400   49.0000 
3345.6372    8.5000   59.3465    8.3432   26.1375    0.0594    2.6029   64.5270 -999.0000   -0.9075   25.0000 
3345.7896    8.5000   58.7329    8.3318   26.1658    0.0584    2.6088   64.8283 -999.0000   -0.8688   25.0000 
3345.9420    8.5000   59.1966    8.3432   25.8668    0.0573    2.6085   63.7189 -999.0000   -0.9261   25.0000 
3346.0944    8.5000   60.0035    8.3432   26.0526    0.0589    2.6092   63.1552 -999.0000   -0.8450   25.0000 
3346.2468    8.5000   62.0629    8.3772   26.1871    0.0604    2.6096   63.5286 -999.0000   -0.8020   25.0000 
3346.3992    8.5000   60.7768    8.3886   26.4167    0.0595    2.6085   64.2823 -999.0000   -0.8464   25.0000 
3346.5516    8.5000   58.3902    8.4113   26.2822    0.0625    2.6065   64.5068 -999.0000   -0.8210   25.0000 
3346.7040    8.5000   52.3275    8.3999   26.3567    0.0618    2.6005   65.0783 -999.0000   -0.9627   25.0000 
3346.8564    8.5000   57.7550    8.3432   26.0056    0.0654    2.5955   64.6194 -999.0000   -0.9251   25.0000 
3347.0088    8.5000   58.7799    8.3659   25.6829    0.0628    2.5975   65.0547 -999.0000   -0.9252   25.0000 
3347.1612    8.5000   59.7903    8.4113   25.7308    0.0648    2.5989   65.2342 -999.0000   -0.8791   25.0000 
3347.3136    8.5000   55.5543    8.3886   25.7253    0.0595    2.5982   64.2971 -999.0000   -1.0505   49.0000 
3347.4660    8.5000   55.5543    8.3886   25.7600    0.0574    2.5979   64.0115 -999.0000   -1.1474   49.0000 
3347.6184    8.5000   57.5386    8.3659   25.8687    0.0563    2.5933   63.9148 -999.0000   -1.2854   49.0000 
3347.7708    8.5000   54.9163    8.3886   25.7625    0.0569    2.5919   63.3294 -999.0000   -1.2732   49.0000 
3347.9232    8.5000   52.6789    8.3886   25.8791    0.0585    2.5876   63.7438 -999.0000   -1.3268   49.0000 
3348.0756    8.5000   53.7280    8.3886   25.7969    0.0565    2.5870   63.6229 -999.0000   -1.3607   49.0000 
