~VERSION INFORMATION
 VERS.                 2.0:   CWLS LOG ASCII STANDARD - VERSION 2.0
 WRAP.                  NO:   SINGLE LINE PER DEPTH STEP
 CREA.                 06/02/2020 16:44:49
#CREATED USING IP VERSION 4.5.2019.2902 BY RMOTA ON 06/02/2020 16:44:49
~WELL INFORMATION
#MNEM.UNIT       DATA                          DESCRIPTION MNEMONIC
#---------      ---------------------------   --------------------------
 STRT    .M         1550.0001                 : START DEPTH
 STOP    .M         2926.1001                 : STOP DEPTH
 STEP    .M         0.1000                    : STEP VALUE
 NULL    .      -999.0000                     : NULL VALUE
 DATE    .      06/02/2020                    : LAS file Creation Date
 WELL   .      7-MP-47DP-BA    : Well Name
 COMP   .      PETROBRAS       : Company
 FLD    .      MASSAPE         : Field
 STATE  .      BAHIA           : State
 API    .      20240025025     : API Number
 UWI    .                      : Unique Well Identifier (UWI)
 LOC    .      20240025025     : Location
 PDAT   .      NM              : Permanent Datum
 EPDAT  .      0.0             : Elevation of Permanent Datum
 LGMEA  .      MR              : Log Measured from
 DRMEA  .      MR              : Drill Measured From
 APDAT  .      65.68           : Elevation Above Permanent Datum
 KB     .      -999.25         : KB Elevation
 DF     .      65.68           : DF Elevation
 GL     .      56.28           : GL Elevation
 RWS    .      -999            : Def_Rw
 WST    .      -999            : Def_Rwt
 PROV   .                      : Province
 SRVC   .                      : Contractor
 GDAT   .      WGS 84          : Geodatum
 LONG   .      -38.435024444394: Longitude
 LATI   .      0               : Latitude
 COORDIN.                      : Grid System
 XCOORD .                      : X or East-West Coordinate
 YCOORD .                      : Y or North-South Coordinate
~CURVE INFORMATION
#MNEM              UNIT       API CODE   Curve Type Comments
#----------  --------------- ----------  ---------- -----------
 DEPTH      .M                         : Depth       
 BS         .in                        : BitSize     
 CAL        .in                        : Caliper     
 GR         .api                       : GammaRay    
 ILD        .ohmm                      : DeepRes     
 NPHI       .decp                      : Neutron     
 RHOB       .g/cc                      : Density     
 DT         .uspf                      : Sonic       
 DRDN       .                          :             
 Lith_new   .                          :             
~A  DEPTH     BS       CAL        GR       ILD       NPHI      RHOB       DT       DRDN    Lith_new 
# ...
1886.0001    8.5000    8.9762   83.7277    1.9219    0.2613    2.4985   94.3195    3.6806   57.0000 
1886.1001    8.5000    8.9810   85.5007    1.8664    0.2624    2.5020   96.6158    3.7866   57.0000 
1886.2001    8.5000    8.9905   87.6522    1.8811    0.2688    2.4995   97.2538    3.9499   57.0000 
1886.3001    8.5000    8.9844   89.0274    1.9203    0.2634    2.5011   97.1538    3.8028   57.0000 
1886.4001    8.5000    8.9923   90.7860    2.0437    0.2611    2.5003   95.9320    3.7096   57.0000 
1886.5001    8.5000    8.9942   91.2604    2.1079    0.2566    2.4987   94.7524    3.5278   57.0000 
1886.6001    8.5000    8.9896   91.7013    2.1623    0.2499    2.5023   93.7726    3.3769   57.0000 
1886.7001    8.5000    9.0048   94.1260    2.2395    0.2491    2.5078   91.4187    3.4585   57.0000 
1886.8001    8.5000    9.0003   94.8879    2.2669    0.2452    2.5132   90.4455    3.4380   57.0000 
1886.9001    8.5000    9.0026   95.4150    2.2865    0.2458    2.5189   89.3784    3.5716   57.0000 
1887.0001    8.5000    9.0026   90.1200    2.3065    0.2478    2.5221   88.7234    3.7013   57.0000 
1887.1001    8.5000    8.9995   87.2401    2.3125    0.2466    2.5204   88.4566    3.6271   57.0000 
1887.2001    8.5000    8.9965   86.0805    2.3194    0.2489    2.5176   88.6952    3.6479   57.0000 
1887.3001    8.5000    9.0048   86.8424    2.3279    0.2495    2.5148   88.5892    3.6120   57.0000 
1887.4001    8.5000    9.0064   90.1392    2.3176    0.2420    2.5170   88.8386    3.4073   57.0000 
1887.5001    8.5000    9.0140   87.9685    2.2908    0.2455    2.5225   88.8858    3.6347   57.0000 
1887.6001    8.5000    9.0155   87.2449    2.2513    0.2499    2.5274   88.9336    3.8780   57.0000 
1887.7001    8.5000    9.0094   87.3455    2.1327    0.2602    2.5384   89.2941    4.4399   57.0000 
1887.8001    8.5000    9.0094   91.8019    2.0709    0.2583    2.5400   89.7367    4.4115   57.0000 
1887.9001    8.5000    9.0159   93.6947    2.0180    0.2612    2.5396   90.4010    4.4987   57.0000 
1888.0001    8.5000    9.0174   96.3206    1.9274    0.2791    2.5399   92.0281    5.1016   57.0000 
1888.1001    8.5000    9.0265   96.0187    1.8896    0.2772    2.5345   93.1947    4.9298   57.0000 
1888.2001    8.5000    9.0204   96.9771    1.8527    0.2700    2.5287   94.2396    4.5749   57.0000 
1888.3001    8.5000    9.0094   98.1894    1.7958    0.2779    2.5117   95.3936    4.4992   57.0000 
1888.4001    8.5000    9.0125   97.9355    1.7791    0.2812    2.4988   95.9371    4.3474   57.0000 
1888.5001    8.5000    9.0071   97.4275    1.7662    0.2866    2.4907   96.2760    4.3669   57.0000 
1888.6001    8.5000    9.0299   92.2332    1.7490    0.2892    2.4844   96.3582    4.3273   57.0000 
1888.7001    8.5000    9.0315   88.9412    1.7412    0.2864    2.4872   96.0388    4.2903   57.0000 
1888.8001    8.5000    9.0345   86.5788    1.7323    0.2883    2.4944   95.9910    4.4985   57.0000 
1888.9001    8.5000    9.0303   86.5501    1.7235    0.2897    2.5011   96.0269    4.6785   57.0000 
1889.0001    8.5000    9.0298   92.0032    1.7051    0.2786    2.4990   96.7802    4.2669   57.0000 
1889.1001    8.5000    9.0222   92.9903    1.6933    0.2885    2.4944   97.2487    4.5043   57.0000 
1889.2001    8.5000    9.0151   93.1292    1.6797    0.2951    2.4889   98.2866    4.6140   57.0000 
1889.3001    8.5000    9.0031   90.0050    1.6681    0.2971    2.4754   99.6353    4.4098   57.0000 
1889.4001    8.5000    8.9924   89.4779    1.6956    0.2957    2.4736   99.6529    4.3274   57.0000 
1889.5001    8.5000    8.9867   87.5132    1.7644    0.2853    2.4733  100.0045    3.9760   57.0000 
1889.6001    8.5000    8.9820   75.7972    2.1416    0.1865    2.4875   96.1746    0.9665   57.0000 
1889.7001    8.5000    8.9870   67.1288    2.5577    0.1356    2.5077   91.7211   -0.3257   25.0000 
1889.8001    8.5000    8.9923   59.1216    3.2360    0.1075    2.5355   86.5161   -0.7066   25.0000 
1889.9001    8.5000    9.0060   51.4882    5.4967    0.0809    2.5921   76.7061   -0.4607   25.0000 
1890.0001    8.5000    9.0102   54.2531    6.3992    0.0750    2.6109   71.4623   -0.2810   54.0000 
1890.1001    8.5000    9.0052   61.9440    6.3409    0.0765    2.6167   68.1268   -0.1178   54.0000 
1890.2001    8.5000    8.9957   85.6252    4.6792    0.1007    2.5930   68.1699    0.2169   54.0000 
1890.3001    8.5000    8.9957   92.3482    4.0507    0.1240    2.5711   70.3105    0.5554   57.0000 
1890.4001    8.5000    8.9965   93.7091    3.6262    0.1628    2.5484   73.5141    1.3957   57.0000 
1890.5001    8.5000    8.9961   92.3242    3.3830    0.1964    2.5276   76.8985    2.1007   57.0000 
1890.6001    8.5000    8.9893   88.2176    3.1980    0.2301    2.5019   81.5683    2.7076   57.0000 
1890.7001    8.5000    8.9946   85.7067    3.2130    0.2340    2.4959   82.7909    2.7154   57.0000 
1890.8001    8.5000    8.9942   82.1799    3.2983    0.2383    2.4930   83.8512    2.8042   57.0000 
1890.9001    8.5000    9.0064   73.3582    3.8094    0.2159    2.5027   82.4078    2.2522   57.0000 
1891.0001    8.5000    9.0182   68.1494    4.3375    0.1968    2.5154   80.6479    1.8681   57.0000 
1891.1001    8.5000    9.0189   60.9042    5.1341    0.1782    2.5332   78.1703    1.6037   57.0000 
1891.2001    8.5000    9.0204   46.8593    7.9351    0.1497    2.5792   71.0830    1.5756   57.0000 
1891.3001    8.5000    9.0201   41.1187   10.2711    0.1237    2.5975   67.2489    1.0709   57.0000 
1891.4001    8.5000    9.0060   38.3155   13.5488    0.0989    2.6099   63.5384    0.4947   57.0000 
1891.5001    8.5000    8.9976   33.5652   23.5953    0.0697    2.6187   58.1242   -0.3033   25.0000 
1891.6001    8.5000    8.9896   32.8225   28.5469    0.0631    2.6177   56.4860   -0.5434   25.0000 
1891.7001    8.5000    8.9923   32.9359   29.9248    0.0629    2.6184   56.0263   -0.5347   25.0000 
1891.8001    8.5000    8.9733   40.4894   20.1460    0.0719    2.6228   57.8976   -0.1481   54.0000 
1891.9001    8.5000    8.9664   47.3130   14.3561    0.0832    2.6255   60.0822    0.2823   54.0000 
1892.0001    8.5000    8.9638   56.6746   10.0335    0.0997    2.6201   63.7022    0.7271   57.0000 
1892.1001    8.5000    8.9448   67.8539    7.1282    0.1213    2.6075   67.6559    1.1942   57.0000 
1892.2001    8.5000    8.9170   89.2559    4.0961    0.1872    2.5672   77.1258    2.5819   57.0000 
1892.3001    8.5000    8.9045   97.1704    3.3509    0.2167    2.5421   81.4935    3.0639   57.0000 
1892.4001    8.5000    8.8942  100.6157    2.8679    0.2466    2.5242   85.6701    3.7026   57.0000 
1892.5001    8.5000    8.8984  100.4432    2.3675    0.2712    2.5060   91.1184    4.1618   57.0000 
1892.6001    8.5000    8.9098   99.0871    2.2659    0.2697    2.5034   92.6908    4.0582   57.0000 
1892.7001    8.5000    8.9292   97.6160    2.2267    0.2664    2.5056   93.3032    3.9931   57.0000 
1892.8001    8.5000    8.9547   95.7121    2.2541    0.2466    2.5091   93.4454    3.4016   57.0000 
1892.9001    8.5000    8.9512   94.5237    2.2769    0.2553    2.5083   93.4561    3.6751   57.0000 
1893.0001    8.5000    8.9512   92.9136    2.2819    0.2659    2.5079   93.2307    4.0207   57.0000 
1893.1001    8.5000    8.9558   91.7971    2.2345    0.2689    2.5048   92.5290    4.0611   57.0000 
1893.2001    8.5000    8.9486   93.0238    2.1964    0.2704    2.5031   92.6787    4.0746   57.0000 
1893.3001    8.5000    8.9474   93.5557    2.1560    0.2707    2.5038   92.7864    4.0999   57.0000 
1893.4001    8.5000    8.9566   93.9439    2.0862    0.2642    2.5054   93.3546    3.9134   57.0000 
1893.5001    8.5000    8.9566   95.3191    2.0666    0.2576    2.5073   93.6889    3.7348   57.0000 
1893.6001    8.5000    8.9581   99.1718    2.0581    0.2606    2.5107   94.1053    3.9009   57.0000 
1893.7001    8.5000    8.9604  103.5515    2.0585    0.2496    2.5134   94.0895    3.5873   57.0000 
1893.8001    8.5000    8.9478  105.0993    2.0680    0.2432    2.5162   93.2963    3.4307   57.0000 
1893.9001    8.5000    8.9497  101.7641    2.0721    0.2579    2.5155   93.3426    3.9076   57.0000 
