~VERSION INFORMATION
 VERS.                 2.0:   CWLS LOG ASCII STANDARD - VERSION 2.0
 WRAP.                  NO:   SINGLE LINE PER DEPTH STEP
 CREA.                 28/08/2020 11:52:07
#CREATED USING IP VERSION 4.5.2019.2902 BY CANDIDO ON 28/08/2020 11:52:07
~WELL INFORMATION
#MNEM.UNIT       DATA                          DESCRIPTION MNEMONIC
#---------      ---------------------------   --------------------------
 STRT    .M         639.0000                  : START DEPTH
 STOP    .M         3007.1000                 : STOP DEPTH
 STEP    .M         0.1000                    : STEP VALUE
 NULL    .      -999.0000                     : NULL VALUE
 DATE    .      28/08/2020                    : LAS file Creation Date
 WELL   .      7-MP-55D-BA     : Well Name
 COMP   .      PETROBRAS       : Company
 FLD    .      MASSAPE         : Field
 STATE  .      BAHIA           : State
 COUNT  .      -999.25         : Country
 API    .      20240028408     : API Number
 UWI    .                      : Unique Well Identifier (UWI)
 LOC    .      -999.25         : Location
 TOWN   .      -999.25         : Township
 SCT    .      -999.25         : Section
 RANG   .      -999.25         : Range
 PDAT   .      NM              : Permanent Datum
 EPDAT  .      0.00            : Elevation of Permanent Datum
 LGMEA  .      MR              : Log Measured from
 DRMEA  .      MR              : Drill Measured From
 APDAT  .      65.67           : Elevation Above Permanent Datum
 KB     .      65.97           : KB Elevation
 DF     .      65.67           : DF Elevation
 GL     .      56.27           : GL Elevation
 RWS    .      -999            : Def_Rw
 WST    .      -999            : Def_Rwt
 PROV   .                      : Province
 SRVC   .                      : Contractor
 GDAT   .      WGS 84          : Geodatum
 LONG   .      -38.435231944455: Longitude
 LATI   .      0               : Latitude
 COORDIN.                      : Grid System
 XCOORD .                      : X or East-West Coordinate
 YCOORD .                      : Y or North-South Coordinate
~CURVE INFORMATION
#MNEM                UNIT       API CODE   Curve Type Comments
#----------    --------------- ----------  ---------- -----------
 DEPTH        .M                         : Depth       
 TVD          .M                         : Depth       
 TVDSS        .M                         : Depth       
 GR           .api                       : GammaRay    
 CAL          .in                        : Caliper     
 BS           .in                        : BitSize     
 Lith_new     .                          :             
 RT           .ohmm                      : DeepRes     
 NPHI         .decp                      : Neutron     
 RHOB         .g/cc                      : Density     
 Res          .                          :             
 N_Res        .                          :             
 VCLGR        .Dec                       : Vcl         
 Phi_Gaymard  .                          :             
 Phie_Gaymard .                          :             
 SwArch       .Dec                       :             
 SwSim        .Dec                       :             
~A  DEPTH    TVD      TVDSS       GR       CAL        BS     Lith_new     RT       NPHI      RHOB      Res      N_Res     VCLGR   Phi_Gaym~ Phie_Gay~   SwArch    SwSim   
# ...
2989.0000 2975.0102 -2909.3402   49.2637    8.4565    8.5000   57.0000    4.4083    0.2378    2.6423 -999.0000 -999.0000 -999.0000 -999.0000 -999.0000 -999.0000 -999.0000 
2989.1000 2975.1096 -2909.4396   48.5448    8.4624    8.5000   57.0000    4.2877    0.2574    2.6412 -999.0000 -999.0000 -999.0000 -999.0000 -999.0000 -999.0000 -999.0000 
2989.2000 2975.2091 -2909.5391   48.0577    8.4635    8.5000   57.0000    4.1876    0.2687    2.6361 -999.0000 -999.0000 -999.0000 -999.0000 -999.0000 -999.0000 -999.0000 
2989.3000 2975.3085 -2909.6385   47.8555    8.4628    8.5000   57.0000    4.0255    0.2695    2.6221 -999.0000 -999.0000 -999.0000 -999.0000 -999.0000 -999.0000 -999.0000 
2989.4000 2975.4079 -2909.7379   48.2892    8.4666    8.5000   57.0000    3.9499    0.2797    2.6159 -999.0000 -999.0000 -999.0000 -999.0000 -999.0000 -999.0000 -999.0000 
2989.5000 2975.5073 -2909.8373   48.5960    8.4590    8.5000   57.0000    3.8773    0.2918    2.6111 -999.0000 -999.0000 -999.0000 -999.0000 -999.0000 -999.0000 -999.0000 
2989.6000 2975.6067 -2909.9367   49.2734    8.4656    8.5000   57.0000    3.7776    0.2923    2.6093 -999.0000 -999.0000 -999.0000 -999.0000 -999.0000 -999.0000 -999.0000 
2989.7000 2975.7062 -2910.0362   49.6410    8.4635    8.5000   57.0000    3.7860    0.2920    2.6038 -999.0000 -999.0000 -999.0000 -999.0000 -999.0000 -999.0000 -999.0000 
2989.8000 2975.8056 -2910.1356   50.0808    8.4646    8.5000   57.0000    3.8479    0.2828    2.5967 -999.0000 -999.0000 -999.0000 -999.0000 -999.0000 -999.0000 -999.0000 
2989.9000 2975.9050 -2910.2350   50.1936    8.4499    8.5000   57.0000    4.0649    0.2854    2.5832 -999.0000 -999.0000 -999.0000 -999.0000 -999.0000 -999.0000 -999.0000 
2990.0000 2976.0044 -2910.3344   49.7165    8.4588    8.5000   57.0000    4.1849    0.2866    2.5847 -999.0000 -999.0000 -999.0000 -999.0000 -999.0000 -999.0000 -999.0000 
2990.1000 2976.1038 -2910.4338   49.2965    8.4564    8.5000   57.0000    4.3106    0.2944    2.5895 -999.0000 -999.0000 -999.0000 -999.0000 -999.0000 -999.0000 -999.0000 
2990.2000 2976.2032 -2910.5332   49.0975    8.4580    8.5000   57.0000    4.4621    0.2962    2.5967 -999.0000 -999.0000 -999.0000 -999.0000 -999.0000 -999.0000 -999.0000 
2990.3000 2976.3027 -2910.6327   48.9174    8.4689    8.5000   57.0000    4.9754    0.2910    2.6138 -999.0000 -999.0000 -999.0000 -999.0000 -999.0000 -999.0000 -999.0000 
2990.4000 2976.4021 -2910.7321   48.6912    8.4613    8.5000   57.0000    5.4149    0.2871    2.6198 -999.0000 -999.0000 -999.0000 -999.0000 -999.0000 -999.0000 -999.0000 
2990.5000 2976.5015 -2910.8315   48.8370    8.4703    8.5000   57.0000    6.0467    0.2888    2.6253 -999.0000 -999.0000 -999.0000 -999.0000 -999.0000 -999.0000 -999.0000 
2990.6000 2976.6009 -2910.9309   49.6837    8.4498    8.5000   57.0000    8.4151    0.2886    2.6262 -999.0000 -999.0000 -999.0000 -999.0000 -999.0000 -999.0000 -999.0000 
2990.7000 2976.7003 -2911.0303   50.1340    8.4522    8.5000   57.0000   10.6683    0.3023    2.6283 -999.0000 -999.0000 -999.0000 -999.0000 -999.0000 -999.0000 -999.0000 
2990.8000 2976.7997 -2911.1297   50.4534    8.4295    8.5000   57.0000   14.2050    0.3028    2.6263 -999.0000 -999.0000 -999.0000 -999.0000 -999.0000 -999.0000 -999.0000 
2990.9000 2976.8991 -2911.2291   50.9068    8.4119    8.5000   57.0000   27.7801    0.2969    2.6126 -999.0000 -999.0000 -999.0000 -999.0000 -999.0000 -999.0000 -999.0000 
2991.0000 2976.9985 -2911.3285   51.1482    8.4111    8.5000   57.0000   38.6773    0.2904    2.5965 -999.0000 -999.0000 -999.0000 -999.0000 -999.0000 -999.0000 -999.0000 
2991.1000 2977.0979 -2911.4279   51.0465    8.4134    8.5000   57.0000   50.9896    0.2868    2.5794 -999.0000 -999.0000 -999.0000 -999.0000 -999.0000 -999.0000 -999.0000 
2991.2000 2977.1973 -2911.5273   50.5347    8.3811    8.5000   57.0000   68.9343    0.2910    2.5504 -999.0000 -999.0000 -999.0000 -999.0000 -999.0000 -999.0000 -999.0000 
2991.3000 2977.2967 -2911.6267   50.3688    8.3842    8.5000   57.0000   71.7733    0.2879    2.5416 -999.0000 -999.0000 -999.0000 -999.0000 -999.0000 -999.0000 -999.0000 
2991.4000 2977.3962 -2911.7262   50.8999    8.3976    8.5000   57.0000   71.1662    0.2903    2.5355 -999.0000 -999.0000 -999.0000 -999.0000 -999.0000 -999.0000 -999.0000 
2991.5000 2977.4956 -2911.8256   52.0243    8.4121    8.5000   57.0000   63.0836    0.2962    2.5235 -999.0000 -999.0000 -999.0000 -999.0000 -999.0000 -999.0000 -999.0000 
2991.6000 2977.5950 -2911.9250   52.5592    8.4043    8.5000   57.0000   57.3232    0.2934    2.5154 -999.0000 -999.0000 -999.0000 -999.0000 -999.0000 -999.0000 -999.0000 
2991.7000 2977.6944 -2912.0244   52.2856    8.4028    8.5000   57.0000   51.7698    0.2886    2.5093 -999.0000 -999.0000 -999.0000 -999.0000 -999.0000 -999.0000 -999.0000 
2991.8000 2977.7938 -2912.1238   51.9575    8.4017    8.5000   57.0000   47.2962    0.2882    2.5037 -999.0000 -999.0000 -999.0000 -999.0000 -999.0000 -999.0000 -999.0000 
2991.9000 2977.8932 -2912.2232   51.9016    8.4014    8.5000   57.0000   43.0224    0.2843    2.5039 -999.0000 -999.0000 -999.0000 -999.0000 -999.0000 -999.0000 -999.0000 
2992.0000 2977.9926 -2912.3226   51.9264    8.3901    8.5000   57.0000   43.1298    0.2833    2.5046 -999.0000 -999.0000 -999.0000 -999.0000 -999.0000 -999.0000 -999.0000 
2992.1000 2978.0920 -2912.4220   52.0566    8.3781    8.5000   57.0000   44.3878    0.2897    2.5076 -999.0000 -999.0000 -999.0000 -999.0000 -999.0000 -999.0000 -999.0000 
2992.2000 2978.1914 -2912.5214   52.4474    8.4060    8.5000   57.0000   48.5757    0.2946    2.5138 -999.0000 -999.0000 -999.0000 -999.0000 -999.0000 -999.0000 -999.0000 
2992.3000 2978.2908 -2912.6208   53.1550    8.4093    8.5000   57.0000   50.4956    0.2947    2.5156 -999.0000 -999.0000 -999.0000 -999.0000 -999.0000 -999.0000 -999.0000 
2992.4000 2978.3902 -2912.7202   53.8662    8.4155    8.5000   57.0000   51.7703    0.2924    2.5120 -999.0000 -999.0000 -999.0000 -999.0000 -999.0000 -999.0000 -999.0000 
2992.5000 2978.4895 -2912.8195   53.8362    8.3974    8.5000   57.0000   52.4450    0.2919    2.5035 -999.0000 -999.0000 -999.0000 -999.0000 -999.0000 -999.0000 -999.0000 
2992.6000 2978.5889 -2912.9189   53.1862    8.3742    8.5000   57.0000   52.4362    0.2902    2.4978 -999.0000 -999.0000 -999.0000 -999.0000 -999.0000 -999.0000 -999.0000 
2992.7000 2978.6883 -2913.0183   52.5217    8.3591    8.5000   57.0000   52.7363    0.2866    2.4971 -999.0000 -999.0000 -999.0000 -999.0000 -999.0000 -999.0000 -999.0000 
2992.8000 2978.7877 -2913.1177   52.7353    8.3445    8.5000   57.0000   54.6136    0.2933    2.4906 -999.0000 -999.0000 -999.0000 -999.0000 -999.0000 -999.0000 -999.0000 
2992.9000 2978.8871 -2913.2171   53.1711    8.3388    8.5000   57.0000   55.7240    0.2948    2.4897 -999.0000 -999.0000 -999.0000 -999.0000 -999.0000 -999.0000 -999.0000 
2993.0000 2978.9865 -2913.3165   53.6613    8.3254    8.5000   57.0000   56.2329    0.2862    2.4860 -999.0000 -999.0000 -999.0000 -999.0000 -999.0000 -999.0000 -999.0000 
2993.1000 2979.0859 -2913.4159   54.4120    8.3180    8.5000   57.0000   53.3402    0.2864    2.4834 -999.0000 -999.0000 -999.0000 -999.0000 -999.0000 -999.0000 -999.0000 
2993.2000 2979.1853 -2913.5153   55.0763    8.3162    8.5000   57.0000   49.9257    0.2908    2.4817 -999.0000 -999.0000 -999.0000 -999.0000 -999.0000 -999.0000 -999.0000 
2993.3000 2979.2847 -2913.6147   55.7477    8.3141    8.5000   57.0000   46.2345    0.2933    2.4815 -999.0000 -999.0000 -999.0000 -999.0000 -999.0000 -999.0000 -999.0000 
2993.4000 2979.3841 -2913.7141   56.5320    8.3198    8.5000   57.0000   42.7412    0.2924    2.4833 -999.0000 -999.0000 -999.0000 -999.0000 -999.0000 -999.0000 -999.0000 
2993.5000 2979.4835 -2913.8135   58.1096    8.3137    8.5000   57.0000   38.1802    0.2907    2.4944 -999.0000 -999.0000 -999.0000 -999.0000 -999.0000 -999.0000 -999.0000 
2993.6000 2979.5828 -2913.9128 -999.0000    8.3118    8.5000   57.0000   37.7290    0.2905    2.4991 -999.0000 -999.0000 -999.0000 -999.0000 -999.0000 -999.0000 -999.0000 
