~VERSION INFORMATION
 VERS.                 2.0:   CWLS LOG ASCII STANDARD - VERSION 2.0
 WRAP.                  NO:   SINGLE LINE PER DEPTH STEP
 CREA.                 06/02/2020 16:44:49
#CREATED USING IP VERSION 4.5.2019.2902 BY RMOTA ON 06/02/2020 16:44:49
~WELL INFORMATION
#MNEM.UNIT       DATA                          DESCRIPTION MNEMONIC
#---------      ---------------------------   --------------------------
 STRT    .M         1550.0001                 : START DEPTH
 STOP    .M         2926.1001                 : STOP DEPTH
 STEP    .M         0.1000                    : STEP VALUE
 NULL    .      -999.0000                     : NULL VALUE
 DATE    .      06/02/2020                    : LAS file Creation Date
 WELL   .      7-MP-47DP-BA    : Well Name
 COMP   .      PETROBRAS       : Company
 FLD    .      MASSAPE         : Field
 STATE  .      BAHIA           : State
 API    .      20240025025     : API Number
 UWI    .                      : Unique Well Identifier (UWI)
 LOC    .      20240025025     : Location
 PDAT   .      NM              : Permanent Datum
 EPDAT  .      0.0             : Elevation of Permanent Datum
 LGMEA  .      MR              : Log Measured from
 DRMEA  .      MR              : Drill Measured From
 APDAT  .      65.68           : Elevation Above Permanent Datum
 KB     .      -999.25         : KB Elevation
 DF     .      65.68           : DF Elevation
 GL     .      56.28           : GL Elevation
 RWS    .      -999            : Def_Rw
 WST    .      -999            : Def_Rwt
 PROV   .                      : Province
 SRVC   .                      : Contractor
 GDAT   .      WGS 84          : Geodatum
 LONG   .      -38.435024444394: Longitude
 LATI   .      0               : Latitude
 COORDIN.                      : Grid System
 XCOORD .                      : X or East-West Coordinate
 YCOORD .                      : Y or North-South Coordinate
~CURVE INFORMATION
#MNEM              UNIT       API CODE   Curve Type Comments
#----------  --------------- ----------  ---------- -----------
 DEPTH      .M                         : Depth       
 BS         .in                        : BitSize     
 CAL        .in                        : Caliper     
 GR         .api                       : GammaRay    
 ILD        .ohmm                      : DeepRes     
 NPHI       .decp                      : Neutron     
 RHOB       .g/cc                      : Density     
 DT         .uspf                      : Sonic       
 DRDN       .                          :             
 Lith_new   .                          :             
~A  DEPTH     BS       CAL        GR       ILD       NPHI      RHOB       DT       DRDN    Lith_new 
# ...
2894.0001    8.5000    8.8157   65.2711   15.7867    0.0938    2.5105   71.0609   -1.6640   49.0000 
2894.1001    8.5000    8.8283   67.1296   16.1044    0.0913    2.5003   70.0028   -1.9511   49.0000 
2894.2001    8.5000    8.8270   69.1204   16.3800    0.0952    2.4897   70.0186   -2.0335   49.0000 
2894.3001    8.5000    8.8149   67.2392   16.7350    0.0960    2.4775   70.9239   -2.2512   49.0000 
2894.4001    8.5000    8.8035   65.3057   16.5995    0.0956    2.4753   70.9811   -2.3091   49.0000 
2894.5001    8.5000    8.7799   63.8046   16.3566    0.0949    2.4757   70.4037   -2.3217   49.0000 
2894.6001    8.5000    8.7879   63.4119   15.9253    0.0965    2.4720   69.8328   -2.3440   49.0000 
2894.7001    8.5000    8.7788   63.7393   15.9333    0.0950    2.4674   69.3875   -2.4853   49.0000 
2894.8001    8.5000    8.7573   64.2425   16.0161    0.0932    2.4655   68.6010   -2.5839   49.0000 
2894.9001    8.5000    8.7515   65.9676   16.2830    0.0953    2.4755   67.5720   -2.3158   49.0000 
2895.0001    8.5000    8.7475   66.9818   16.5906    0.0955    2.4878   68.0302   -2.0599   49.0000 
2895.1001    8.5000    8.7526   67.4131   17.1792    0.0934    2.5014   68.3039   -1.8587   49.0000 
2895.2001    8.5000    8.7640   68.1478   19.5665    0.0945    2.5164   68.3874   -1.5226   49.0000 
2895.3001    8.5000    8.7738   65.9356   21.4792    0.1010    2.5397   67.6771   -0.8411   25.0000 
2895.4001    8.5000    8.7676   65.1577   24.0386    0.1032    2.5415   67.5341   -0.7306   25.0000 
2895.5001    8.5000    8.7359   65.6928   27.0923    0.0995    2.5398   66.9790   -0.8866   25.0000 
2895.6001    8.5000    8.6688   66.4755   33.4076    0.0979    2.5191   66.0328   -1.3535   49.0000 
2895.7001    8.5000    8.6358   64.8622   35.3133    0.0983    2.5043   65.8838   -1.6396   49.0000 
2895.8001    8.5000    8.6041   63.1052   36.0930    0.0982    2.4924   66.3909   -1.8787   49.0000 
2895.9001    8.5000    8.5965   61.3961   35.7301    0.0964    2.4692   66.6710   -2.4028   49.0000 
2896.0001    8.5000    8.5867   61.3674   35.7645    0.0962    2.4612   67.1079   -2.5695   49.0000 
2896.1001    8.5000    8.5753   61.1597   35.5631    0.0971    2.4540   67.6764   -2.6849   49.0000 
2896.2001    8.5000    8.5788   60.9585   35.1968    0.1000    2.4421   69.0422   -2.8255   49.0000 
2896.3001    8.5000    8.5661 -999.0000   34.4074    0.0973    2.4390   69.0664   -2.9745   49.0000 
2896.4001    8.5000    8.5666 -999.0000   33.8588    0.0962    2.4364   69.3734   -3.0657   49.0000 
2896.5001    8.5000    8.5742 -999.0000   32.3554    0.0968    2.4386   68.5606   -3.0028   49.0000 
2896.6001    8.5000    8.5753 -999.0000   31.3315    0.0979    2.4402   67.9646   -2.9326   49.0000 
2896.7001    8.5000    8.5775 -999.0000   29.9759    0.1001    2.4416   67.7735   -2.8298   49.0000 
2896.8001    8.5000    8.5753 -999.0000   27.6151    0.1001    2.4433   67.8251   -2.7991   49.0000 
2896.9001    8.5000    8.5631 -999.0000   26.5164    0.0998    2.4413   68.4183   -2.8475   49.0000 
2897.0001    8.5000    8.5618 -999.0000   25.4096    0.0976    2.4395   68.2352   -2.9559   49.0000 
2897.1001    8.5000    8.5636 -999.0000   23.9907    0.0957    2.4377   70.0792   -3.0562   49.0000 
2897.2001    8.5000    8.5644 -999.0000   21.6002    0.0968    2.4360   70.8819   -3.0543   49.0000 
2897.3001    8.5000    8.5623 -999.0000   20.7309    0.0972    2.4365   70.9140   -3.0283   49.0000 
2897.4001    8.5000    8.5654 -999.0000   20.2150    0.0951    2.4358   71.7488   -3.1140   49.0000 
2897.5001    8.5000    8.5666 -999.0000   20.0426    0.0919    2.4340   70.6821   -3.2580   49.0000 
2897.6001    8.5000    8.5707 -999.0000   20.4592    0.0948    2.4329   70.2929   -3.1834   49.0000 
2897.7001    8.5000    8.5677 -999.0000   21.0877    0.0974    2.4320   69.9851   -3.1134   49.0000 
2897.8001    8.5000    8.5704 -999.0000   22.2784    0.0993    2.4342   69.6067   -3.0078   49.0000 
2897.9001    8.5000    8.5595 -999.0000   22.4870    0.0980    2.4363   68.8460   -3.0080   49.0000 
2898.0001    8.5000    8.5555 -999.0000   22.5114    0.0980    2.4386   69.1139   -2.9602   49.0000 
2898.1001    8.5000    8.5504 -999.0000   21.5897    0.0953    2.4431   70.6828   -2.9627   49.0000 
2898.2001    8.5000    8.5514 -999.0000   20.6546    0.0964    2.4459   71.4776   -2.8699   49.0000 
2898.3001    8.5000    8.5603 -999.0000   19.6649    0.0969    2.4470   72.1254   -2.8296   49.0000 
2898.4001    8.5000    8.5545 -999.0000   18.5515    0.0971    2.4472   72.5194   -2.8175   49.0000 
2898.5001    8.5000    8.5607 -999.0000   18.7668    0.0976    2.4445   73.1971   -2.8571   49.0000 
2898.6001    8.5000    8.5559 -999.0000   19.2630    0.0993    2.4411   73.1538   -2.8668   49.0000 
2898.7001    8.5000    8.5508 -999.0000   19.8989    0.0988    2.4394   72.9903   -2.9164   49.0000 
2898.8001    8.5000    8.5581 -999.0000   20.6394    0.0960    2.4389   72.5625   -3.0212   49.0000 
2898.9001    8.5000    8.5652 -999.0000   20.4955    0.0973    2.4407   72.3676   -2.9440   49.0000 
2899.0001    8.5000    8.5688 -999.0000   19.9630    0.0967    2.4436   72.5778   -2.9053   49.0000 
2899.1001    8.5000    8.5678 -999.0000   18.1438    0.0932    2.4458   72.9660   -2.9768   49.0000 
2899.2001    8.5000    8.5646 -999.0000   17.3076 -999.0000    2.4466   73.3050 -999.0000 -999.0000 
2899.3001    8.5000    8.5552 -999.0000   16.6860 -999.0000    2.4469   73.5029 -999.0000 -999.0000 
2899.4001    8.5000    8.5532 -999.0000   15.9939 -999.0000    2.4460   73.4288 -999.0000 -999.0000 
2899.5001    8.5000    8.5441 -999.0000   15.9793 -999.0000    2.4454   72.8279 -999.0000 -999.0000 
2899.6001    8.5000    8.5426 -999.0000   16.1794 -999.0000    2.4444   72.1660 -999.0000 -999.0000 
2899.7001    8.5000    8.5410 -999.0000   16.7601 -999.0000    2.4417   71.2222 -999.0000 -999.0000 
2899.8001    8.5000    8.5502 -999.0000   16.9035 -999.0000    2.4419   70.9507 -999.0000 -999.0000 
2899.9001    8.5000    8.5507 -999.0000   16.8994 -999.0000    2.4433   70.8125 -999.0000 -999.0000 
2900.0001    8.5000    8.5514 -999.0000   17.0474 -999.0000    2.4451   71.0768 -999.0000 -999.0000 
2900.1001    8.5000    8.5471 -999.0000   17.5127 -999.0000    2.4495   71.0991 -999.0000 -999.0000 
2900.2001    8.5000    8.5350 -999.0000   18.5936 -999.0000    2.4508   71.1012 -999.0000 -999.0000 
2900.3001    8.5000    8.5242 -999.0000   20.2407 -999.0000    2.4493   71.0165 -999.0000 -999.0000 
2900.4001    8.5000    8.5404 -999.0000   24.6368 -999.0000    2.4439   71.1827 -999.0000 -999.0000 
2900.5001    8.5000    8.5371 -999.0000   26.4387 -999.0000    2.4418   70.9462 -999.0000 -999.0000 
2900.6001    8.5000    8.5414 -999.0000   27.6711 -999.0000    2.4387   71.0394 -999.0000 -999.0000 
2900.7001    8.5000    8.5631 -999.0000   28.3699 -999.0000    2.4365   71.4113 -999.0000 -999.0000 
2900.8001    8.5000    8.5699 -999.0000   28.5802 -999.0000    2.4351   71.6737 -999.0000 -999.0000 
2900.9001    8.5000    8.5687 -999.0000   28.3502 -999.0000    2.4361   71.8779 -999.0000 -999.0000 
2901.0001    8.5000    8.5677 -999.0000   27.3184 -999.0000    2.4371   72.6712 -999.0000 -999.0000 
2901.1001    8.5000    8.5537 -999.0000   26.2405 -999.0000    2.4397   72.7598 -999.0000 -999.0000 
2901.2001    8.5000    8.5506 -999.0000   25.5409 -999.0000    2.4424   72.8660 -999.0000 -999.0000 
2901.3001    8.5000    8.5391 -999.0000   24.2270 -999.0000    2.4422   72.4482 -999.0000 -999.0000 
2901.4001    8.5000    8.5568 -999.0000   23.6759 -999.0000    2.4419   72.1529 -999.0000 -999.0000 
2901.5001    8.5000    8.5543 -999.0000   22.9484 -999.0000    2.4392   71.7930 -999.0000 -999.0000 
2901.6001    8.5000    8.5483 -999.0000   21.1804 -999.0000    2.4375   71.4399 -999.0000 -999.0000 
2901.7001    8.5000    8.5636 -999.0000   20.4198 -999.0000    2.4400   72.0526 -999.0000 -999.0000 
2901.8001    8.5000    8.5433 -999.0000   19.7279 -999.0000    2.4435   72.3547 -999.0000 -999.0000 
2901.9001    8.5000    8.5484 -999.0000   19.3001 -999.0000    2.4477   72.6630 -999.0000 -999.0000 
