~VERSION INFORMATION
 VERS.                 2.0:   CWLS LOG ASCII STANDARD - VERSION 2.0
 WRAP.                  NO:   SINGLE LINE PER DEPTH STEP
 CREA.                 06/02/2020 16:07:36
#CREATED USING IP VERSION 4.5.2019.2902 BY RMOTA ON 06/02/2020 16:07:36
~WELL INFORMATION
#MNEM.UNIT       DATA                          DESCRIPTION MNEMONIC
#---------      ---------------------------   --------------------------
 STRT    .M         18.4404                   : START DEPTH
 STOP    .M         3544.2144                 : STOP DEPTH
 STEP    .M         0.1524                    : STEP VALUE
 NULL    .      -999.0000                     : NULL VALUE
 DATE    .      06/02/2020                    : LAS file Creation Date
 WELL   .      7-MP-25-BA         : Well Name
 COMP   .      PETROBRAS          : Company
 FLD    .      MASSAPE            : Field
 STATE  .      20240021268        : State
 COUNT  .      BRASIL             : Country
 API    .      20240021268        : API Number
 UWI    .                         : Unique Well Identifier (UWI)
 LOC    .      N= 8.607.478,570 m : Location
 TOWN   .      CTU                : Township
 SCT    .      OH WIRELINE        : Section
 RANG   .      SCHLUMBERGER       : Range
 PDAT   .      NM                 : Permanent Datum
 EPDAT  .      0                  : Elevation of Permanent Datum
 LGMEA  .      MR                 : Log Measured from
 DRMEA  .      MR                 : Drill Measured From
 APDAT  .      65.76              : Elevation Above Permanent Datum
 KB     .      66.06              : KB Elevation
 DF     .      65.76              : DF Elevation
 GL     .      56.36              : GL Elevation
 RWS    .      -999               : Def_Rw
 WST    .      -999               : Def_Rwt
 BHS    .      OPEN               : Completion Status
 PROV   .                         : Province
 MDEC   .      -23.10323          : Magnetic Declination
 SRVC   .                         : Contractor
 GDAT   .      WGS 84             : Geodatum
 LONG   .      -38.4344958333174  : Longitude
 LATI   .      -12.5959183332655  : Latitude
 COORDIN.                         : Grid System
 XCOORD .                         : X or East-West Coordinate
 YCOORD .                         : Y or North-South Coordinate
~CURVE INFORMATION
#MNEM              UNIT       API CODE   Curve Type Comments
#----------  --------------- ----------  ---------- -----------
 DEPTH      .M                         : Depth       
 BS         .in                        : BitSize     
 GR         .gAPI                      : GammaRay    
 CAL        .inch                      : Caliper     
 RT         .ohm.m                     : DeepRes     
 NPHI       .m3/m3                     : Neutron     
 RHOB       .g/cm3                     : Density     
 DT         .us/ft                     : Sonic       
 SP         .mV                        : SP          
 DRDN       .                          :             
 Lith_new   .                          :             
~A  DEPTH     BS        GR       CAL        RT       NPHI      RHOB       DT        SP       DRDN    Lith_new 
# ...
1753.9716   12.2500   80.8324   13.4781    1.9208    0.3508    2.5441   90.5926  977.0000    7.5756   57.0000 
1754.1240   12.2500   84.1973   13.6134    2.0648    0.3327    2.5379   90.6351  977.8125    6.8483   57.0000 
1754.2764   12.2500   85.3020   13.6021    2.1682    0.3217    2.5378   90.3636  980.5000    6.4784   57.0000 
1754.4288   12.2500   86.8354   13.5006    2.1430    0.3576    2.5410   90.9691  979.0625    7.7407   57.0000 
1754.5812   12.2500   84.8443   13.9629    2.1496    0.3575    2.5418   91.6215  976.8125    7.7534   57.0000 
1754.7336   12.2500   84.4833   13.6359    2.2444    0.3624    2.5434   91.7037  977.5000    7.9484   57.0000 
1754.8860   12.2500   83.2374   13.4067    2.3071    0.3346    2.5420   92.0386  979.3750    6.9943   57.0000 
1755.0384   12.2500   84.7514   13.3090    2.1218    0.3328    2.5340   93.5069  979.2500    6.7726   57.0000 
1755.1908   12.2500   85.2327   13.5119    1.9663    0.3407    2.5210   93.8254  977.8125    6.7768   57.0000 
1755.3432   12.2500   84.2496   13.3992    1.8745    0.3565    2.5094   95.3920  977.3125    7.0728   57.0000 
1755.4956   12.2500   82.2952   13.5683    1.7894    0.3454    2.5244   95.4595  978.7500    6.9994   57.0000 
1755.6480   12.2500   84.7889   14.2560    1.8148    0.3368    2.5424   94.5264  978.3125    7.0742   57.0000 
1755.8004   12.2500   87.3712   13.5908    1.8872    0.3253    2.5540   95.2106  978.4375    6.9237   57.0000 
1755.9528   12.2500   91.6116   13.3465    1.9389    0.3380    2.5458   93.5409  980.1875    7.1827   57.0000 
1756.1052   12.2500   88.4543   13.3653    1.9751    0.3241    2.5379   94.5635  974.5000    6.5599   57.0000 
1756.2576   12.2500   83.4392   13.1586    2.0476    0.3113    2.5420   95.4037  972.6250    6.2159   57.0000 
1756.4100   12.2500   79.5269   13.2639    2.0782    0.3125    2.5520   93.9057  976.1250    6.4566   57.0000 
1756.5624   12.2500   78.4776   13.1962    2.0799    0.2965    2.5620   92.8778  976.4375    6.1244   57.0000 
1756.7148   12.2500   83.2681   13.2977    2.0665    0.3100    2.5531   91.8098  977.3125    6.3947   57.0000 
1756.8672   12.2500   83.0601   13.4330    2.1221    0.3169    2.5382   91.5084  977.3750    6.3270   57.0000 
1757.0196   12.2500   83.6903   13.2639    2.1589    0.3235    2.5250   91.1936  979.5000    6.2853   57.0000 
1757.1720   12.2500   83.1007   13.3465    2.1876    0.3131    2.5373   92.0684  975.6250    6.1826   57.0000 
1757.3244   12.2500   80.1484   13.3653    2.2011    0.3033    2.5423   92.5284  977.1250    5.9541   57.0000 
1757.4768   12.2500   78.1846   13.4969    2.2436    0.3440    2.5323   90.4902  978.7500    7.1121   57.0000 
1757.6292   12.2500   76.7510   13.5232    2.2251    0.3597    2.5222   90.2317  978.4375    7.4351   57.0000 
1757.7816   12.2500   79.1023   13.5269    2.1838    0.3848    2.5140   90.3920  977.8750    8.1073   57.0000 
1757.9340   12.2500   78.7907   13.4668    2.2817    0.3721    2.5030   89.7636  975.4375    7.4644   57.0000 
1758.0864   12.2500   78.2813   13.6021    2.6036    0.3608    2.5114   88.6192  975.7500    7.2545   57.0000 
1758.2388   12.2500   70.4894   12.8730    3.1819    0.2739    2.5431   82.2578  975.9375    4.9915   57.0000 
1758.3912   12.2500   67.5703   12.3393    4.1137    0.1857    2.6117   75.2867  977.3750    3.4246   57.0000 
1758.5436   12.2500   64.7108   12.3619    4.8334    0.1339    2.6359   71.2389  978.1875    2.1833   57.0000 
1758.6960   12.2500   68.0348   12.4295    4.2190    0.1733    2.6211   74.6595  979.5000    3.2002   57.0000 
1758.8484   12.2500   72.3588   12.5423    3.8469    0.2267    2.5840   78.5856  980.1250    4.2367   57.0000 
1759.0008   12.2500   77.0773   12.6250    3.3550    0.2568    2.5541   83.1507  979.1250    4.6431   57.0000 
1759.1532   12.2500   84.3095   12.7452    2.8591    0.2627    2.5425   84.3432  979.5000    4.6054   57.0000 
1759.3056   12.2500   87.0588   12.9820    2.5340    0.2684    2.5190   85.4189  980.6250    4.3265   57.0000 
1759.4580   12.2500   86.9124   12.9031    2.4368    0.3002    2.5051   88.8024  978.8125    5.1109   57.0000 
1759.6104   12.2500   84.7784   12.9256    2.3498    0.3211    2.5012   91.8398  977.8125    5.7287   57.0000 
1759.7628   12.2500   84.1926   13.0609    2.2885    0.3349    2.5047   95.6962  979.5000    6.2578   57.0000 
1759.9152   12.2500   84.6758   12.9594    2.3187    0.3755    2.5020   96.7195  977.8750    7.5579   57.0000 
1760.0676   12.2500   82.3627   13.0083    2.3275    0.3729    2.5023   95.3951  977.3125    7.4753   57.0000 
1760.2200   12.2500   84.4081   13.0534    2.3449    0.3875    2.5074   93.8610  978.0625    8.0641   57.0000 
1760.3724   12.2500   84.5265   13.0609    2.3658    0.3420    2.5086   93.7897  984.5625    6.5710   57.0000 
1760.5248   12.2500   84.7942   13.0910    2.3236    0.3391    2.4973   94.2263  982.5625    6.2483   57.0000 
1760.6772   12.2500   83.0812   13.1511    2.3618    0.3124    2.4924   92.7496  979.5000    5.2620   57.0000 
1760.8296   12.2500   80.4342   13.1887    2.4426    0.2992    2.4960   91.3144  981.6250    4.8941   57.0000 
1760.9820   12.2500   83.4441   13.2864    2.5068    0.3044    2.5103   90.5822  983.8750    5.3541   57.0000 
1761.1344   12.2500   80.1069   13.3428    2.4917    0.3305    2.5109   90.7068  979.7500    6.2360   57.0000 
1761.2868   12.2500   79.9410   13.3766    2.3526    0.3480    2.5049   92.0491  976.0625    6.6989   57.0000 
1761.4392   12.2500   77.0240   13.4668    2.2195    0.3376    2.4992   92.3618  979.2500    6.2364   57.0000 
1761.5916   12.2500   75.4500   13.6359    2.1840    0.3213    2.5029   93.1117  975.3125    5.7685   57.0000 
1761.7440   12.2500   73.6909   13.6322    2.1737    0.3115    2.4970   93.7604  975.0625    5.3235   57.0000 
1761.8964   12.2500   76.0043   13.7938    2.1777    0.3179    2.4689   95.7685  975.2500    4.9743   57.0000 
1762.0488   12.2500   78.8111   13.7224    2.1794    0.3328    2.4540   96.1199  977.6875    5.1730   57.0000 
1762.2012   12.2500   80.5883   13.5908    2.1845    0.3558    2.4463   93.4913  972.8750    5.7865   57.0000 
1762.3536   12.2500   79.9575   13.6923    2.1947    0.3905    2.4557   93.9576  975.4375    7.1303   57.0000 
1762.5060   12.2500   83.8871   13.7149    2.2133    0.3830    2.4557   94.6649  977.0000    6.8810   57.0000 
1762.6584   12.2500   88.6071   13.9779    2.2214    0.3596    2.4701   95.6441  974.6875    6.3872   57.0000 
1762.8108   12.2500   89.5887   13.8614    2.2269    0.3189    2.4832   97.2802  973.1875    5.2926   57.0000 
1762.9632   12.2500   86.0469   13.8952    2.2974    0.3120    2.4900   97.6949  973.5625    5.1992   57.0000 
1763.1156   12.2500   82.4047   13.4668    2.3429    0.3049    2.4969   97.2086  973.3750    5.1015   57.0000 
1763.2680   12.2500   84.8213   13.3428    2.2531    0.3104    2.5026   94.4297  971.9375    5.4006   57.0000 
1763.4204   12.2500   80.7968   13.3691    2.1204    0.2983    2.5154   89.9893  975.5625    5.2489   57.0000 
1763.5728   12.2500   83.7428   13.4217    2.2319    0.3170    2.5209   88.7533  975.8750    5.9855   57.0000 
1763.7252   12.2500   80.2245   13.4781    2.4658    0.3171    2.5247   85.4564  975.7500    6.0645   57.0000 
1763.8776   12.2500   83.2998   13.3766    2.6338    0.3239    2.5247   88.3802  977.0000    6.2926   57.0000 
1764.0300   12.2500   81.2287   13.3992    2.5508    0.3438    2.5250   90.1992  974.3125    6.9612   57.0000 
1764.1824   12.2500   83.9305   13.8502    2.4352    0.3679    2.5156   91.6509  974.3125    7.5759   57.0000 
1764.3348   12.2500   85.8130   14.0681    2.4199    0.3645    2.4963   93.2570  973.0000    7.0758   57.0000 
1764.4872   12.2500   86.3843   13.4104    2.3963    0.3491    2.4986   94.5107  972.9375    6.6085   57.0000 
1764.6396   12.2500   85.9352   13.5345    2.2536    0.3394    2.5127   94.3534  973.1875    6.5670   57.0000 
1764.7920   12.2500   86.8666   13.4668    2.1704    0.3723    2.5324   94.3686  972.6250    8.0578   57.0000 
1764.9444   12.2500   86.4157   13.4668    2.1235    0.3568    2.5410   93.0041  973.1875    7.7121   57.0000 
