~VERSION INFORMATION
 VERS.                 2.0:   CWLS LOG ASCII STANDARD - VERSION 2.0
 WRAP.                  NO:   SINGLE LINE PER DEPTH STEP
 CREA.                 30/01/2020 17:31:38
#CREATED USING IP VERSION 4.5.2019.2902 BY RMOTA ON 30/01/2020 17:31:38
~WELL INFORMATION
#MNEM.UNIT       DATA                          DESCRIPTION MNEMONIC
#---------      ---------------------------   --------------------------
 STRT    .M         5.9400                    : START DEPTH
 STOP    .M         3362.3976                 : STOP DEPTH
 STEP    .M         0.1524                    : STEP VALUE
 NULL    .      -999.0000                     : NULL VALUE
 DATE    .      30/01/2020                    : LAS file Creation Date
 WELL   .      7-MP-31D-BA        : Well Name
 COMP   .      PETROBRAS          : Company
 FLD    .      MASSAPE            : Field
 STATE  .      BAHIA              : State
 COUNT  .      BRASIL             : Country
 API    .      20240021426        : API Number
 UWI    .                         : Unique Well Identifier (UWI)
 LOC    .      N= 8.608.492,720 m : Location
 TOWN   .      CATU               : Township
 SCT    .      OH WIRELINE        : Section
 RANG   .      SCHLUMBERGER       : Range
 PDAT   .      NM                 : Permanent Datum
 EPDAT  .      0                  : Elevation of Permanent Datum
 LGMEA  .      MR                 : Log Measured from
 DRMEA  .      MR                 : Drill Measured From
 APDAT  .      66.4               : Elevation Above Permanent Datum
 KB     .      66.7               : KB Elevation
 DF     .      66.4               : DF Elevation
 GL     .      57                 : GL Elevation
 RWS    .      -999               : Def_Rw
 WST    .      -999               : Def_Rwt
 BHS    .      OPEN               : Completion Status
 PROV   .                         : Province
 SRVC   .                         : Contractor
 GDAT   .      WGS 84             : Geodatum
 LONG   .      -38.4314536115858  : Longitude
 LATI   .      -12.5867413889037  : Latitude
 COORDIN.                         : Grid System
 XCOORD .                         : X or East-West Coordinate
 YCOORD .                         : Y or North-South Coordinate
~CURVE INFORMATION
#MNEM              UNIT       API CODE   Curve Type Comments
#----------  --------------- ----------  ---------- -----------
 DEPTH      .M                         : Depth       
 CALI       .inch                      : Caliper     
 BS         .in                        : BitSize     
 GR         .gAPI                      : GammaRay    
 RT         .ohm.m                     : DeepRes     
 NPHI       .m3/m3                     : Neutron     
 RHOB       .g/cm3                     :             
 DT         .us/ft                     : Sonic       
 SP         .mV                        : SP          
 N_Res      .                          :             
 Res        .                          :             
 DRDN       .                          :             
 Lith_new   .                          :             
 DEPTH      .M                         : Depth       
~A  DEPTH    CALI       BS        GR        RT       NPHI      RHOB       DT        SP      N_Res      Res       DRDN    Lith_new   DEPTH   
# ...
2942.0784    8.7452    8.5000   53.2898   30.0852    0.1062    2.4124  116.6431  715.7589    0.0000    1.0000   -3.1873   49.0000 2942.0784 
2942.2308    8.7802    8.5000   59.5194   30.4083    0.1053    2.4168  116.2827  715.3839    0.0000    1.0000   -3.1508   49.0000 2942.2308 
2942.3832    8.7250    8.5000   62.7672   30.5815    0.1105    2.4129  115.6687  715.2529    0.0000    1.0000   -3.0953   49.0000 2942.3832 
2942.5356    8.7797    8.5000   66.8496   30.1351    0.1083    2.4090  115.4175  713.9685    0.0000    1.0000   -3.2280   49.0000 2942.5356 
2942.6880    8.7698    8.5000   62.2383   28.5153    0.1203    2.4058  115.2618  713.9375    0.0000    1.0000   -2.8832   49.0000 2942.6880 
2942.8404    8.6574    8.5000   58.1139   26.6182    0.1191    2.4107  115.1427  713.6324    0.0000    1.0000   -2.7407   49.0000 2942.8404 
2942.9928    8.6771    8.5000   56.9371   25.9836    0.1097    2.4227  114.5555  713.3199    0.0000    1.0000   -2.8044   49.0000 2942.9928 
2943.1452    8.8347    8.5000   62.8789   28.2017    0.1029    2.4401  114.2113  712.8853    0.0000    1.0000   -2.6042   49.0000 2943.1452 
2943.2976    8.9282    8.5000   70.8751   28.6880    0.1178    2.4647  113.8496  713.9124    0.0000    1.0000   -1.6423   49.0000 2943.2976 
2943.4500    8.8519    8.5000   75.5643   29.2144    0.1233    2.4815  114.0912  714.9749    0.0000    1.0000   -1.1607   49.0000 2943.4500 
2943.6024    8.8163    8.5000   72.2921   29.4367    0.1240    2.4889  113.8280  715.7933    0.0000    1.0000   -1.1489   49.0000 2943.6024 
2943.7548    8.8940    8.5000   65.9934   29.7161    0.1036    2.4695  113.5138  714.0428    0.0000    1.0000   -2.3197   49.0000 2943.7548 
2943.9072    8.7725    8.5000   56.8179   30.5253    0.1063    2.4447  113.6429  715.0374    0.0000    1.0000   -2.7498   49.0000 2943.9072 
2944.0596    8.6125    8.5000   54.6115   30.9374    0.1062    2.4200  113.4687  714.6353    0.0000    1.0000   -3.1616   49.0000 2944.0596 
2944.2120    8.6199    8.5000   49.7043   30.3169    0.1048    2.4119  112.8930  713.4045    0.0000    1.0000   -3.2840   49.0000 2944.2120 
2944.3644    8.6202    8.5000   45.4740   29.3274    0.0995    2.4156  113.0201  714.9616    0.0000    1.0000   -3.2833   49.0000 2944.3644 
2944.5168    8.6539    8.5000   42.9148   29.1783    0.0920    2.4320  113.3460  715.1221    0.0000    1.0000   -3.1925   49.0000 2944.5168 
2944.6692    8.6995    8.5000   43.5751   28.8252    0.0950    2.4434  113.4685  714.5758    0.0000    1.0000   -2.9151   49.0000 2944.6692 
2944.8216    8.8240    8.5000   47.8849   28.6262    0.0901    2.4463  113.8600  714.0743    0.0000    1.0000   -3.0935   49.0000 2944.8216 
2944.9740    8.9280    8.5000   48.2205   28.3010    0.0855    2.4416  113.8904  714.0015    0.0000    1.0000   -3.3398   49.0000 2944.9740 
2945.1264    8.8743    8.5000   49.9977   27.8923    0.0783    2.4392  115.5340  713.5728    0.0000    1.0000   -3.6145   49.0000 2945.1264 
2945.2788    8.8617    8.5000   52.4379   27.7451    0.0773    2.4398  116.6684  713.6846    0.0000    1.0000   -3.6148   49.0000 2945.2788 
2945.4312    8.9736    8.5000   54.6903   26.3611    0.0836    2.4390  116.8925  713.9926    0.0000    1.0000   -3.4592   49.0000 2945.4312 
2945.5836    8.7969    8.5000   61.2504   25.2162    0.0899    2.4373  117.1714  713.0847    0.0000    1.0000   -3.2397   49.0000 2945.5836 
2945.7360    8.7925    8.5000   66.0898   25.1693    0.1065    2.4388  117.9226  714.5270    0.0000    1.0000   -2.6682   49.0000 2945.7360 
2945.8884    8.7813    8.5000   77.7248   23.9835    0.1225    2.4490  118.1464  715.3558    0.0000    1.0000   -1.7947   49.0000 2945.8884 
2946.0408    8.7474    8.5000   83.5345   22.4667    0.1536    2.4693  118.7659  715.3140    1.0000    0.0000   -0.3755   25.0000 2946.0408 
2946.1932    8.7017    8.5000   85.5347   22.2421    0.1603    2.4868  118.9626  715.1295    1.0000    0.0000    0.1758   54.0000 2946.1932 
2946.3456    8.6782    8.5000   78.1644   22.5821    0.1527    2.4866  120.0355  715.2471    1.0000    0.0000   -0.3110   25.0000 2946.3456 
2946.4980    8.6776    8.5000   69.6087   23.5331    0.1319    2.4610  120.5288  715.3110    0.0000    1.0000   -1.5614   49.0000 2946.4980 
2946.6504    8.7001    8.5000   61.6766   24.1818    0.1220    2.4357  121.0918  715.6176    0.0000    1.0000   -2.3860   49.0000 2946.6504 
2946.8028    8.8801    8.5000   60.4466   25.7945    0.1168    2.4157  121.0758  716.2963    0.0000    1.0000   -2.8431   49.0000 2946.8028 
2946.9552    8.9069    8.5000   63.3225   26.5154    0.1178    2.4157  120.7104  715.6412    0.0000    1.0000   -2.7482   49.0000 2946.9552 
2947.1076    8.8177    8.5000   62.0232   29.3720    0.1208    2.4135  120.3245  714.6486    0.0000    1.0000   -2.7193   49.0000 2947.1076 
2947.2600    8.6809    8.5000   61.9551   30.5799    0.1197    2.4134  118.0450  713.2825    0.0000    1.0000   -2.7383   49.0000 2947.2600 
2947.4124    8.7001    8.5000   57.9472   28.8285    0.1075    2.4147  117.7349  713.1890    0.0000    1.0000   -3.0968   49.0000 2947.4124 
2947.5648    8.7231    8.5000   63.2138   27.2500    0.0993    2.4237  117.1035  712.8824    0.0000    1.0000   -3.1091   49.0000 2947.5648 
2947.7172    8.7685    8.5000   65.0360   25.8249    0.1106    2.4394  117.0090  712.1427    0.0000    1.0000   -2.4625   49.0000 2947.7172 
2947.8696    8.7471    8.5000   67.4667   24.4649    0.1258    2.4396  117.6598  711.5758    0.0000    1.0000   -2.0787   49.0000 2947.8696 
2948.0220    8.7241    8.5000   67.3801   24.4652    0.1394    2.4264  118.1614  711.6235    0.0000    1.0000   -1.9462   49.0000 2948.0220 
2948.1744    8.7012    8.5000   62.2704   24.5419    0.1281    2.4103  119.4952  710.8317    0.0000    1.0000   -2.5786   49.0000 2948.1744 
2948.3268    8.6333    8.5000   60.9724   23.4308    0.1208    2.4111  120.1846  711.7889    0.0000    1.0000   -2.6956   49.0000 2948.3268 
2948.4792    8.7551    8.5000   59.8307   23.2523    0.1106    2.4169  121.3105  711.1412    0.0000    1.0000   -2.9681   49.0000 2948.4792 
2948.6316    8.8142    8.5000   65.2322   22.2575    0.1166    2.4146  121.8325  711.5522    0.0000    1.0000   -2.8554   49.0000 2948.6316 
2948.7840    8.7482    8.5000   63.5053   21.9027    0.1249    2.4078  121.9715  709.9759    0.0000    1.0000   -2.7310   49.0000 2948.7840 
2948.9364    8.7354    8.5000   62.8064   21.8290    0.1330    2.4025  122.0862  710.1205    0.0000    1.0000   -2.5395   49.0000 2948.9364 
2949.0888    8.7463    8.5000   59.9716   21.6928    0.1252    2.3988  122.3253  709.6368    0.0000    1.0000   -2.8765   49.0000 2949.0888 
2949.2412    8.7017    8.5000   60.5382   22.3326    0.1212    2.3951  122.3749  708.8317    0.0000    1.0000   -3.0751   49.0000 2949.2412 
2949.3936    8.7006    8.5000   60.1295   23.1614    0.1183    2.3925  121.3949  708.3853    0.0000    1.0000   -3.2045   49.0000 2949.3936 
2949.5460    8.7455    8.5000   59.9545   23.3038    0.1287    2.3938  120.5053  707.7648    0.0000    1.0000   -2.8258   49.0000 2949.5460 
2949.6984    8.6681    8.5000   60.6369   23.3727    0.1293    2.3951  119.2618  705.3091    0.0000    1.0000   -2.7585   49.0000 2949.6984 
2949.8508    8.6774    8.5000   60.2431   21.4346    0.1333    2.4023  118.9428  704.2126    0.0000    1.0000   -2.4466   49.0000 2949.8508 
2950.0032    8.8123    8.5000   62.9988   20.0521    0.1319    2.4104  119.0027  704.5536    0.0000    1.0000   -2.3588   49.0000 2950.0032 
2950.1556    8.8716    8.5000   64.5750   18.4429    0.1292    2.4173  119.6047  704.4404    0.0000    1.0000   -2.2722   49.0000 2950.1556 
2950.3080    8.8617    8.5000   70.4396   17.8004    0.1239    2.4364  120.8743  706.5733    0.0000    1.0000   -1.9540   49.0000 2950.3080 
2950.4604    8.9512    8.5000   75.6578   17.4862    0.1379    2.4730  121.3073  706.3809    1.0000    0.0000   -0.6239   25.0000 2950.4604 
2950.6128    8.8524    8.5000   86.6978   17.9179    0.1568    2.5173  122.3908  709.1821    1.0000    0.0000    0.7684   57.0000 2950.6128 
