~VERSION INFORMATION
 VERS.                 2.0:   CWLS LOG ASCII STANDARD - VERSION 2.0
 WRAP.                  NO:   SINGLE LINE PER DEPTH STEP
 CREA.                 30/01/2020 17:31:38
#CREATED USING IP VERSION 4.5.2019.2902 BY RMOTA ON 30/01/2020 17:31:38
~WELL INFORMATION
#MNEM.UNIT       DATA                          DESCRIPTION MNEMONIC
#---------      ---------------------------   --------------------------
 STRT    .M         5.9400                    : START DEPTH
 STOP    .M         3362.3976                 : STOP DEPTH
 STEP    .M         0.1524                    : STEP VALUE
 NULL    .      -999.0000                     : NULL VALUE
 DATE    .      30/01/2020                    : LAS file Creation Date
 WELL   .      7-MP-31D-BA        : Well Name
 COMP   .      PETROBRAS          : Company
 FLD    .      MASSAPE            : Field
 STATE  .      BAHIA              : State
 COUNT  .      BRASIL             : Country
 API    .      20240021426        : API Number
 UWI    .                         : Unique Well Identifier (UWI)
 LOC    .      N= 8.608.492,720 m : Location
 TOWN   .      CATU               : Township
 SCT    .      OH WIRELINE        : Section
 RANG   .      SCHLUMBERGER       : Range
 PDAT   .      NM                 : Permanent Datum
 EPDAT  .      0                  : Elevation of Permanent Datum
 LGMEA  .      MR                 : Log Measured from
 DRMEA  .      MR                 : Drill Measured From
 APDAT  .      66.4               : Elevation Above Permanent Datum
 KB     .      66.7               : KB Elevation
 DF     .      66.4               : DF Elevation
 GL     .      57                 : GL Elevation
 RWS    .      -999               : Def_Rw
 WST    .      -999               : Def_Rwt
 BHS    .      OPEN               : Completion Status
 PROV   .                         : Province
 SRVC   .                         : Contractor
 GDAT   .      WGS 84             : Geodatum
 LONG   .      -38.4314536115858  : Longitude
 LATI   .      -12.5867413889037  : Latitude
 COORDIN.                         : Grid System
 XCOORD .                         : X or East-West Coordinate
 YCOORD .                         : Y or North-South Coordinate
~CURVE INFORMATION
#MNEM              UNIT       API CODE   Curve Type Comments
#----------  --------------- ----------  ---------- -----------
 DEPTH      .M                         : Depth       
 CALI       .inch                      : Caliper     
 BS         .in                        : BitSize     
 GR         .gAPI                      : GammaRay    
 RT         .ohm.m                     : DeepRes     
 NPHI       .m3/m3                     : Neutron     
 RHOB       .g/cm3                     :             
 DT         .us/ft                     : Sonic       
 SP         .mV                        : SP          
 N_Res      .                          :             
 Res        .                          :             
 DRDN       .                          :             
 Lith_new   .                          :             
 DEPTH      .M                         : Depth       
~A  DEPTH    CALI       BS        GR        RT       NPHI      RHOB       DT        SP      N_Res      Res       DRDN    Lith_new   DEPTH   
# ...
1091.7900   12.1070   12.2500   94.0898    4.3853    0.2792    2.5216   89.7996  229.6565 -999.0000 -999.0000    4.6739   57.0000 1091.7900 
1091.9424   12.1564   12.2500   86.7634    4.0568    0.2548    2.5161   86.4566  229.9316 -999.0000 -999.0000    3.8334   57.0000 1091.9424 
1092.0948   12.1946   12.2500   78.5830    4.3732    0.2255    2.5231   84.8102  229.8155 -999.0000 -999.0000    3.0236   57.0000 1092.0948 
1092.2472   12.2326   12.2500   68.6793    5.2810    0.2088    2.5252   85.5842  231.3991 -999.0000 -999.0000    2.4477   57.0000 1092.2472 
1092.3996   12.1841   12.2500   73.2361    5.3379    0.2632    2.5192   86.5530  230.9493 -999.0000 -999.0000    4.0937   57.0000 1092.3996 
1092.5520   12.1335   12.2500   85.6511    4.4516    0.2769    2.5103   90.0711  229.1068 -999.0000 -999.0000    4.4115   57.0000 1092.5520 
1092.7044   12.1323   12.2500   90.0806    4.0655    0.2716    2.5162   90.3178  228.3302 -999.0000 -999.0000    4.4752   57.0000 1092.7044 
1092.8568   12.1323   12.2500   90.2111    4.6519    0.2567    2.5274   86.0072  225.9326 -999.0000 -999.0000    4.1574   57.0000 1092.8568 
1093.0092   12.1323   12.2500   86.9063    5.3821    0.2624    2.5334   86.0016  226.6683 -999.0000 -999.0000    4.4349   57.0000 1093.0092 
1093.1616   12.1323   12.2500   91.8269    5.5458    0.2706    2.5317   84.7953  229.0064 -999.0000 -999.0000    4.6268   57.0000 1093.1616 
1093.3140   12.1817   12.2500   92.2906    5.4405    0.2481    2.5330   85.4322  230.0389 -999.0000 -999.0000    3.9683   57.0000 1093.3140 
1093.4664   12.2446   12.2500   92.4856    5.6793    0.2400    2.5389   83.6350  229.8184 -999.0000 -999.0000    3.8039   57.0000 1093.4664 
1093.6188   12.1844   12.2500   84.3906    6.0168    0.2315    2.5406   83.4302  229.1412 -999.0000 -999.0000    3.5358   57.0000 1093.6188 
1093.7712   12.1335   12.2500   86.6738    5.5933    0.2580    2.5437   88.4743  228.2707 -999.0000 -999.0000    4.5048   57.0000 1093.7712 
1093.9236   12.1323   12.2500   91.4897    5.0738    0.2623    2.5438   88.4930  227.6398 -999.0000 -999.0000    4.5943   57.0000 1093.9236 
1094.0760   12.1570   12.2500   98.4225    4.4384    0.2679    2.5445   89.5297  226.2825 -999.0000 -999.0000    4.8521   57.0000 1094.0760 
1094.2284   12.1452   12.2500   94.2489    4.4950    0.2457    2.5464   88.0842  227.1654 -999.0000 -999.0000    4.1113   57.0000 1094.2284 
1094.3808   12.1079   12.2500   85.6127    5.1029    0.2488    2.5464   85.1597  227.3095 -999.0000 -999.0000    4.2183   57.0000 1094.3808 
1094.5332   12.0823   12.2500   89.7449    5.3894    0.2433    2.5407   84.5912  225.9090 -999.0000 -999.0000    3.8503   57.0000 1094.5332 
1094.6856   12.1064   12.2500   92.7422    5.3446    0.2849    2.5299   86.2231  224.4104 -999.0000 -999.0000    5.0187   57.0000 1094.6856 
1094.8380   12.0823   12.2500   91.0292    5.3142    0.2997    2.5198   84.8636  224.4970 -999.0000 -999.0000    5.3536   57.0000 1094.8380 
1094.9904   12.0941   12.2500   80.3707    5.3427    0.2898    2.5224   83.0450  224.9272 -999.0000 -999.0000    5.1670   57.0000 1094.9904 
1095.1428   12.7487   12.2500   80.1139    5.7761    0.2480    2.5303   83.0343  224.6324 -999.0000 -999.0000    3.9270   57.0000 1095.1428 
1095.2952   12.1472   12.2500   89.6174    6.2661    0.2307    2.5392   81.9464  225.6014 -999.0000 -999.0000    3.5237   57.0000 1095.2952 
1095.4476   12.1570   12.2500   92.6818    6.0765    0.2385    2.5412   84.3710  223.7333 -999.0000 -999.0000    3.7470   57.0000 1095.4476 
1095.6000   12.0835   12.2500   92.3371    5.9017    0.2559    2.5359   84.0026  221.7958 -999.0000 -999.0000    4.2052   57.0000 1095.6000 
1095.7524   11.9953   12.2500   83.4203    5.7402    0.2568    2.5306   85.6677  221.6890 -999.0000 -999.0000    4.1575   57.0000 1095.7524 
1095.9048   11.9315   12.2500   87.0603    5.4376    0.2688    2.5320   87.1977  221.3824 -999.0000 -999.0000    4.6388   57.0000 1095.9048 
1096.0572   12.0288   12.2500   90.2066    5.1348    0.2600    2.5446   86.8262  224.3041 -999.0000 -999.0000    4.6837   57.0000 1096.0572 
1096.2096   12.0558   12.2500   97.1214    5.0414    0.2523    2.5599   88.6031  228.8907 -999.0000 -999.0000    4.6840   57.0000 1096.2096 
1096.3620   12.0564   12.2500   99.1462    4.8213    0.2817    2.5693   87.7497  231.0748 -999.0000 -999.0000    5.8037   57.0000 1096.3620 
1096.5144   12.0688   12.2500   95.1757    5.2263    0.3031    2.5622   90.2734  231.3691 -999.0000 -999.0000    6.2418   57.0000 1096.5144 
1096.6668   12.0320   12.2500   92.1862    4.6661    0.3287    2.5502   91.7537  230.7037 -999.0000 -999.0000    6.8829   57.0000 1096.6668 
1096.8192   12.0558   12.2500   88.1909    4.1736    0.2925    2.5329   92.5786  231.3588 -999.0000 -999.0000    5.2949   57.0000 1096.8192 
1096.9716   12.0811   12.2500   94.2234    3.6582    0.2690    2.5263   96.2519  232.4124 -999.0000 -999.0000    4.4897   57.0000 1096.9716 
1097.1240   11.9830   12.2500   98.4521    3.3950    0.2654    2.5232   97.2176  233.1088 -999.0000 -999.0000    4.2894   57.0000 1097.1240 
1097.2764   12.0546   12.2500  101.2366    3.2109    0.3000    2.5234  101.1135  232.8199 -999.0000 -999.0000    5.4582   57.0000 1097.2764 
1097.4288   12.0811   12.2500   94.6905    2.9176    0.3489    2.5171  104.6488  233.0566 -999.0000 -999.0000    6.9314   57.0000 1097.4288 
1097.5812   12.0570   12.2500   94.3754    2.6465    0.4042    2.5147  107.1835  233.7948 -999.0000 -999.0000    8.7547   57.0000 1097.5812 
1097.7336   12.1058   12.2500  101.1893    2.3896    0.3933    2.5115  108.5594  234.3617 -999.0000 -999.0000    8.3138   57.0000 1097.7336 
1097.8860   12.1317   12.2500  109.1604    2.2164    0.4007    2.5078  110.9142  234.2530 -999.0000 -999.0000    8.4802   57.0000 1097.8860 
1098.0384   12.1570   12.2500  111.2086    2.1323    0.3927    2.5005  111.3484  233.7008 -999.0000 -999.0000    8.0360   57.0000 1098.0384 
1098.1908   12.1576   12.2500  103.6095    2.0807    0.4013    2.4915  111.8089  233.0773 -999.0000 -999.0000    8.1634   57.0000 1098.1908 
1098.3432   12.1823   12.2500  100.3188    2.0421    0.3670    2.4858  112.6261  232.3302 -999.0000 -999.0000    6.9163   57.0000 1098.3432 
1098.4956   12.2076   12.2500  100.4502    2.0478    0.3475    2.4834  112.3710  232.4345 -999.0000 -999.0000    6.2618   57.0000 1098.4956 
1098.6480   12.2329   12.2500  105.6202    2.0726    0.3409    2.4885  109.4646  231.8273 -999.0000 -999.0000    6.1883   57.0000 1098.6480 
1098.8004   12.2458   12.2500  104.3630    2.1461    0.3605    2.4982  105.1153  231.4464 -999.0000 -999.0000    7.0552   57.0000 1098.8004 
1098.9528   12.2091   12.2500   99.1646    2.4264    0.3475    2.5108  101.9124  230.4001 -999.0000 -999.0000    6.8929   57.0000 1098.9528 
1099.1052   12.1835   12.2500   98.8330    2.8699    0.3547    2.5220   98.8281  230.4970 -999.0000 -999.0000    7.3424   57.0000 1099.1052 
1099.2576   12.2323   12.2500  101.2946    3.2728    0.3113    2.5403   93.4187  231.2933 -999.0000 -999.0000    6.3226   57.0000 1099.2576 
1099.4100   12.2829   12.2500  103.4625    3.7254    0.2785    2.5561   91.5147  230.1530 -999.0000 -999.0000    5.4941   57.0000 1099.4100 
1099.5624   12.3334   12.2500   96.4891    4.5273    0.2637    2.5722   90.9350  229.1486 -999.0000 -999.0000    5.3299   57.0000 1099.5624 
1099.7148   12.1371   12.2500   90.9476    5.1415    0.2574    2.5736   88.7027  227.6604 -999.0000 -999.0000    4.9683   57.0000 1099.7148 
1099.8672   12.1200   12.2500   91.3652    4.6863    0.2822    2.5610   94.1113  227.2589 -999.0000 -999.0000    5.5481   57.0000 1099.8672 
1100.0196   12.1073   12.2500  100.6609    4.2657    0.2859    2.5477   95.0471  229.2638 -999.0000 -999.0000    5.3895   57.0000 1100.0196 
1100.1720   12.1070   12.2500  107.4966    3.8798    0.3062    2.5378   95.7853  230.4720 -999.0000 -999.0000    5.9251   57.0000 1100.1720 
1100.3244   12.1070   12.2500  105.2075    3.3870    0.3023    2.5282   99.9518  232.5138 -999.0000 -999.0000    5.5240   57.0000 1100.3244 
