~VERSION INFORMATION
 VERS.                 2.0:   CWLS LOG ASCII STANDARD - VERSION 2.0
 WRAP.                  NO:   SINGLE LINE PER DEPTH STEP
 CREA.                 06/02/2020 16:07:36
#CREATED USING IP VERSION 4.5.2019.2902 BY RMOTA ON 06/02/2020 16:07:36
~WELL INFORMATION
#MNEM.UNIT       DATA                          DESCRIPTION MNEMONIC
#---------      ---------------------------   --------------------------
 STRT    .M         18.4404                   : START DEPTH
 STOP    .M         3544.2144                 : STOP DEPTH
 STEP    .M         0.1524                    : STEP VALUE
 NULL    .      -999.0000                     : NULL VALUE
 DATE    .      06/02/2020                    : LAS file Creation Date
 WELL   .      7-MP-25-BA         : Well Name
 COMP   .      PETROBRAS          : Company
 FLD    .      MASSAPE            : Field
 STATE  .      20240021268        : State
 COUNT  .      BRASIL             : Country
 API    .      20240021268        : API Number
 UWI    .                         : Unique Well Identifier (UWI)
 LOC    .      N= 8.607.478,570 m : Location
 TOWN   .      CTU                : Township
 SCT    .      OH WIRELINE        : Section
 RANG   .      SCHLUMBERGER       : Range
 PDAT   .      NM                 : Permanent Datum
 EPDAT  .      0                  : Elevation of Permanent Datum
 LGMEA  .      MR                 : Log Measured from
 DRMEA  .      MR                 : Drill Measured From
 APDAT  .      65.76              : Elevation Above Permanent Datum
 KB     .      66.06              : KB Elevation
 DF     .      65.76              : DF Elevation
 GL     .      56.36              : GL Elevation
 RWS    .      -999               : Def_Rw
 WST    .      -999               : Def_Rwt
 BHS    .      OPEN               : Completion Status
 PROV   .                         : Province
 MDEC   .      -23.10323          : Magnetic Declination
 SRVC   .                         : Contractor
 GDAT   .      WGS 84             : Geodatum
 LONG   .      -38.4344958333174  : Longitude
 LATI   .      -12.5959183332655  : Latitude
 COORDIN.                         : Grid System
 XCOORD .                         : X or East-West Coordinate
 YCOORD .                         : Y or North-South Coordinate
~CURVE INFORMATION
#MNEM              UNIT       API CODE   Curve Type Comments
#----------  --------------- ----------  ---------- -----------
 DEPTH      .M                         : Depth       
 BS         .in                        : BitSize     
 GR         .gAPI                      : GammaRay    
 CAL        .inch                      : Caliper     
 RT         .ohm.m                     : DeepRes     
 NPHI       .m3/m3                     : Neutron     
 RHOB       .g/cm3                     : Density     
 DT         .us/ft                     : Sonic       
 SP         .mV                        : SP          
 DRDN       .                          :             
 Lith_new   .                          :             
~A  DEPTH     BS        GR       CAL        RT       NPHI      RHOB       DT        SP       DRDN    Lith_new 
# ...
1397.9652   12.2500   87.6348   12.1364    5.1022    0.1874    2.5872   78.6552 1013.0625    2.9907   57.0000 
1398.1176   12.2500   90.9149   12.1514    5.3218    0.1897    2.5899   79.0893 1013.0000    3.1199   57.0000 
1398.2700   12.2500   91.8454   12.1589    5.3178    0.1879    2.5865   78.8800 1012.9375    2.9949   57.0000 
1398.4224   12.2500   91.3798   12.1364    5.2283    0.1924    2.5877   78.4851 1012.0625    3.1664   57.0000 
1398.5748   12.2500   86.3846   12.1364    5.2032    0.1989    2.5894   77.6141 1013.0625    3.4181   57.0000 
1398.7272   12.2500   88.1011   12.1364    5.2548    0.1931    2.5964   78.0921 1013.6250    3.3667   57.0000 
1398.8796   12.2500   92.1023   12.1439    5.0535    0.2032    2.5952   80.5557 1013.2500    3.6789   57.0000 
1399.0320   12.2500   99.5124   12.1364    4.6907    0.2181    2.5842   83.9512 1013.6250    3.9536   57.0000 
1399.1844   12.2500  102.4833   12.1477    4.2684    0.2477    2.5757   85.7073 1013.4375    4.7695   57.0000 
1399.3368   12.2500  103.7704   12.1364    3.8383    0.2497    2.5664   86.4533 1013.6250    4.6518   57.0000 
1399.4892   12.2500   99.9117   12.1251    3.8880    0.2409    2.5672   85.8002 1012.8750    4.3747   57.0000 
1399.6416   12.2500  102.7161   12.1251    4.1969    0.2362    2.5843   84.1808 1013.5625    4.5578   57.0000 
1399.7940   12.2500   99.4652   12.1514    4.4831    0.2025    2.6119   80.1665 1013.3125    3.9891   57.0000 
1399.9464   12.2500   93.6626   12.1251    5.2599    0.1548    2.6430   74.5920 1013.8125    3.0205   57.0000 
1400.0988   12.2500   78.7191   12.1251    8.1237    0.1110    2.6526   71.6186 1013.5625    1.7536   57.0000 
1400.2512   12.2500   78.4294   12.1138   12.2931    0.1360    2.6407   72.7042 1013.9375    2.3471   57.0000 
1400.4036   12.2500   83.6813   12.1213    9.9162    0.1766    2.6161   75.7820 1014.1250    3.2078   57.0000 
1400.5560   12.2500   94.2934   12.1364    6.5777    0.2139    2.6008   79.8396 1014.1250    4.1454   57.0000 
1400.7084   12.2500   98.3147   12.1364    5.2067    0.2204    2.5910   80.9415 1013.9375    4.1685   57.0000 
1400.8608   12.2500   99.5873   12.1477    4.7585    0.2267    2.5871   81.6183 1014.3750    4.2968   57.0000 
1401.0132   12.2500   97.9048   12.1364    4.7768    0.2361    2.5761   83.1385 1014.2500    4.3927   57.0000 
1401.1656   12.2500   97.8214   12.1364    4.7155    0.2426    2.5693   84.5630 1014.3750    4.4717   57.0000 
1401.3180   12.2500  100.4684   12.1477    4.6135    0.2415    2.5625   84.9814 1014.4375    4.2999   57.0000 
1401.4704   12.2500  101.9593   12.1439    4.5674    0.2390    2.5589   82.5943 1014.0000    4.1453   57.0000 
1401.6228   12.2500  100.2399   12.1251    4.5289    0.2351    2.5603   81.5523 1014.5000    4.0427   57.0000 
1401.7752   12.2500   97.5929   12.1138    4.6341    0.2352    2.5734   79.1651 1014.3750    4.3070   57.0000 
1401.9276   12.2500   92.1294   12.1138    4.7494    0.2172    2.5911   77.7858 1014.1250    4.0631   57.0000 
1402.0800   12.2500   85.5190   12.1138    4.9631    0.2047    2.6018   79.2262 1014.5000    3.8598   57.0000 
1402.2324   12.2500   82.5930   12.1138    5.2825    0.2167    2.5968   78.5186 1013.6875    4.1614   57.0000 
1402.3848   12.2500   87.1309   12.1364    5.5083    0.2174    2.5822   80.7317 1014.3125    3.8910   57.0000 
1402.5372   12.2500   89.8058   12.1289    5.4248    0.2279    2.5650   82.7473 1014.7500    3.8947   57.0000 
1402.6896   12.2500   90.9270   12.1364    5.4302    0.2111    2.5577   82.9215 1014.3750    3.1907   57.0000 
1402.8420   12.2500   91.4035   12.1251    5.6123    0.2349    2.5560   84.1473 1014.6250    3.9512   57.0000 
1402.9944   12.2500   95.5794   12.1477    5.6793    0.2412    2.5723   81.6100 1015.0000    4.4847   57.0000 
1403.1468   12.2500   94.4654   12.1477    5.5993    0.2303    2.5862   78.8320 1014.7500    4.4010   57.0000 
1403.2992   12.2500   86.4431   12.1928    5.7997    0.1983    2.6063   76.9033 1014.8125    3.7370   57.0000 
1403.4516   12.2500   82.2530   12.2115    6.3921    0.1716    2.6089   75.0259 1015.1250    2.8988   57.0000 
1403.6040   12.2500   78.9152   12.2040    7.4480    0.1751    2.6035   75.3338 1015.0000    2.9088   57.0000 
1403.7564   12.2500   84.6582   12.2153    7.7345    0.1828    2.5831   78.5637 1015.4375    2.7542   57.0000 
1403.9088   12.2500   87.5773   12.1890    7.2063    0.2129    2.5661   81.9662 1014.5000    3.4200   57.0000 
1404.0612   12.2500   96.2035   12.1664    6.7928    0.2218    2.5554   84.8024 1014.7500    3.5013   57.0000 
1404.2136   12.2500   94.7919   12.1477    6.3156    0.2443    2.5514   86.2933 1014.6875    4.1725   57.0000 
1404.3660   12.2500  100.0687   12.1026    5.7331    0.2299    2.5527   86.5094 1015.1875    3.7170   57.0000 
1404.5184   12.2500  100.6113   12.0913    5.3091    0.2407    2.5586   86.0898 1015.3125    4.1958   57.0000 
1404.6708   12.2500  105.5084   12.0687    4.8643    0.2411    2.5692   85.3180 1015.5000    4.4207   57.0000 
1404.8232   12.2500  102.2238   12.0687    4.4646    0.2505    2.5738   85.4035 1016.0000    4.8268   57.0000 
1404.9756   12.2500   99.9480   12.0913    4.3149    0.2599    2.5728   85.6311 1015.7500    5.1205   57.0000 
1405.1280   12.2500  100.5490   12.0838    4.1922    0.2513    2.5731   85.2054 1016.0625    4.8374   57.0000 
1405.2804   12.2500  102.7110   12.0800    3.8765    0.2535    2.5723   86.4518 1015.8750    4.8953   57.0000 
1405.4328   12.2500  104.4441   12.0913    3.5399    0.2538    2.5785   86.4019 1015.1875    5.0318   57.0000 
1405.5852   12.2500  101.4727   12.1138    3.3987    0.2391    2.5843   81.1186 1015.3750    4.6566   57.0000 
1405.7376   12.2500   94.5340   12.1364    3.4569    0.1980    2.6001   73.6447 1015.7500    3.6039   57.0000 
1405.8900   12.2500   88.1157   12.3017    4.0765    0.1499    2.6250   68.3897 1015.3750    2.4947   57.0000 
1406.0424   12.2500   86.3996   12.3281    5.1804    0.1456    2.6305   68.8899 1015.1250    2.4619   57.0000 
1406.1948   12.2500   86.2486   12.3281    5.7598    0.1788    2.6289   73.9055 1014.7500    3.5400   57.0000 
1406.3472   12.2500   93.2095   12.3844    5.9812    0.2056    2.6112   75.4703 1015.1875    4.0768   57.0000 
1406.4996   12.2500   94.0834   12.1965    6.8929    0.2237    2.6116   80.3754 1015.4375    4.6889   57.0000 
1406.6520   12.2500   99.2878   12.1477    6.2054    0.2202    2.6058   83.0277 1015.3125    4.4565   57.0000 
1406.8044   12.2500   97.9070   12.1364    5.1448    0.2414    2.5868   83.0834 1015.5000    4.7832   57.0000 
1406.9568   12.2500   98.8696   12.1364    4.4048    0.2447    2.5709   86.4141 1015.3750    4.5736   57.0000 
1407.1092   12.2500   99.5545   12.1364    4.0247    0.2617    2.5697   87.1074 1015.0000    5.1172   57.0000 
1407.2616   12.2500  100.0684   12.1364    3.9092    0.2590    2.5808   87.1494 1015.1250    5.2481   57.0000 
1407.4140   12.2500  103.3170   12.1439    3.9648    0.2783    2.5776   89.5153 1014.8125    5.8282   57.0000 
1407.5664   12.2500  108.3650   12.1251    3.9767    0.2788    2.5603   88.5611 1015.6875    5.4971   57.0000 
1407.7188   12.2500  107.4354   12.1364    3.9399    0.2780    2.5563   86.6194 1015.8125    5.3941   57.0000 
1407.8712   12.2500  105.5956   12.1251    4.1653    0.2592    2.5657   83.0804 1015.6250    4.9534   57.0000 
1408.0236   12.2500   98.5392   12.1138    4.4896    0.2361    2.5835   77.9604 1015.8750    4.5412   57.0000 
1408.1760   12.2500   95.3955   12.1138    4.9742    0.2076    2.5975   75.6243 1015.3750    3.8711   57.0000 
1408.3284   12.2500   87.4896   12.1138    5.5852    0.1756    2.6029   73.9904 1014.6875    2.9102   57.0000 
1408.4808   12.2500   83.4885   12.1251    6.3291    0.1673    2.6098   73.8083 1014.6875    2.7711   57.0000 
1408.6332   12.2500   88.7653   12.1138    6.5678    0.1703    2.5995   77.1225 1014.3125    2.6666   57.0000 
1408.7856   12.2500  101.2385   12.1364    5.7902    0.1989    2.5912   80.0863 1013.9375    3.4547   57.0000 
1408.9380   12.2500  105.7209   12.1251    4.8479    0.2106    2.5782   82.4967 1013.1250    3.5834   57.0000 
