~VERSION INFORMATION
 VERS.                 2.0:   CWLS LOG ASCII STANDARD - VERSION 2.0
 WRAP.                  NO:   SINGLE LINE PER DEPTH STEP
 CREA.                 06/02/2020 16:33:07
#CREATED USING IP VERSION 4.5.2019.2902 BY RMOTA ON 06/02/2020 16:33:07
~WELL INFORMATION
#MNEM.UNIT       DATA                          DESCRIPTION MNEMONIC
#---------      ---------------------------   --------------------------
 STRT    .M         500.8250                  : START DEPTH
 STOP    .M         3050.8250                 : STOP DEPTH
 STEP    .M         0.1000                    : STEP VALUE
 NULL    .      -999.0000                     : NULL VALUE
 DATE    .      06/02/2020                    : LAS file Creation Date
 WELL   .      7-MP-34D-BA     : Well Name
 COMP   .      PETROBRAS       : Company
 FLD    .      MASSAPE         : Field
 STATE  .      BAHIA           : State
 API    .      20240022160     : API Number
 UWI    .                      : Unique Well Identifier (UWI)
 LOC    .                      : Location
 PDAT   .      NM              : Permanent Datum
 EPDAT  .      0.0             : Elevation of Permanent Datum
 LGMEA  .      MR              : Log Measured from
 DRMEA  .      MR              : Drill Measured From
 APDAT  .      65.65           : Elevation Above Permanent Datum
 KB     .      65.95           : KB Elevation
 DF     .      65.65           : DF Elevation
 RWS    .      -999            : Def_Rw
 WST    .      -999            : Def_Rwt
 PROV   .                      : Province
 SRVC   .                      : Contractor
 GDAT   .      WGS 84          : Geodatum
 LONG   .      -38.435477499961: Longitude
 LATI   .      0               : Latitude
 COORDIN.                      : Grid System
 XCOORD .                      : X or East-West Coordinate
 YCOORD .                      : Y or North-South Coordinate
~CURVE INFORMATION
#MNEM              UNIT       API CODE   Curve Type Comments
#----------  --------------- ----------  ---------- -----------
 DEPTH      .M                         : Depth       
 CAL        .inch                      : Caliper     
 BS         .in                        : BitSize     
 GR         .gAPI                      : GammaRay    
 ILD        .ohm.m                     : DeepRes     
 RHOB       .G/CC                      : Density     
 NPHI       .dec                       : Neutron     
 DT         .uS/ft                     : Sonic       
 DRDN       .                          :             
 Lith_new   .                          :             
~A  DEPTH    CAL        BS        GR       ILD       RHOB      NPHI       DT       DRDN    Lith_new 
# ...
2876.8250    8.6421    8.5000  112.0249   11.3137    2.6072    0.1657   72.0480    2.6668   57.0000 
2876.9250    8.6497    8.5000  111.3374   11.3549    2.6031    0.1622   72.4510    2.4665   57.0000 
2877.0250    8.6726    8.5000  108.4957   11.4575    2.5927    0.1584   73.0372    2.1330   57.0000 
2877.1250    8.6955    8.5000  104.8854   11.6703    2.5726    0.1536   73.5495    1.5729   57.0000 
2877.2250    8.7108    8.5000  100.7977   12.0734    2.5509    0.1487   73.6990    0.9729   57.0000 
2877.3250    8.6955    8.5000   94.4507   12.7892    2.5388    0.1435   73.1668    0.5617   57.0000 
2877.4250    8.6650    8.5000   87.9158   13.9402    2.5395    0.1398   71.9577    0.4499   57.0000 
2877.5250    8.6497    8.5000   81.3659   15.5209    2.5467    0.1352   70.2240    0.4397   57.0000 
2877.6250    8.6421    8.5000   75.1204   17.2570    2.5528    0.1278   68.4725    0.3179   57.0000 
2877.7250    8.6344    8.5000   70.1422   18.5996    2.5584    0.1160   67.1842    0.0362   54.0000 
2877.8250    8.6421    8.5000   66.2954   19.0949    2.5658    0.1023   66.6668   -0.2733   54.0000 
2877.9250    8.6573    8.5000   62.4476   18.9457    2.5716    0.0904   67.1383   -0.5542   25.0000 
2878.0250    8.6803    8.5000   59.4983   18.4764    2.5732    0.0831   68.3980   -0.7685   25.0000 
2878.1250    8.6955    8.5000   58.4005   17.9652    2.5620    0.0801   70.1684   -1.0900   49.0000 
2878.2250    8.7108    8.5000   57.9689   17.4453    2.5398    0.0801   71.9883   -1.5336   49.0000 
2878.3250    8.7108    8.5000   58.9291   16.7991    2.5118    0.0823   73.4490   -2.0209   49.0000 
2878.4250    8.7108    8.5000   60.5511   15.9300    2.4923    0.0873   74.4429   -2.2437   49.0000 
2878.5250    8.7414    8.5000   63.2746   14.8884    2.4858    0.0950   74.9872   -2.1182   49.0000 
2878.6250    8.7414    8.5000   68.1513   13.8787    2.4826    0.1050   75.2423   -1.8487   49.0000 
2878.7250    8.7261    8.5000   74.6624   13.1334    2.4771    0.1148   75.3082   -1.6298   49.0000 
2878.8250    8.7414    8.5000   84.4290   12.8157    2.4732    0.1249   75.1918   -1.3728   49.0000 
2878.9250    8.6803    8.5000   93.6882   12.9966    2.4876    0.1340   74.9046   -0.7810   25.0000 
2879.0250    8.6879    8.5000  100.7553   13.6924    2.5174    0.1442   74.4546    0.1550   54.0000 
2879.1250    8.7108    8.5000  104.5368   14.8406    2.5519    0.1546   73.9541    1.1907   57.0000 
2879.2250    8.7185    8.5000  101.1207   16.2263    2.5726    0.1649   73.5898    1.9477   57.0000 
2879.3250    8.7567    8.5000   93.5735   17.4737    2.5782    0.1713   73.4908    2.2746   57.0000 
2879.4250    8.7490    8.5000   84.0398   18.2262    2.5646    0.1714   73.6525    2.0042   57.0000 
2879.5250    8.7337    8.5000   73.8310   18.4756    2.5359    0.1640   73.9306    1.1859   57.0000 
2879.6250    8.7337    8.5000   66.4154   18.4738    2.4986    0.1526   74.2107    0.0582   54.0000 
2879.7250    8.7032    8.5000   63.1669   18.5635    2.4716    0.1409   74.4434   -0.8730   25.0000 
2879.8250    8.6955    8.5000   62.6180   19.0349    2.4640    0.1323   74.6031   -1.3113   49.0000 
2879.9250    8.6879    8.5000   65.0016   20.2361    2.4698    0.1276   74.5827   -1.3520   49.0000 
2880.0250    8.6955    8.5000   69.0620   22.3005    2.4753    0.1264   74.2837   -1.2821   49.0000 
2880.1250    8.7032    8.5000   71.4818   24.8614    2.4783    0.1271   73.6357   -1.1968   49.0000 
2880.2250    8.6879    8.5000   72.6776   26.7996    2.4835    0.1282   72.6495   -1.0580   49.0000 
2880.3250    8.6803    8.5000   71.9037   27.1093    2.4956    0.1273   71.5056   -0.8439   25.0000 
2880.4250    8.6573    8.5000   68.7646   25.8976    2.5086    0.1226   70.4128   -0.7406   25.0000 
2880.5250    8.6879    8.5000   65.5585   24.0039    2.5166    0.1139   69.6520   -0.8738   25.0000 
2880.6250    8.6879    8.5000   63.5040   22.1194    2.5153    0.1037   69.3806   -1.2373   49.0000 
2880.7250    8.6955    8.5000   63.9514   20.5707    2.5071    0.0964   69.5219   -1.6451   49.0000 
2880.8250    8.6955    8.5000   67.1929   19.4396    2.4994    0.0946   69.9347   -1.8565   49.0000 
2880.9250    8.6650    8.5000   72.2708   18.7863    2.5021    0.0994   70.3883   -1.6433   49.0000 
2881.0250    8.6573    8.5000   78.1332   18.6821    2.5173    0.1099   70.7383   -0.9913   25.0000 
2881.1250    8.6344    8.5000   82.6799   19.2042    2.5382    0.1237   70.8913   -0.1132   54.0000 
2881.2250    8.6268    8.5000   88.0640   20.2988    2.5566    0.1372   70.8423    0.7055   57.0000 
2881.3250    8.6038    8.5000   92.6672   21.7263    2.5751    0.1482   70.6459    1.4415   57.0000 
2881.4250    8.5962    8.5000   94.3792   22.9956    2.5974    0.1542   70.4903    2.0887   57.0000 
2881.5250    8.5809    8.5000   94.3201   23.7408    2.6073    0.1543   70.4597    2.2902   57.0000 
2881.6250    8.5962    8.5000   89.4346   23.8925    2.5923    0.1474   70.5929    1.7588   57.0000 
2881.7250    8.6038    8.5000   83.1300   23.8746    2.5530    0.1365   70.7755    0.6104   57.0000 
2881.8250    8.6191    8.5000   78.4333   24.1640    2.5197    0.1268   70.9301   -0.3803   25.0000 
2881.9250    8.6038    8.5000   75.1857   25.0537    2.5039    0.1220   71.0168   -0.8553   25.0000 
2882.0250    8.6038    8.5000   73.3457   26.5414    2.5058    0.1222   71.0893   -0.8104   25.0000 
2882.1250    8.6115    8.5000   71.2806   28.3111    2.5113    0.1248   71.1056   -0.6138   25.0000 
2882.2250    8.6268    8.5000   68.2960   30.0020    2.5155    0.1276   71.0526   -0.4378   25.0000 
2882.3250    8.6421    8.5000   64.2435   31.1888    2.5134    0.1288   70.9148   -0.4396   25.0000 
2882.4250    8.6268    8.5000   60.0834   31.5567    2.5046    0.1266   70.7515   -0.6881   25.0000 
2882.5250    8.5962    8.5000   56.2463   30.8652    2.4925    0.1199   70.7041   -1.1519   49.0000 
2882.6250    8.5504    8.5000   52.7879   29.1916    2.4826    0.1096   70.8719   -1.6934   49.0000 
2882.7250    8.5504    8.5000   50.2447   26.9427    2.4771    0.1008   71.3133   -2.0978   49.0000 
2882.8250    8.5656    8.5000   50.1283   24.7532    2.4730    0.0974   71.9179   -2.2926   49.0000 
2882.9250    8.5809    8.5000   52.2914   23.2552    2.4678    0.1009   72.4923   -2.2816   49.0000 
2883.0250    8.5962    8.5000   56.3367   22.7710    2.4621    0.1080   73.0199   -2.1577   49.0000 
2883.1250    8.6191    8.5000   62.8291   23.4525    2.4584    0.1153   73.3837   -1.9889   49.0000 
2883.2250    8.6191    8.5000   70.0708   25.2158    2.4617    0.1215   73.5776   -1.7145   49.0000 
2883.3250    8.6191    8.5000   76.0391   27.8810    2.4713    0.1279   73.4750   -1.3102   49.0000 
2883.4250    8.6268    8.5000   79.2196   31.1899    2.4865    0.1340   72.9459   -0.8012   25.0000 
2883.5250    8.5886    8.5000   78.2003   34.6331    2.4905    0.1391   72.2505   -0.5549   25.0000 
2883.6250    8.5656    8.5000   72.1340   37.4595    2.4789    0.1393   71.3985   -0.7787   25.0000 
2883.7250    8.5427    8.5000   64.2100   38.7016    2.4581    0.1358   70.4806   -1.3131   49.0000 
2883.8250    8.5351    8.5000   57.8163   38.3085    2.4494    0.1287   69.4597   -1.7211   49.0000 
2883.9250    8.5504    8.5000   53.1372   36.9017    2.4522    0.1217   68.5342   -1.8985   49.0000 
2884.0250    8.5580    8.5000   52.2477   35.4621    2.4554    0.1159   68.1189   -2.0301   49.0000 
2884.1250    8.5427    8.5000   53.4850   34.4589    2.4548    0.1129   68.4750   -2.1384   49.0000 
2884.2250    8.5427    8.5000   54.2818   34.2330    2.4552    0.1135   69.5378   -2.1128   49.0000 
2884.3250    8.5274    8.5000   55.4512   34.6604    2.4574    0.1166   71.0010   -1.9642   49.0000 
2884.4250    8.5274    8.5000   55.6047   35.6694    2.4520    0.1214   72.3944   -1.9134   49.0000 
2884.5250    8.5427    8.5000   55.0390   37.0697    2.4430    0.1253   73.3704   -1.9649   49.0000 
2884.6250    8.5427    8.5000   54.9808   38.7370    2.4340    0.1274   73.7755   -2.0751   49.0000 
2884.7250    8.5656    8.5000   54.8025   40.3427    2.4318    0.1275   73.6929   -2.1141   49.0000 
