~VERSION INFORMATION
 VERS.                 2.0:   CWLS LOG ASCII STANDARD - VERSION 2.0
 WRAP.                  NO:   SINGLE LINE PER DEPTH STEP
 CREA.                 06/02/2020 16:44:49
#CREATED USING IP VERSION 4.5.2019.2902 BY RMOTA ON 06/02/2020 16:44:49
~WELL INFORMATION
#MNEM.UNIT       DATA                          DESCRIPTION MNEMONIC
#---------      ---------------------------   --------------------------
 STRT    .M         1550.0001                 : START DEPTH
 STOP    .M         2926.1001                 : STOP DEPTH
 STEP    .M         0.1000                    : STEP VALUE
 NULL    .      -999.0000                     : NULL VALUE
 DATE    .      06/02/2020                    : LAS file Creation Date
 WELL   .      7-MP-47DP-BA    : Well Name
 COMP   .      PETROBRAS       : Company
 FLD    .      MASSAPE         : Field
 STATE  .      BAHIA           : State
 API    .      20240025025     : API Number
 UWI    .                      : Unique Well Identifier (UWI)
 LOC    .      20240025025     : Location
 PDAT   .      NM              : Permanent Datum
 EPDAT  .      0.0             : Elevation of Permanent Datum
 LGMEA  .      MR              : Log Measured from
 DRMEA  .      MR              : Drill Measured From
 APDAT  .      65.68           : Elevation Above Permanent Datum
 KB     .      -999.25         : KB Elevation
 DF     .      65.68           : DF Elevation
 GL     .      56.28           : GL Elevation
 RWS    .      -999            : Def_Rw
 WST    .      -999            : Def_Rwt
 PROV   .                      : Province
 SRVC   .                      : Contractor
 GDAT   .      WGS 84          : Geodatum
 LONG   .      -38.435024444394: Longitude
 LATI   .      0               : Latitude
 COORDIN.                      : Grid System
 XCOORD .                      : X or East-West Coordinate
 YCOORD .                      : Y or North-South Coordinate
~CURVE INFORMATION
#MNEM              UNIT       API CODE   Curve Type Comments
#----------  --------------- ----------  ---------- -----------
 DEPTH      .M                         : Depth       
 BS         .in                        : BitSize     
 CAL        .in                        : Caliper     
 GR         .api                       : GammaRay    
 ILD        .ohmm                      : DeepRes     
 NPHI       .decp                      : Neutron     
 RHOB       .g/cc                      : Density     
 DT         .uspf                      : Sonic       
 DRDN       .                          :             
 Lith_new   .                          :             
~A  DEPTH     BS       CAL        GR       ILD       NPHI      RHOB       DT       DRDN    Lith_new 
# ...
2222.0001    8.5000    8.9395  102.4302    2.2718    0.2667    2.5218   96.3778    4.3247   57.0000 
2222.1001    8.5000    8.9273  102.1666    2.2186    0.2706    2.5176   97.2391    4.3713   57.0000 
2222.2001    8.5000    8.9243  100.6428    2.1988    0.2818    2.5121   97.9604    4.6368   57.0000 
2222.3001    8.5000    8.9566  100.2212    2.2022    0.2826    2.5021   98.7823    4.4620   57.0000 
2222.4001    8.5000    8.9664  100.4080    2.2137    0.2816    2.4974   98.9347    4.3336   57.0000 
2222.5001    8.5000    8.9695  100.8249    2.2170    0.2773    2.4955   98.9490    4.1521   57.0000 
2222.6001    8.5000    8.9539   97.8205    2.1840    0.2781    2.4931   99.1975    4.1327   57.0000 
2222.7001    8.5000    8.9459   95.3143    2.1532    0.2750    2.4954   99.1724    4.0740   57.0000 
2222.8001    8.5000    8.9505   92.1086    2.1235    0.2609    2.5014   99.0468    3.7243   57.0000 
2222.9001    8.5000    8.9398   88.5483    2.0810    0.2614    2.5138   98.7330    3.9874   57.0000 
2223.0001    8.5000    8.9307   89.2814    2.0832    0.2643    2.5227   98.5321    4.2640   57.0000 
2223.1001    8.5000    8.9326   90.8388    2.0993    0.2687    2.5282   98.0253    4.5209   57.0000 
2223.2001    8.5000    8.9569   93.8097    2.1530    0.2608    2.5329   97.4672    4.3511   57.0000 
2223.3001    8.5000    8.9592   93.9343    2.1714    0.2651    2.5334   97.2303    4.5060   57.0000 
2223.4001    8.5000    8.9548   95.2377    2.1733    0.2583    2.5306   96.8509    4.2217   57.0000 
2223.5001    8.5000    8.9270   96.0698    2.1394    0.2538    2.5267   96.5052    3.9949   57.0000 
2223.6001    8.5000    8.9210   95.9117    2.1056    0.2558    2.5278   96.3556    4.0832   57.0000 
2223.7001    8.5000    8.9194   97.4307    2.0714    0.2639    2.5263   96.0433    4.3228   57.0000 
2223.8001    8.5000    8.9166   98.6654    2.0446    0.2723    2.5250   95.5986    4.5775   57.0000 
2223.9001    8.5000    8.9208  100.1413    2.0400    0.2847    2.5163   95.5865    4.8159   57.0000 
2224.0001    8.5000    8.9087   98.8299    2.0649    0.2864    2.5115   95.4044    4.7756   57.0000 
2224.1001    8.5000    8.9178   96.5442    2.1078    0.2847    2.5084   96.1896    4.6561   57.0000 
2224.2001    8.5000    8.9224   91.6805    2.1928    0.2730    2.5054   98.6386    4.2088   57.0000 
2224.3001    8.5000    8.9018   91.1023    2.2140    0.2664    2.5060   99.4044    4.0003   57.0000 
2224.4001    8.5000    8.8798   92.8034    2.2191    0.2583    2.5044  100.2576    3.7005   57.0000 
2224.5001    8.5000    8.8425   93.2634    2.1694    0.2473    2.5086   98.4915    3.4151   57.0000 
2224.6001    8.5000    8.8353   87.6809    2.1332    0.2347    2.5191   95.1828    3.2062   57.0000 
2224.7001    8.5000    8.8475   78.4279    2.1168    0.2171    2.5390   91.4831    3.0146   57.0000 
2224.8001    8.5000    8.8840   57.9892    2.2112    0.1602    2.5990   80.7694    2.3192   57.0000 
2224.9001    8.5000    8.8706   53.8778    2.3884    0.1321    2.6265   75.5150    1.9335   57.0000 
2225.0001    8.5000    8.8471   53.2964    2.6759    0.1174    2.6436   72.9994    1.7858   57.0000 
2225.1001    8.5000    8.7752   66.6432    3.6113    0.1342    2.6342   74.1507    2.1555   57.0000 
2225.2001    8.5000    8.7517   76.7540    4.0370    0.1557    2.6118   76.4553    2.4254   57.0000 
2225.3001    8.5000    8.7589   89.1009    4.1524    0.1734    2.5856   80.8540    2.4939   57.0000 
2225.4001    8.5000    8.7958   99.0056    3.8794    0.1947    2.5612   85.9703    2.7141   57.0000 
2225.5001    8.5000    8.8957  107.9152    2.9017    0.2546    2.5251   94.5447    3.9885   57.0000 
2225.6001    8.5000    8.9512  105.9027    2.5276    0.2762    2.5156   97.0485    4.5173   57.0000 
2225.7001    8.5000    8.9881  103.5499    2.2754    0.2916    2.5093   98.6127    4.9059   57.0000 
2225.8001    8.5000    9.0277   99.4465    1.9969    0.2858    2.5050   99.9337    4.6274   57.0000 
2225.9001    8.5000    9.0444   99.0919    1.9188    0.2772    2.5061  100.3912    4.3596   57.0000 
2226.0001    8.5000    9.0299   98.9098    1.8421    0.2824    2.5068  101.0490    4.5470   57.0000 
2226.1001    8.5000    8.9535   96.8381    1.7087    0.3021    2.5092  102.0548    5.2544   57.0000 
2226.2001    8.5000    8.8938   94.3799    1.6914    0.2993    2.5102  102.8128    5.1797   57.0000 
2226.3001    8.5000    8.8311   92.4871    1.6958    0.2966    2.5101  103.6377    5.0879   57.0000 
2226.4001    8.5000    8.7870   91.8067    1.7318    0.2968    2.5109  105.1424    5.1101   57.0000 
2226.5001    8.5000    8.8262   94.4614    1.7483    0.2948    2.5083  105.1445    4.9929   57.0000 
2226.6001    8.5000    8.8646   96.2695    1.7629    0.2932    2.5040  104.6897    4.8542   57.0000 
2226.7001    8.5000    8.9383   98.3891    1.7741    0.2942    2.5019  103.4485    4.8451   57.0000 
2226.8001    8.5000    8.9596   98.2501    1.7737    0.2862    2.5033  103.1564    4.6061   57.0000 
2226.9001    8.5000    8.9391   97.3221    1.7654    0.2819    2.5088  102.4691    4.5744   57.0000 
2227.0001    8.5000    8.9125   95.3159    1.7558    0.2755    2.5174  101.8178    4.5314   57.0000 
2227.1001    8.5000    8.8364   90.8020    1.7393    0.2697    2.5286  101.9026    4.5631   57.0000 
2227.2001    8.5000    8.7927   89.7414    1.7251    0.2753    2.5312  102.7524    4.7989   57.0000 
2227.3001    8.5000    8.7729   89.1153    1.7109    0.2838    2.5290  103.1971    5.0394   57.0000 
2227.4001    8.5000    8.7760   93.3129    1.6839    0.2950    2.5156  104.4276    5.1454   57.0000 
2227.5001    8.5000    8.7855   97.2806    1.6709    0.2930    2.5073  105.1716    4.9135   57.0000 
2227.6001    8.5000    8.7912  100.5710    1.6588    0.2855    2.4984  105.8405    4.4864   57.0000 
2227.7001    8.5000    8.8216  101.6108    1.6139    0.3051    2.4867  106.3172    4.9050   57.0000 
2227.8001    8.5000    8.8189  101.5868    1.5931    0.3100    2.4867  106.8731    5.0659   57.0000 
2227.9001    8.5000    8.8060  102.8056    1.5745    0.2947    2.4890  107.0091    4.6017   57.0000 
2228.0001    8.5000    8.8129  107.1789    1.5643    0.2746    2.5061  106.9780    4.2746   57.0000 
2228.1001    8.5000    8.7859  106.6470    1.5750    0.2819    2.5139  106.4715    4.6751   57.0000 
2228.2001    8.5000    8.7821  104.3805    1.6030    0.2846    2.5191  105.7494    4.8685   57.0000 
2228.3001    8.5000    8.7676   95.0444    1.7004    0.2765    2.5187  102.8694    4.5887   57.0000 
2228.4001    8.5000    8.7824   89.9778    1.7617    0.2751    2.5100  100.6527    4.3684   57.0000 
2228.5001    8.5000    8.7832   84.4193    1.8279    0.2749    2.5042   98.6561    4.2459   57.0000 
2228.6001    8.5000    8.7863   80.1258    1.9167    0.2714    2.5022   96.2898    4.0899   57.0000 
2228.7001    8.5000    8.8098   76.7236    2.1881    0.2386    2.5155   90.2882    3.2639   57.0000 
2228.8001    8.5000    8.7996   78.7458    2.3540    0.2172    2.5334   87.7296    2.9090   57.0000 
2228.9001    8.5000    8.8125   82.6655    2.5101    0.2064    2.5490   85.4755    2.8601   57.0000 
2229.0001    8.5000    8.8140   91.9808    2.6187    0.2016    2.5598   73.7753    2.9147   57.0000 
2229.1001    8.5000    8.8208   95.2856    2.5613    0.2122    2.5492   72.5937    3.0569   57.0000 
2229.2001    8.5000    8.8224   96.1561    2.4756    0.2340    2.5325   73.5684    3.4486   57.0000 
2229.3001    8.5000    8.8163   97.3157    2.3821    0.2805    2.5004   76.2785    4.3590   57.0000 
2229.4001    8.5000    8.8079   95.8446    2.4243    0.2762    2.4895   77.6551    3.9962   57.0000 
2229.5001    8.5000    8.7965   93.4759    2.5431    0.2646    2.4858   83.6755    3.5335   57.0000 
2229.6001    8.5000    8.8132   81.8221    3.0334    0.2418    2.4903   87.2218    2.8664   57.0000 
2229.7001    8.5000    8.8208   77.7187    3.4465    0.2238    2.4941   85.8869    2.3405   57.0000 
2229.8001    8.5000    8.8478   75.9569    3.9568    0.2023    2.5000   84.2775    1.7415   57.0000 
2229.9001    8.5000    8.8406   80.4868    4.8560    0.1813    2.5125   83.0326    1.2941   57.0000 
