~VERSION INFORMATION
 VERS.                 2.0:   CWLS LOG ASCII STANDARD - VERSION 2.0
 WRAP.                  NO:   SINGLE LINE PER DEPTH STEP
 CREA.                 06/02/2020 16:44:49
#CREATED USING IP VERSION 4.5.2019.2902 BY RMOTA ON 06/02/2020 16:44:49
~WELL INFORMATION
#MNEM.UNIT       DATA                          DESCRIPTION MNEMONIC
#---------      ---------------------------   --------------------------
 STRT    .M         1550.0001                 : START DEPTH
 STOP    .M         2926.1001                 : STOP DEPTH
 STEP    .M         0.1000                    : STEP VALUE
 NULL    .      -999.0000                     : NULL VALUE
 DATE    .      06/02/2020                    : LAS file Creation Date
 WELL   .      7-MP-47DP-BA    : Well Name
 COMP   .      PETROBRAS       : Company
 FLD    .      MASSAPE         : Field
 STATE  .      BAHIA           : State
 API    .      20240025025     : API Number
 UWI    .                      : Unique Well Identifier (UWI)
 LOC    .      20240025025     : Location
 PDAT   .      NM              : Permanent Datum
 EPDAT  .      0.0             : Elevation of Permanent Datum
 LGMEA  .      MR              : Log Measured from
 DRMEA  .      MR              : Drill Measured From
 APDAT  .      65.68           : Elevation Above Permanent Datum
 KB     .      -999.25         : KB Elevation
 DF     .      65.68           : DF Elevation
 GL     .      56.28           : GL Elevation
 RWS    .      -999            : Def_Rw
 WST    .      -999            : Def_Rwt
 PROV   .                      : Province
 SRVC   .                      : Contractor
 GDAT   .      WGS 84          : Geodatum
 LONG   .      -38.435024444394: Longitude
 LATI   .      0               : Latitude
 COORDIN.                      : Grid System
 XCOORD .                      : X or East-West Coordinate
 YCOORD .                      : Y or North-South Coordinate
~CURVE INFORMATION
#MNEM              UNIT       API CODE   Curve Type Comments
#----------  --------------- ----------  ---------- -----------
 DEPTH      .M                         : Depth       
 BS         .in                        : BitSize     
 CAL        .in                        : Caliper     
 GR         .api                       : GammaRay    
 ILD        .ohmm                      : DeepRes     
 NPHI       .decp                      : Neutron     
 RHOB       .g/cc                      : Density     
 DT         .uspf                      : Sonic       
 DRDN       .                          :             
 Lith_new   .                          :             
~A  DEPTH     BS       CAL        GR       ILD       NPHI      RHOB       DT       DRDN    Lith_new 
# ...
2478.0001    8.5000    8.9723   89.6504    3.6508    0.2231    2.5856   83.9123    4.1491   57.0000 
2478.1001    8.5000    8.9339   93.9279    3.6227    0.2193    2.5909   82.4085    4.1267   57.0000 
2478.2001    8.5000    8.9244   97.0090    3.6007    0.2197    2.5924   82.2214    4.1721   57.0000 
2478.3001    8.5000    8.9153   98.3875    3.5726    0.2242    2.5953   82.2577    4.3782   57.0000 
2478.4001    8.5000    8.9173   97.4275    3.5166    0.2289    2.5911   82.9488    4.4522   57.0000 
2478.5001    8.5000    8.9216   95.6545    3.4900    0.2279    2.5882   83.7517    4.3587   57.0000 
2478.6001    8.5000    8.9203   95.5491    3.4588    0.2290    2.5834   84.8433    4.3008   57.0000 
2478.7001    8.5000    8.9071   98.4881    3.4163    0.2337    2.5700   86.7022    4.1900   57.0000 
2478.8001    8.5000    8.8991  100.5390    3.4105    0.2351    2.5645   87.2059    4.1270   57.0000 
2478.9001    8.5000    8.9030  101.0693    3.4174    0.2439    2.5580   87.7053    4.2910   57.0000 
2479.0001    8.5000    8.8978   98.7533    3.4778    0.2411    2.5527   87.5450    4.0898   57.0000 
2479.1001    8.5000    8.8928   97.1624    3.5361    0.2353    2.5501   86.9878    3.8450   57.0000 
2479.2001    8.5000    8.9039   96.5299    3.6203    0.2452    2.5486   86.3308    4.1437   57.0000 
2479.3001    8.5000    8.8912   96.7535    3.8166    0.2435    2.5505   85.6260    4.1269   57.0000 
2479.4001    8.5000    8.9146  100.7722    3.8887    0.2332    2.5551   84.4312    3.8755   57.0000 
2479.5001    8.5000    8.9235  101.3472    3.9314    0.2251    2.5596   83.7343    3.6950   57.0000 
2479.6001    8.5000    8.9286   99.7340    3.9463    0.2216    2.5630   83.1962    3.6475   57.0000 
2479.7001    8.5000    8.9767   93.6356    3.9785    0.2173    2.5631   82.5166    3.5043   57.0000 
2479.8001    8.5000    8.9805   92.2476    4.0337    0.2143    2.5606   82.0535    3.3547   57.0000 
2479.9001    8.5000    8.9869   92.2460    4.1279    0.2220    2.5575   81.6622    3.5503   57.0000 
2480.0001    8.5000    8.9831   93.2842    4.4181    0.2103    2.5547   80.9058    3.1046   57.0000 
2480.1001    8.5000    8.9440   92.5015    4.5933    0.2047    2.5558   80.4519    2.9411   57.0000 
2480.2001    8.5000    8.9098   93.0446    4.7729    0.2097    2.5600   79.7013    3.1919   57.0000 
2480.3001    8.5000    8.8452   94.3927    5.0104    0.2099    2.5741   78.6600    3.4773   57.0000 
2480.4001    8.5000    8.8315   92.8976    5.0149    0.2044    2.5833   78.5765    3.4791   57.0000 
2480.5001    8.5000    8.8386   90.0960    4.9342    0.2002    2.5909   78.5628    3.4911   57.0000 
2480.6001    8.5000    8.8636   84.8442    4.6249    0.2047    2.5931   79.0918    3.6847   57.0000 
2480.7001    8.5000    8.8909   84.7292    4.4703    0.2057    2.5872   79.6236    3.6021   57.0000 
2480.8001    8.5000    8.9054   85.1221    4.3618    0.2011    2.5783   80.0588    3.2684   57.0000 
2480.9001    8.5000    8.9196   86.5820    4.3110    0.2028    2.5690   80.5755    3.1393   57.0000 
2481.0001    8.5000    8.9643   97.4882    4.3522    0.2073    2.5563   80.2180    3.0376   57.0000 
2481.1001    8.5000    8.9567  102.8647    4.4224    0.2107    2.5555   79.9202    3.1313   57.0000 
2481.2001    8.5000    8.9577  104.8613    4.5164    0.2084    2.5584   78.9228    3.1161   57.0000 
2481.3001    8.5000    8.9496   94.8655    4.7954    0.1963    2.5700   77.4090    2.9452   57.0000 
2481.4001    8.5000    8.9458   89.6552    5.0032    0.1899    2.5774   76.2999    2.8792   57.0000 
2481.5001    8.5000    8.9397   86.4031    5.2719    0.1819    2.5837   75.8107    2.7377   57.0000 
2481.6001    8.5000    8.9452   82.2757    6.0038    0.1548    2.5869   73.6804    1.8985   57.0000 
2481.7001    8.5000    8.9573   79.5157    6.4343    0.1426    2.5838   72.9797    1.4307   57.0000 
2481.8001    8.5000    8.9520   75.2988    6.8497    0.1322    2.5820   72.4958    1.0456   57.0000 
2481.9001    8.5000    8.9682   67.7948    7.4753    0.1226    2.5783   72.4128    0.6541   57.0000 
2482.0001    8.5000    8.9623   65.8493    7.6202    0.1238    2.5775   72.1512    0.6759   57.0000 
2482.1001    8.5000    8.9542   64.8495    7.6568    0.1215    2.5776   72.2425    0.6019   57.0000 
2482.2001    8.5000    8.9506   67.3795    7.5264    0.1182    2.5703   72.4610    0.3468   57.0000 
2482.3001    8.5000    8.9339   67.0793    7.4088    0.1200    2.5656   72.5173    0.3128   57.0000 
2482.4001    8.5000    8.9329   66.3701    7.3126    0.1215    2.5639   72.6410    0.3273   57.0000 
2482.5001    8.5000    8.9248   65.5395    7.2225    0.1238    2.5623   72.5784    0.3721   57.0000 
2482.6001    8.5000    8.9227   68.5583    7.2130    0.1225    2.5635   72.4231    0.3535   57.0000 
2482.7001    8.5000    8.9237   69.4911    7.2036    0.1251    2.5649   72.4559    0.4677   57.0000 
2482.8001    8.5000    8.9308   68.6861    7.2187    0.1308    2.5635   72.5675    0.6281   57.0000 
2482.9001    8.5000    8.9275   66.6160    7.3669    0.1316    2.5650   72.4005    0.6867   57.0000 
2483.0001    8.5000    8.9134   67.7661    7.4820    0.1277    2.5674   72.5723    0.6038   57.0000 
2483.1001    8.5000    8.9139   68.6126    7.5695    0.1311    2.5693   72.7544    0.7553   57.0000 
2483.2001    8.5000    8.9040   66.7790    7.5652    0.1345    2.5732   73.2501    0.9478   57.0000 
2483.3001    8.5000    8.9017   66.4819    7.5115    0.1310    2.5729   73.3927    0.8239   57.0000 
2483.4001    8.5000    8.9106   68.1398    7.4879    0.1284    2.5714   73.2624    0.7091   57.0000 
2483.5001    8.5000    8.9240   72.2912    7.6371    0.1335    2.5678   73.1746    0.8051   57.0000 
2483.6001    8.5000    8.9250   70.5390    7.7926    0.1333    2.5646   73.1731    0.7369   57.0000 
2483.7001    8.5000    8.9235   68.0584    7.9526    0.1362    2.5617   73.0805    0.7729   57.0000 
2483.8001    8.5000    8.9102   66.7422    8.1988    0.1354    2.5560   73.1169    0.6325   57.0000 
2483.9001    8.5000    8.9006   68.5040    8.2777    0.1318    2.5562   72.9749    0.5190   57.0000 
2484.0001    8.5000    8.8912   70.6348    8.3326    0.1362    2.5585   72.6858    0.7103   57.0000 
2484.1001    8.5000    8.8866   71.3504    8.2323    0.1328    2.5630   72.5963    0.6872   57.0000 
2484.2001    8.5000    8.8743   68.3986    8.0853    0.1321    2.5715   72.3662    0.8336   57.0000 
2484.3001    8.5000    8.8784   65.3542    7.9128    0.1322    2.5723   72.2444    0.8534   57.0000 
2484.4001    8.5000    8.8733   62.8273    7.7491    0.1362    2.5717   71.9040    0.9715   57.0000 
2484.5001    8.5000    8.8632   62.4184    7.3780    0.1362    2.5682   72.3031    0.9037   57.0000 
2484.6001    8.5000    8.8604   64.2361    7.0880    0.1313    2.5652   73.2069    0.6813   57.0000 
2484.7001    8.5000    8.8589   66.7981    6.6908    0.1294    2.5643   74.3740    0.5983   57.0000 
2484.8001    8.5000    8.8606   76.5799    5.7432    0.1359    2.5630   77.3999    0.7903   57.0000 
2484.9001    8.5000    8.8622   83.4993    5.2837    0.1412    2.5621   79.1425    0.9491   57.0000 
2485.0001    8.5000    8.8741   92.3258    4.8822    0.1473    2.5616   81.0456    1.1416   57.0000 
2485.1001    8.5000    8.8634  106.9058    4.3311    0.1700    2.5621   83.5864    1.9089   57.0000 
2485.2001    8.5000    8.8751  110.4565    4.2078    0.1871    2.5617   83.6418    2.4721   57.0000 
2485.3001    8.5000    8.8738  111.1258    4.1813    0.1977    2.5619   83.5152    2.8275   57.0000 
2485.4001    8.5000    8.8799  111.0299    4.3952    0.2034    2.5651   81.6769    3.0831   57.0000 
2485.5001    8.5000    8.8743  109.7409    4.6263    0.2046    2.5678   80.8601    3.1768   57.0000 
2485.6001    8.5000    8.8687  106.6087    4.9383    0.1946    2.5735   79.9672    2.9560   57.0000 
2485.7001    8.5000    8.8548  100.8505    5.7065    0.1895    2.5802   79.1301    2.9214   57.0000 
2485.8001    8.5000    8.8444   91.5655    5.9549    0.1786    2.5869   79.1040    2.6924   57.0000 
2485.9001    8.5000    8.8629   90.4091    5.9281    0.1761    2.5871   80.1814    2.6129   57.0000 
