~VERSION INFORMATION
 VERS.                 2.0:   CWLS LOG ASCII STANDARD - VERSION 2.0
 WRAP.                  NO:   SINGLE LINE PER DEPTH STEP
 CREA.                 06/02/2020 16:33:07
#CREATED USING IP VERSION 4.5.2019.2902 BY RMOTA ON 06/02/2020 16:33:07
~WELL INFORMATION
#MNEM.UNIT       DATA                          DESCRIPTION MNEMONIC
#---------      ---------------------------   --------------------------
 STRT    .M         500.8250                  : START DEPTH
 STOP    .M         3050.8250                 : STOP DEPTH
 STEP    .M         0.1000                    : STEP VALUE
 NULL    .      -999.0000                     : NULL VALUE
 DATE    .      06/02/2020                    : LAS file Creation Date
 WELL   .      7-MP-34D-BA     : Well Name
 COMP   .      PETROBRAS       : Company
 FLD    .      MASSAPE         : Field
 STATE  .      BAHIA           : State
 API    .      20240022160     : API Number
 UWI    .                      : Unique Well Identifier (UWI)
 LOC    .                      : Location
 PDAT   .      NM              : Permanent Datum
 EPDAT  .      0.0             : Elevation of Permanent Datum
 LGMEA  .      MR              : Log Measured from
 DRMEA  .      MR              : Drill Measured From
 APDAT  .      65.65           : Elevation Above Permanent Datum
 KB     .      65.95           : KB Elevation
 DF     .      65.65           : DF Elevation
 RWS    .      -999            : Def_Rw
 WST    .      -999            : Def_Rwt
 PROV   .                      : Province
 SRVC   .                      : Contractor
 GDAT   .      WGS 84          : Geodatum
 LONG   .      -38.435477499961: Longitude
 LATI   .      0               : Latitude
 COORDIN.                      : Grid System
 XCOORD .                      : X or East-West Coordinate
 YCOORD .                      : Y or North-South Coordinate
~CURVE INFORMATION
#MNEM              UNIT       API CODE   Curve Type Comments
#----------  --------------- ----------  ---------- -----------
 DEPTH      .M                         : Depth       
 CAL        .inch                      : Caliper     
 BS         .in                        : BitSize     
 GR         .gAPI                      : GammaRay    
 ILD        .ohm.m                     : DeepRes     
 RHOB       .G/CC                      : Density     
 NPHI       .dec                       : Neutron     
 DT         .uS/ft                     : Sonic       
 DRDN       .                          :             
 Lith_new   .                          :             
~A  DEPTH    CAL        BS        GR       ILD       RHOB      NPHI       DT       DRDN    Lith_new 
# ...
2028.8250    9.0241    8.5000  118.8837    4.1242    2.5733    0.2543   84.9597    4.9443   57.0000 
2028.9250    9.0012    8.5000  117.1328    4.0909    2.5787    0.2501   85.2423    4.9129   57.0000 
2029.0250    9.0088    8.5000  117.2934    4.1001    2.5802    0.2451   85.5173    4.7749   57.0000 
2029.1250    9.0088    8.5000  118.1000    4.1720    2.5776    0.2424   88.0413    4.6326   57.0000 
2029.2250    9.0012    8.5000  119.8862    4.3741    2.5750    0.2433   94.5071    4.6083   57.0000 
2029.3250    8.9859    8.5000  122.5955    4.7561    2.5762    0.2464  104.4612    4.7372   57.0000 
2029.4250    8.9935    8.5000  124.4999    5.2754    2.5785    0.2500  113.9745    4.9041   57.0000 
2029.5250    9.0317    8.5000  125.6489    5.7644    2.5841    0.2497  115.8556    5.0075   57.0000 
2029.6250    9.0699    8.5000  125.9402    6.0617    2.5977    0.2487  108.5990    5.2441   57.0000 
2029.7250    9.1081    8.5000  124.2158    6.1349    2.6200    0.2443   97.8954    5.5455   57.0000 
2029.8250    9.1234    8.5000  121.0635    6.0984    2.6436    0.2385   87.8699    5.8231   57.0000 
2029.9250    9.0470    8.5000  116.5327    6.0960    2.6514    0.2262   83.5714    5.5692   57.0000 
2030.0250    8.9248    8.5000  111.4071    6.2216    2.6375    0.2093   85.8735    4.7254   57.0000 
2030.1250    8.8178    8.5000  107.2488    6.4889    2.6148    0.1896   92.8867    3.6164   57.0000 
2030.2250    8.7414    8.5000  104.3171    6.8385    2.5996    0.1723  102.1230    2.7336   57.0000 
2030.3250    8.7261    8.5000  102.5468    7.1938    2.5981    0.1584  105.5617    2.2417   57.0000 
2030.4250    8.7414    8.5000  101.5160    7.5139    2.6044    0.1474  102.0867    2.0004   57.0000 
2030.5250    8.8102    8.5000  101.0465    7.8367    2.6107    0.1378   90.6525    1.8061   57.0000 
2030.6250    8.8560    8.5000  100.5100    8.2494    2.6197    0.1293   79.8536    1.7031   57.0000 
2030.7250    8.9171    8.5000   99.7210    8.8079    2.6273    0.1218   72.3704    1.6057   57.0000 
2030.8250    8.8942    8.5000   98.3320    9.4651    2.6300    0.1148   69.0082    1.4261   57.0000 
2030.9250    8.8331    8.5000   95.3226   10.0879    2.6257    0.1072   67.5413    1.0894   57.0000 
2031.0250    8.7643    8.5000   91.5808   10.6333    2.6210    0.1006   66.2587    0.7753   57.0000 
2031.1250    8.7032    8.5000   89.4487   11.1864    2.6189    0.0983   65.8495    0.6553   57.0000 
2031.2250    8.6726    8.5000   90.0753   11.6920    2.6162    0.1029   66.2413    0.7541   57.0000 
2031.3250    8.6573    8.5000   94.5743   11.7225    2.6064    0.1127   67.6128    0.8838   57.0000 
2031.4250    8.6879    8.5000  102.5027   10.9196    2.5929    0.1238   69.7117    0.9832   57.0000 
2031.5250    8.7185    8.5000  111.0541    9.6465    2.5838    0.1348   72.0245    1.1692   57.0000 
2031.6250    8.8025    8.5000  117.0393    8.5137    2.5808    0.1455   74.0429    1.4671   57.0000 
2031.7250    8.8331    8.5000  119.8597    7.7993    2.5826    0.1557   75.2852    1.8421   57.0000 
2031.8250    8.7872    8.5000  118.5995    7.4800    2.5828    0.1614   75.7801    2.0361   57.0000 
2031.9250    8.7490    8.5000  114.5488    7.4459    2.5833    0.1617   75.6102    2.0538   57.0000 
2032.0250    8.7032    8.5000  111.0965    7.5411    2.5872    0.1561   74.9776    1.9479   57.0000 
2032.1250    8.7108    8.5000  106.7299    7.5726    2.5951    0.1492   73.9128    1.8769   57.0000 
2032.2250    8.7414    8.5000  103.2934    7.3571    2.6073    0.1419   72.5275    1.8772   57.0000 
2032.3250    8.7337    8.5000  100.2170    6.8412    2.6158    0.1374   71.0872    1.8955   57.0000 
2032.4250    8.7643    8.5000   96.7109    6.1280    2.6181    0.1358   69.9735    1.8895   57.0000 
2032.5250    8.8025    8.5000   96.8400    5.3860    2.6121    0.1401   69.7311    1.9123   57.0000 
2032.6250    8.8254    8.5000   99.7278    4.7491    2.6031    0.1507   70.5454    2.0842   57.0000 
2032.7250    8.8331    8.5000  106.3221    4.2740    2.5920    0.1679   72.6046    2.4370   57.0000 
2032.8250    8.8484    8.5000  115.8496    3.9590    2.5802    0.1882   75.7128    2.8781   57.0000 
2032.9250    8.8178    8.5000  124.3832    3.7771    2.5641    0.2071   78.9852    3.1833   57.0000 
2033.0250    8.8025    8.5000  131.0317    3.6917    2.5509    0.2187   81.8684    3.3079   57.0000 
2033.1250    8.8025    8.5000  134.7892    3.6665    2.5455    0.2222   83.5918    3.3175   57.0000 
2033.2250    8.8636    8.5000  135.5665    3.6772    2.5520    0.2204   84.1719    3.3850   57.0000 
2033.3250    8.9095    8.5000  135.2223    3.7119    2.5613    0.2177   83.9735    3.4823   57.0000 
2033.4250    8.9400    8.5000  134.2975    3.7630    2.5686    0.2160   83.3755    3.5726   57.0000 
2033.5250    8.9630    8.5000  133.2491    3.8217    2.5732    0.2151   82.6128    3.6325   57.0000 
2033.6250    8.9171    8.5000  132.7637    3.8770    2.5808    0.2137   81.7985    3.7394   57.0000 
2033.7250    8.8560    8.5000  132.0056    3.9200    2.5880    0.2116   81.1122    3.8127   57.0000 
2033.8250    8.8178    8.5000  130.7710    3.9517    2.5924    0.2086   80.6372    3.8020   57.0000 
2033.9250    8.7337    8.5000  129.6202    3.9830    2.5898    0.2066   80.4061    3.6832   57.0000 
2034.0250    8.7185    8.5000  128.9345    4.0261    2.5859    0.2058   80.3990    3.5786   57.0000 
2034.1250    8.7108    8.5000  129.3405    4.0908    2.5826    0.2053   80.2893    3.4962   57.0000 
2034.2250    8.7490    8.5000  131.8468    4.1798    2.5812    0.2044   80.0801    3.4373   57.0000 
2034.3250    8.7949    8.5000  134.7837    4.2770    2.5836    0.2025   79.4888    3.4201   57.0000 
2034.4250    8.8025    8.5000  136.0369    4.3368    2.5910    0.1983   78.4133    3.4310   57.0000 
2034.5250    8.8178    8.5000  134.6302    4.3038    2.5987    0.1910   77.1918    3.3424   57.0000 
2034.6250    8.7719    8.5000  129.7667    4.1606    2.5949    0.1823   76.0429    2.9738   57.0000 
2034.7250    8.7261    8.5000  120.8967    3.9496    2.5739    0.1764   75.4270    2.3575   57.0000 
2034.8250    8.7108    8.5000  109.4947    3.7441    2.5434    0.1727   75.4168    1.6267   57.0000 
2034.9250    8.7261    8.5000   96.7673    3.5818    2.5093    0.1696   75.6474    0.8379   57.0000 
2035.0250    8.7567    8.5000   82.6667    3.4473    2.4740    0.1639   75.5913   -0.0572   54.0000 
2035.1250    8.7643    8.5000   69.5774    3.3103    2.4416    0.1574   75.3939   -0.9220   25.0000 
2035.2250    8.7719    8.5000   58.7332    3.1572    2.4174    0.1507   75.0990   -1.6284   49.0000 
2035.3250    8.7414    8.5000   50.2868    2.9922    2.4056    0.1446   75.0929   -2.0699   49.0000 
2035.4250    8.7032    8.5000   44.6176    2.8348    2.3977    0.1390   75.3592   -2.4110   49.0000 
2035.5250    8.6803    8.5000   41.4688    2.7013    2.3908    0.1361   75.5954   -2.6488   49.0000 
2035.6250    8.6573    8.5000   39.5564    2.5958    2.3863    0.1365   75.6597   -2.7238   49.0000 
2035.7250    8.6497    8.5000   37.8452    2.5188    2.3860    0.1388   75.6541   -2.6533   49.0000 
2035.8250    8.6573    8.5000   36.5444    2.4778    2.3900    0.1398   75.4219   -2.5386   49.0000 
2035.9250    8.6650    8.5000   34.7971    2.4792    2.3957    0.1368   75.5980   -2.5283   49.0000 
2036.0250    8.6726    8.5000   33.4751    2.5161    2.4025    0.1296   75.3092   -2.6301   49.0000 
2036.1250    8.6650    8.5000   32.4567    2.5674    2.4055    0.1203   74.8944   -2.8807   49.0000 
2036.2250    8.6497    8.5000   32.0525    2.6113    2.4031    0.1128   74.4122   -3.1779   49.0000 
2036.3250    8.6038    8.5000   33.5386    2.6379    2.3962    0.1107   73.8714   -3.3866   49.0000 
2036.4250    8.5886    8.5000   37.4358    2.6490    2.3961    0.1140   73.5347   -3.2769   49.0000 
2036.5250    8.5809    8.5000   46.8988    2.6448    2.4028    0.1198   73.1429   -2.9515   49.0000 
2036.6250    8.6038    8.5000   59.3492    2.6281    2.4205    0.1235   72.6852   -2.4728   49.0000 
2036.7250    8.6497    8.5000   70.3875    2.5927    2.4406    0.1250   72.1898   -2.0226   49.0000 
