~VERSION INFORMATION
 VERS.                 2.0:   CWLS LOG ASCII STANDARD - VERSION 2.0
 WRAP.                  NO:   SINGLE LINE PER DEPTH STEP
 CREA.                 06/02/2020 16:07:36
#CREATED USING IP VERSION 4.5.2019.2902 BY RMOTA ON 06/02/2020 16:07:36
~WELL INFORMATION
#MNEM.UNIT       DATA                          DESCRIPTION MNEMONIC
#---------      ---------------------------   --------------------------
 STRT    .M         18.4404                   : START DEPTH
 STOP    .M         3544.2144                 : STOP DEPTH
 STEP    .M         0.1524                    : STEP VALUE
 NULL    .      -999.0000                     : NULL VALUE
 DATE    .      06/02/2020                    : LAS file Creation Date
 WELL   .      7-MP-25-BA         : Well Name
 COMP   .      PETROBRAS          : Company
 FLD    .      MASSAPE            : Field
 STATE  .      20240021268        : State
 COUNT  .      BRASIL             : Country
 API    .      20240021268        : API Number
 UWI    .                         : Unique Well Identifier (UWI)
 LOC    .      N= 8.607.478,570 m : Location
 TOWN   .      CTU                : Township
 SCT    .      OH WIRELINE        : Section
 RANG   .      SCHLUMBERGER       : Range
 PDAT   .      NM                 : Permanent Datum
 EPDAT  .      0                  : Elevation of Permanent Datum
 LGMEA  .      MR                 : Log Measured from
 DRMEA  .      MR                 : Drill Measured From
 APDAT  .      65.76              : Elevation Above Permanent Datum
 KB     .      66.06              : KB Elevation
 DF     .      65.76              : DF Elevation
 GL     .      56.36              : GL Elevation
 RWS    .      -999               : Def_Rw
 WST    .      -999               : Def_Rwt
 BHS    .      OPEN               : Completion Status
 PROV   .                         : Province
 MDEC   .      -23.10323          : Magnetic Declination
 SRVC   .                         : Contractor
 GDAT   .      WGS 84             : Geodatum
 LONG   .      -38.4344958333174  : Longitude
 LATI   .      -12.5959183332655  : Latitude
 COORDIN.                         : Grid System
 XCOORD .                         : X or East-West Coordinate
 YCOORD .                         : Y or North-South Coordinate
~CURVE INFORMATION
#MNEM              UNIT       API CODE   Curve Type Comments
#----------  --------------- ----------  ---------- -----------
 DEPTH      .M                         : Depth       
 BS         .in                        : BitSize     
 GR         .gAPI                      : GammaRay    
 CAL        .inch                      : Caliper     
 RT         .ohm.m                     : DeepRes     
 NPHI       .m3/m3                     : Neutron     
 RHOB       .g/cm3                     : Density     
 DT         .us/ft                     : Sonic       
 SP         .mV                        : SP          
 DRDN       .                          :             
 Lith_new   .                          :             
~A  DEPTH     BS        GR       CAL        RT       NPHI      RHOB       DT        SP       DRDN    Lith_new 
# ...
3155.7468    8.5000  106.7891 -999.0000   23.7303    0.2522    2.6930  128.6775  565.6250    7.2681   57.0000 
3155.8992    8.5000  105.7147 -999.0000   28.8980    0.2363    2.6901  127.8558  560.9375    6.6791   57.0000 
3156.0516    8.5000   97.8981 -999.0000   37.5171    0.2205    2.6835  125.3564  556.6250    6.0182   57.0000 
3156.2040    8.5000   95.0671 -999.0000   51.9619    0.1943    2.6739  124.3186  551.8125    4.9549   57.0000 
3156.3564    8.5000   87.7066 -999.0000   67.0915    0.1841    2.6747  123.4794  547.0625    4.6292   57.0000 
3156.5088    8.5000   84.9954 -999.0000   54.6958    0.1811    2.6791  123.2308  542.6250    4.6177   57.0000 
3156.6612    8.5000   88.5344 -999.0000   47.0363    0.1893    2.6914  122.4557  537.0625    5.1376   57.0000 
3156.8136    8.5000   95.0535 -999.0000   47.8234    0.1960    2.6963  122.7070  532.4375    5.4603   57.0000 
3156.9660    8.5000   95.7429 -999.0000   49.5384    0.1945    2.7005  125.9728  526.5625    5.4929   57.0000 
3157.1184    8.5000   94.0405 -999.0000   46.3409    0.1934    2.6998  128.1978  521.6875    5.4430   57.0000 
3157.2708    8.5000   90.5410 -999.0000   41.8937    0.1993    2.6905  129.1999  516.2500    5.4549   57.0000 
3157.4232    8.5000   93.3720 -999.0000   38.1025    0.2166    2.6794  127.9843  511.0625    5.8066   57.0000 
3157.5756    8.5000   92.3938 -999.0000   36.4304    0.2208    2.6723  128.1767  506.1875    5.8052   57.0000 
3157.7280    8.5000   95.1712 -999.0000   35.5584    0.2137    2.6617  126.6792  499.5625    5.3569   57.0000 
3157.8804    8.5000   94.6050 -999.0000   35.7161    0.2159    2.6527  125.5504  493.3750    5.2503   57.0000 
3158.0328    8.5000   92.0480 -999.0000   34.3333    0.2099    2.6444  124.9789  488.6250    4.8856   57.0000 
3158.1852    8.5000   87.6760 -999.0000   33.0650    0.1997    2.6519  124.3495  483.1875    4.6943   57.0000 
3158.3376    8.5000   85.1548 -999.0000   35.0173    0.1823    2.6734  124.5755  477.7500    4.5441   57.0000 
3158.4900    8.5000   86.5231 -999.0000   36.2613    0.1799    2.6772  124.2430  470.5000    4.5416   57.0000 
3158.6424    8.5000   90.7600 -999.0000   33.4152    0.1864    2.6761  125.7640  464.0000    4.7368   57.0000 
3158.7948    8.5000   88.5162 -999.0000   31.3227    0.1889    2.6687  126.6461  457.2500    4.6711   57.0000 
3158.9472    8.5000   86.2042 -999.0000   28.8211    0.1899    2.6634  127.2952  450.6875    4.5963   57.0000 
3159.0996    8.5000   80.9197 -999.0000   27.1441    0.1890    2.6544  130.0553  443.0625    4.3877   57.0000 
3159.2520    8.5000   81.7118 -999.0000   22.2088    0.2018    2.6454  130.5704  437.8125    4.6354   57.0000 
3159.4044    8.5000   86.9442 -999.0000   17.0206    0.2181    2.6444  129.2736  430.7500    5.1584   57.0000 
3159.5568    8.5000   87.8879 -999.0000   15.4887    0.2468    2.6457  126.9474  424.3750    6.1418   57.0000 
3159.7092    8.5000   85.2552 -999.0000   21.6845    0.2226    2.6467  126.1242  417.2500    5.3546   57.0000 
3159.8616    8.5000   78.8490 -999.0000   34.4893    0.2061    2.6393  126.2437  410.0000    4.6562   57.0000 
3160.0140    8.5000   79.1228 -999.0000   37.5978    0.1831    2.6364  128.2672  401.1250    3.8299   57.0000 
3160.1664    8.5000   79.1228 -999.0000   31.5917    0.1918    2.6320  130.9676  394.1250    4.0335   57.0000 
3160.3188    8.5000   78.9754 -999.0000   28.5288    0.1913    2.6295  136.8156  386.3750    3.9685   57.0000 
3160.4712    8.5000   82.4239 -999.0000   20.3006    0.1993    2.6310  139.8284  384.7500    4.2616   57.0000 
3160.6236    8.5000   85.6324 -999.0000   13.9703    0.2059    2.6334  142.6217  384.2500    4.5307   57.0000 
3160.7760    8.5000   95.2086 -999.0000   11.1667    0.2460    2.6475  143.9969  384.2500    6.1485   57.0000 
3160.9284    8.5000   99.2243 -999.0000   10.4812    0.2626    2.6509  143.5520  383.8750    6.7730   57.0000 
3161.0808    8.5000  101.6249 -999.0000   11.7036    0.2578    2.6426  143.4732  383.0625    6.4456   57.0000 
3161.2332    8.5000   96.3895 -999.0000   15.1195    0.2258    2.6335  141.2046  383.6250    5.1959   57.0000 
3161.3856    8.5000   95.8233 -999.0000   16.1063    0.2224    2.6308  140.3081  383.3750    5.0288   57.0000 
3161.5380    8.5000   99.7801 -999.0000   14.7531    0.2445    2.6441  139.9656  382.0625    6.0318   57.0000 
3161.6904    8.5000  103.4872 -999.0000   14.5000    0.2572    2.6473  137.6790  382.6875    6.5173   57.0000 
3161.8428    8.5000   97.6365 -999.0000   16.6024    0.2273    2.6446  138.4126  382.2500    5.4685   57.0000 
3161.9952    8.5000   93.5440 -999.0000   18.5813    0.1979    2.6439  139.8444  382.5000    4.4727   57.0000 
3162.1476    8.5000   93.5569 -999.0000   20.0175    0.1960    2.6545  140.9464  383.3750    4.6234   57.0000 
3162.3000    8.5000  101.6724 -999.0000   16.8377    0.2257    2.6688  140.2234  382.8125    5.9014   57.0000 
3162.4524    8.5000  100.8233 -999.0000   15.8217    0.2406    2.6658  140.3640  383.1875    6.3373   57.0000 
3162.6048    8.5000  101.6888 -999.0000   15.3386    0.2536    2.6532  139.6426  382.7500    6.5187   57.0000 
3162.7572    8.5000   99.3660 -999.0000   16.4720    0.2472    2.6357  138.3959  382.1250    5.9529   57.0000 
3162.9096    8.5000  101.3475 -999.0000   16.8035    0.2547    2.6295  137.0833  382.5625    6.0793   57.0000 
3163.0620    8.5000   98.4605 -999.0000   16.5370    0.2375    2.6364  137.3335  382.8125    5.6466   57.0000 
3163.2144    8.5000   99.4314 -999.0000   16.8401    0.2373    2.6583  137.5269  382.4375    6.0744   57.0000 
3163.3668    8.5000   99.7537 -999.0000   17.2588    0.2164    2.6708  138.8053  381.1250    5.6310   57.0000 
3163.5192    8.5000  100.3199 -999.0000   17.9400    0.2102    2.6659  140.0075  380.6875    5.3252   57.0000 
3163.6716    8.5000   96.9535 -999.0000   18.5084    0.2180    2.6589  141.7736  381.0000    5.4446   57.0000 
3163.8240    8.5000   97.1419 -999.0000   18.2394    0.2450    2.6543  141.7488  380.7500    6.2537   57.0000 
3163.9764    8.5000  101.4828 -999.0000   16.9145    0.2638    2.6596  141.1931  380.6875    6.9852   57.0000 
3164.1288    8.5000   96.0095 -999.0000   16.1371    0.2412    2.6462  141.0993  380.3125    5.9643   57.0000 
3164.2812    8.5000   94.7521 -999.0000   17.0244    0.2077    2.6343  142.5204  380.1875    4.6081   57.0000 
3164.4336    8.5000   87.9097 -999.0000   18.2485    0.2104    2.6302  142.5203  380.0625    4.6197   57.0000 
3164.5860    8.5000   95.2703 -999.0000   17.1056    0.2249    2.6451  142.9307  380.5000    5.4002   57.0000 
3164.7384    8.5000   95.2621 -999.0000   16.0039    0.2441    2.6585  143.3204  380.1250    6.3078   57.0000 
3164.8908    8.5000  102.4220 -999.0000   14.7477    0.2403    2.6572  143.4319  381.1250    6.1545   57.0000 
3165.0432    8.5000  104.2407 -999.0000   13.0158    0.2336    2.6487  145.4525  380.7500    5.7612   57.0000 
3165.1956    8.5000  110.5937 -999.0000   11.4303    0.2673    2.6388  144.2416  380.3750    6.6867   57.0000 
3165.3480    8.5000  108.0670 -999.0000   10.6751    0.2751    2.6389  142.8555  381.1250    6.9488   57.0000 
3165.5004    8.5000  104.4955 -999.0000   11.9356    0.2902    2.6362  139.7535  380.1250    7.3960   57.0000 
3165.6528    8.5000   97.5763 -999.0000   14.1702    0.2514    2.6402  137.5627  379.7500    6.1823   57.0000 
3165.8052    8.5000   90.3951 -999.0000   15.7625    0.2181    2.6388  136.2771  380.4375    5.0442   57.0000 
3165.9576    8.5000   90.5037 -999.0000   16.0673    0.1997    2.6589  135.3951  379.9375    4.8356   57.0000 
3166.1100    8.5000   94.5966 -999.0000   16.0702    0.2004    2.6719  134.0477  380.1250    5.1165   57.0000 
3166.2624    8.5000   98.7024 -999.0000   17.8396    0.1934    2.6911  133.2209  379.9375    5.2708   57.0000 
3166.4148    8.5000   96.0058 -999.0000   24.0111    0.1653    2.6868  133.1229  379.7500    4.2476   57.0000 
3166.5672    8.5000   89.9763 -999.0000   24.0171    0.1533    2.6960  132.8103  379.6875    4.0286   57.0000 
3166.7196    8.5000   91.5133 -999.0000   16.8255    0.1843    2.6909  134.5857  380.7500    4.9620   57.0000 
