~VERSION INFORMATION
 VERS.                 2.0:   CWLS LOG ASCII STANDARD - VERSION 2.0
 WRAP.                  NO:   SINGLE LINE PER DEPTH STEP
 CREA.                 06/02/2020 16:08:49
#CREATED USING IP VERSION 4.5.2019.2902 BY RMOTA ON 06/02/2020 16:08:49
~WELL INFORMATION
#MNEM.UNIT       DATA                          DESCRIPTION MNEMONIC
#---------      ---------------------------   --------------------------
 STRT    .M         -0.4572                   : START DEPTH
 STOP    .M         3564.6360                 : STOP DEPTH
 STEP    .M         0.1524                    : STEP VALUE
 NULL    .      -999.0000                     : NULL VALUE
 DATE    .      06/02/2020                    : LAS file Creation Date
 WELL   .      7-MP-28D-BA        : Well Name
 COMP   .      PETROBRAS          : Company
 FLD    .      MASSAPE            : Field
 STATE  .      BAHIA              : State
 COUNT  .      BRASIL             : Country
 API    .      20240021354        : API Number
 UWI    .                         : Unique Well Identifier (UWI)
 LOC    .      N= 8.609.866,070 m : Location
 TOWN   .      CATU               : Township
 SCT    .      OH WIRELINE        : Section
 RANG   .      SCHLUMBERGER       : Range
 PDAT   .      NM                 : Permanent Datum
 EPDAT  .      0                  : Elevation of Permanent Datum
 LGMEA  .      MR                 : Log Measured from
 DRMEA  .      MR                 : Drill Measured From
 APDAT  .      105.72             : Elevation Above Permanent Datum
 KB     .      106.02             : KB Elevation
 DF     .      105.72             : DF Elevation
 GL     .      96.31999           : GL Elevation
 RWS    .      -999               : Def_Rw
 WST    .      -999               : Def_Rwt
 BHS    .      OPEN               : Completion Status
 PROV   .                         : Province
 SRVC   .                         : Contractor
 GDAT   .      WGS 84             : Geodatum
 LONG   .      -38.4270011107127  : Longitude
 LATI   .      -12.5743130556742  : Latitude
 COORDIN.                         : Grid System
 XCOORD .                         : X or East-West Coordinate
 YCOORD .                         : Y or North-South Coordinate
~CURVE INFORMATION
#MNEM              UNIT       API CODE   Curve Type Comments
#----------  --------------- ----------  ---------- -----------
 DEPTH      .M                         : Depth       
 BS         .in                        : BitSize     
 GR         .gAPI                      : GammaRay    
 CAL        .in                        : Caliper     
 RT         .ohm.m                     : DeepRes     
 NPHI       .m3/m3                     : Neutron     
 RHOB       .g/cm3                     :             
 DT         .us/ft                     : Sonic       
 SP         .mV                        : SP          Loaded from DLIS: 7-mp-28d-ba_raw-2p.dlis
 DRDN       .                          :             
 Lith_new   .                          :             
~A  DEPTH     BS        GR       CAL        RT       NPHI      RHOB       DT        SP       DRDN    Lith_new 
# ...
2257.9584    8.5000  102.1920    8.6498    1.9363    0.3474    2.5325   94.8630 -999.0000    7.2968   57.0000 
2258.1108    8.5000  100.1748    8.6384    2.3142    0.3483    2.5419   95.8954 -999.0000    7.4739   57.0000 
2258.2632    8.5000   99.7102    8.6384    2.4935    0.3111    2.5419   97.4270 -999.0000    6.2077   57.0000 
2258.4156    8.5000   96.4768    8.7293    2.4806    0.3047    2.5362  101.0246 -999.0000    5.7607   57.0000 
2258.5680    8.5000   92.2408    8.6384    2.5478    0.3178    2.5184  107.5741 -999.0000    5.9161   57.0000 
2258.7204    8.5000   94.6613    8.5249    2.6127    0.3371    2.5178  106.5359 -999.0000    6.5806   57.0000 
2258.8728    8.5000  107.5952    8.5249    2.3625    0.3644    2.5165  106.9813 -999.0000    7.5126   57.0000 
2259.0252    8.5000  112.0956    8.5930    2.1286    0.3524    2.5236  106.5345 -999.0000    7.2424   57.0000 
2259.1776    8.5000  114.9872    8.6157    1.8163    0.3415    2.5235  102.6332 -999.0000    6.8416   57.0000 
2259.3300    8.5000  104.8827    8.6839    1.7395    0.2961    2.5271   99.5253 -999.0000    5.4766   57.0000 
2259.4824    8.5000  103.8114    8.7293    1.8950    0.2957    2.5352   98.3569 -999.0000    5.5752   57.0000 
2259.6348    8.5000   99.5077    8.6271    2.2749    0.2984    2.5322   98.8960 -999.0000    5.5605   57.0000 
2259.7872    8.5000   98.2952    8.6384    2.8213    0.3185    2.5241  101.0196 -999.0000    5.9963   57.0000 
2259.9396    8.5000   95.9309    8.5930    2.8363    0.3050    2.5075  100.9606 -999.0000    5.2354   57.0000 
2260.0920    8.5000   97.5446    8.5703    2.6050    0.3098    2.5089   99.2876 -999.0000    5.5996   57.0000 
2260.2444    8.5000   99.9044    8.6157    2.6771    0.2789    2.5245   95.0987 -999.0000    4.9102   57.0000 
2260.3968    8.5000  106.1692    8.6498    2.9519    0.2769    2.5459   93.4671 -999.0000    5.2981   57.0000 
2260.5492    8.5000   99.9697    8.6839    3.0106    0.2785    2.5598   93.3988 -999.0000    5.5140   57.0000 
2260.7016    8.5000   97.6993    8.7975    2.9212    0.2828    2.5637   94.1087 -999.0000    5.7106   57.0000 
2260.8540    8.5000   92.4527    8.6839    2.9372    0.2962    2.5625   96.5878 -999.0000    6.1034   57.0000 
2261.0064    8.5000   90.0276    8.6612    3.1279    0.2765    2.5613   97.7885 -999.0000    5.4235   57.0000 
2261.1588    8.5000   92.5655    8.6839    3.1867    0.2881    2.5546   98.9020 -999.0000    5.6232   57.0000 
2261.3112    8.5000   92.2978    8.6839    2.6721    0.2779    2.5428  101.0545 -999.0000    5.0283   57.0000 
2261.4636    8.5000   97.2915    8.7066    2.3072    0.3146    2.5287   99.7216 -999.0000    5.9802   57.0000 
2261.6160    8.5000   95.8769    8.7861    2.3417    0.3155    2.5237   99.1130 -999.0000    6.0204   57.0000 
2261.7684    8.5000   99.5723    8.6839    2.4872    0.3302    2.5315   94.3322 -999.0000    6.6979   57.0000 
2261.9208    8.5000  100.5809    8.6384    2.4387    0.3309    2.5380   91.8435 -999.0000    6.8206   57.0000 
2262.0732    8.5000   98.9041    8.7293    2.4287    0.3242    2.5438   92.3089 -999.0000    6.7149   57.0000 
2262.2256    8.5000   96.2769    8.7293    2.4982    0.3247    2.5505   92.1195 -999.0000    6.9135   57.0000 
2262.3780    8.5000   97.1457    8.7975    2.4879    0.2981    2.5656   94.4112 -999.0000    6.3515   57.0000 
2262.5304    8.5000   99.7680    8.7293    2.2584    0.3079    2.5779   97.1432 -999.0000    6.8751   57.0000 
2262.6828    8.5000  100.5152    8.8656    2.0861    0.2933    2.5806   96.9458 -999.0000    6.3578   57.0000 
2262.8352    8.5000   99.3026    8.8429    1.9871    0.3151    2.5764   93.1727 -999.0000    7.0338   57.0000 
2262.9876    8.5000   97.1446    8.7747    1.9167    0.2945    2.5783   93.5658 -999.0000    6.3988   57.0000 
2263.1400    8.5000   99.1617    8.8656    1.9294    0.2919    2.5790   92.6326 -999.0000    6.3182   57.0000 
2263.2924    8.5000  104.9517    8.7975    1.9185    0.2724    2.5825   94.3485 -999.0000    5.7525   57.0000 
2263.4448    8.5000  105.1538    8.7293    1.8445    0.2801    2.5823   94.3339 -999.0000    5.9564   57.0000 
2263.5972    8.5000  103.6021    8.8202    1.7337    0.2763    2.5819   95.3434 -999.0000    5.8370   57.0000 
2263.7496    8.5000  101.1815    8.9110    1.7752    0.2887    2.5722   96.3552 -999.0000    5.9633   57.0000 
2263.9020    8.5000  103.3391    8.7975    1.7916    0.2985    2.5610   95.3782 -999.0000    6.1179   57.0000 
2264.0544    8.5000  101.9245    8.7293    1.8144    0.3191    2.5494  101.5823 -999.0000    6.5453   57.0000 
2264.2068    8.5000   99.5655    8.7747    1.8690    0.3172    2.5428   99.4981 -999.0000    6.4169   57.0000 
2264.3592    8.5000   99.3638    8.8202    1.7059    0.3128    2.5434   94.4650 -999.0000    6.3376   57.0000 
2264.5116    8.5000   97.8925    8.8202    1.7126    0.3034    2.5577   88.8790 -999.0000    6.4290   57.0000 
2264.6640    8.5000  100.1155    8.6839    1.9326    0.2945    2.5852   83.8076 -999.0000    6.7140   57.0000 
2264.8164    8.5000   97.5533    8.8429    2.1959    0.2801    2.6088   84.3795 -999.0000    6.6015   57.0000 
2264.9688    8.5000   98.7636    8.9224    2.3537    0.2605    2.6186   81.7834 -999.0000    6.0993   57.0000 
2265.1212    8.5000   94.0585    8.8770    2.4021    0.2424    2.6232   83.1551 -999.0000    5.5529   57.0000 
2265.2736    8.5000   90.2187    8.8429    2.3487    0.2337    2.6248   84.9435 -999.0000    5.3137   57.0000 
2265.4260    8.5000   91.2273    8.9337    2.2403    0.2546    2.6223   85.9104 -999.0000    5.8358   57.0000 
2265.5784    8.5000   96.0684    8.8656    2.1267    0.2641    2.6068   89.1089 -999.0000    5.8556   57.0000 
2265.7308    8.5000  101.1207    8.7861    2.1382    0.2830    2.5966   88.9625 -999.0000    6.3158   57.0000 
2265.8832    8.5000   99.7669    8.7975    2.2424    0.2700    2.5968   86.7932 -999.0000    6.0228   57.0000 
2266.0356    8.5000   94.3206    8.8315    2.4090    0.2464    2.6110   83.2325 -999.0000    5.5213   57.0000 
2266.1880    8.5000   89.3463    8.7293    2.6659    0.2293    2.6231   80.1098 -999.0000    5.1749   57.0000 
2266.3404    8.5000   87.3254    8.7747    3.0548    0.2060    2.6292   80.1746 -999.0000    4.4400   57.0000 
2266.4928    8.5000   89.5240    8.8770    3.3507    0.2427    2.6228   82.9399 -999.0000    5.4846   57.0000 
2266.6452    8.5000   96.6548    8.7747    2.9484    0.2572    2.6140   86.0964 -999.0000    5.8090   57.0000 
2266.7976    8.5000  101.6432    8.7293    2.5197    0.2799    2.6077   89.4892 -999.0000    6.4481   57.0000 
2266.9500    8.5000  101.5215    8.8315    2.1775    0.2723    2.6030   89.8131 -999.0000    6.1087   57.0000 
2267.1024    8.5000  101.5880    8.8883    2.0569    0.2690    2.5987   89.0684 -999.0000    5.9124   57.0000 
2267.2548    8.5000   96.7468    8.8202    2.0361    0.2659    2.6005   88.7758 -999.0000    5.9521   57.0000 
2267.4072    8.5000   94.2666    8.8883    2.1001    0.2572    2.6185   87.4171 -999.0000    6.1026   57.0000 
2267.5596    8.5000   93.4582    8.8315    2.2388    0.2456    2.6436   83.1329 -999.0000    6.2238   57.0000 
2267.7120    8.5000   91.0879    8.8315    2.5069    0.2309    2.6557   79.9735 -999.0000    5.7529   57.0000 
2267.8644    8.5000   91.5748    8.7861    2.9816    0.2259    2.6343   81.6008 -999.0000    4.9846   57.0000 
2268.0168    8.5000   88.1392    8.7180    3.2605    0.2554    2.5937   89.9172 -999.0000    5.1044   57.0000 
2268.1692    8.5000   95.0103    8.6044    2.5467    0.2846    2.5667   86.9846 -999.0000    5.7963   57.0000 
2268.3216    8.5000   95.1286    8.5589    1.9355    0.2566    2.5790   84.0546 -999.0000    5.3295   57.0000 
2268.4740    8.5000   95.4735    8.5930    1.7695    0.2329    2.6145   82.9885 -999.0000    5.2953   57.0000 
2268.6264    8.5000   93.8568    8.6839    2.3084    0.2038    2.6407   78.4359 -999.0000    4.6984   57.0000 
2268.7788    8.5000   92.4984    8.6612    3.1253    0.2203    2.6440   76.3037 -999.0000    5.1497   57.0000 
2268.9312    8.5000   91.4898    8.6612    2.8348    0.2262    2.6302   83.3599 -999.0000    5.0731   57.0000 
