~VERSION INFORMATION
 VERS.                 2.0:   CWLS LOG ASCII STANDARD - VERSION 2.0
 WRAP.                  NO:   SINGLE LINE PER DEPTH STEP
 CREA.                 06/02/2020 16:44:49
#CREATED USING IP VERSION 4.5.2019.2902 BY RMOTA ON 06/02/2020 16:44:49
~WELL INFORMATION
#MNEM.UNIT       DATA                          DESCRIPTION MNEMONIC
#---------      ---------------------------   --------------------------
 STRT    .M         1550.0001                 : START DEPTH
 STOP    .M         2926.1001                 : STOP DEPTH
 STEP    .M         0.1000                    : STEP VALUE
 NULL    .      -999.0000                     : NULL VALUE
 DATE    .      06/02/2020                    : LAS file Creation Date
 WELL   .      7-MP-47DP-BA    : Well Name
 COMP   .      PETROBRAS       : Company
 FLD    .      MASSAPE         : Field
 STATE  .      BAHIA           : State
 API    .      20240025025     : API Number
 UWI    .                      : Unique Well Identifier (UWI)
 LOC    .      20240025025     : Location
 PDAT   .      NM              : Permanent Datum
 EPDAT  .      0.0             : Elevation of Permanent Datum
 LGMEA  .      MR              : Log Measured from
 DRMEA  .      MR              : Drill Measured From
 APDAT  .      65.68           : Elevation Above Permanent Datum
 KB     .      -999.25         : KB Elevation
 DF     .      65.68           : DF Elevation
 GL     .      56.28           : GL Elevation
 RWS    .      -999            : Def_Rw
 WST    .      -999            : Def_Rwt
 PROV   .                      : Province
 SRVC   .                      : Contractor
 GDAT   .      WGS 84          : Geodatum
 LONG   .      -38.435024444394: Longitude
 LATI   .      0               : Latitude
 COORDIN.                      : Grid System
 XCOORD .                      : X or East-West Coordinate
 YCOORD .                      : Y or North-South Coordinate
~CURVE INFORMATION
#MNEM              UNIT       API CODE   Curve Type Comments
#----------  --------------- ----------  ---------- -----------
 DEPTH      .M                         : Depth       
 BS         .in                        : BitSize     
 CAL        .in                        : Caliper     
 GR         .api                       : GammaRay    
 ILD        .ohmm                      : DeepRes     
 NPHI       .decp                      : Neutron     
 RHOB       .g/cc                      : Density     
 DT         .uspf                      : Sonic       
 DRDN       .                          :             
 Lith_new   .                          :             
~A  DEPTH     BS       CAL        GR       ILD       NPHI      RHOB       DT       DRDN    Lith_new 
# ...
2390.0001    8.5000    8.9281  100.9543    2.8030    0.2157    2.5655   90.2850    3.4995   57.0000 
2390.1001    8.5000    8.9212  100.7387    2.8083    0.2186    2.5635   90.4801    3.5565   57.0000 
2390.2001    8.5000    8.9117   98.8363    2.8206    0.2231    2.5637   90.5025    3.7103   57.0000 
2390.3001    8.5000    8.9079   99.6605    2.9168    0.2237    2.5657   90.4228    3.7709   57.0000 
2390.4001    8.5000    8.8924  100.4799    3.0124    0.2148    2.5672   90.0863    3.5054   57.0000 
2390.5001    8.5000    8.8962  100.1924    3.1330    0.2065    2.5686   89.6736    3.2549   57.0000 
2390.6001    8.5000    8.9107   98.4130    3.2623    0.2053    2.5694   88.6500    3.2320   57.0000 
2390.7001    8.5000    8.9244   97.9914    3.4740    0.2082    2.5694   86.9074    3.3292   57.0000 
2390.8001    8.5000    8.9344  100.4064    3.5444    0.2040    2.5708   85.6560    3.2148   57.0000 
2390.9001    8.5000    8.9307  101.7402    3.5950    0.2022    2.5710   84.7738    3.1601   57.0000 
2391.0001    8.5000    8.9046   98.3412    3.6280    0.2050    2.5719   84.2921    3.2697   57.0000 
2391.1001    8.5000    8.8846   95.4804    3.5915    0.2072    2.5743   84.7266    3.3909   57.0000 
2391.2001    8.5000    8.8700   93.6116    3.5154    0.2103    2.5746   84.7724    3.5020   57.0000 
2391.3001    8.5000    8.8233   91.5096    3.2815    0.2110    2.5761   87.1268    3.5568   57.0000 
2391.4001    8.5000    8.8233   90.7669    3.1538    0.2160    2.5752   88.1706    3.7042   57.0000 
2391.5001    8.5000    8.8220   91.1646    3.0374    0.2241    2.5733   89.0829    3.9368   57.0000 
2391.6001    8.5000    8.8410   98.7117    2.8426    0.2370    2.5727   89.8425    4.3560   57.0000 
2391.7001    8.5000    8.8623  102.3040    2.7589    0.2363    2.5738   90.4357    4.3509   57.0000 
2391.8001    8.5000    8.8748  105.5768    2.6879    0.2355    2.5756   90.2081    4.3616   57.0000 
2391.9001    8.5000    8.8927  106.7604    2.6039    0.2301    2.5770   89.7331    4.2098   57.0000 
2392.0001    8.5000    8.9147  103.6697    2.6088    0.2243    2.5776   88.4809    4.0275   57.0000 
2392.1001    8.5000    8.9000  100.8473    2.6539    0.2194    2.5765   88.0555    3.8441   57.0000 
2392.2001    8.5000    8.8924   99.1749    2.7336    0.2137    2.5768   87.2782    3.6583   57.0000 
2392.3001    8.5000    8.8605   97.0106    2.9856    0.2062    2.5814   85.1302    3.5000   57.0000 
2392.4001    8.5000    8.8236   95.6114    3.1372    0.2021    2.5857   84.5076    3.4481   57.0000 
2392.5001    8.5000    8.8203   94.3544    3.2758    0.1976    2.5888   83.8944    3.3625   57.0000 
2392.6001    8.5000    8.8349   96.3765    3.4526    0.1950    2.5831   82.6736    3.1623   57.0000 
2392.7001    8.5000    8.8589   96.9420    3.4868    0.2016    2.5760   82.2855    3.2416   57.0000 
2392.8001    8.5000    8.9030   95.6482    3.5068    0.2085    2.5699   82.2469    3.3470   57.0000 
2392.9001    8.5000    8.9420   93.6867    3.5594    0.2010    2.5673   81.8198    3.0437   57.0000 
2393.0001    8.5000    8.9510   94.3017    3.5924    0.1942    2.5705   81.9593    2.8848   57.0000 
2393.1001    8.5000    8.9540   95.0204    3.6177    0.1974    2.5747   81.9475    3.0747   57.0000 
2393.2001    8.5000    8.9368   92.1709    3.5965    0.2028    2.5778   83.3875    3.3154   57.0000 
2393.3001    8.5000    8.9262   93.2107    3.5477    0.1978    2.5777   84.1598    3.1463   57.0000 
2393.4001    8.5000    8.9217   95.0364    3.4966    0.1973    2.5781   84.6876    3.1377   57.0000 
2393.5001    8.5000    8.9306   97.7198    3.4759    0.1976    2.5785   84.6296    3.1585   57.0000 
2393.6001    8.5000    8.9639   97.7198    3.5303    0.2001    2.5806   83.0589    3.2799   57.0000 
2393.7001    8.5000    8.9810   94.5093    3.6287    0.1944    2.5803   82.9379    3.0866   57.0000 
2393.8001    8.5000    9.0065   90.0433    3.7734    0.1894    2.5793   80.9472    2.8993   57.0000 
2393.9001    8.5000    9.0194   84.2117    4.1910    0.1757    2.5750   79.5621    2.3560   57.0000 
2394.0001    8.5000    9.0027   83.8714    4.4299    0.1704    2.5724   79.9323    2.1276   57.0000 
2394.1001    8.5000    8.9815   85.1748    4.6290    0.1695    2.5701   80.7761    2.0502   57.0000 
2394.2001    8.5000    8.9287   91.2604    4.6682    0.1766    2.5663   82.7207    2.2133   57.0000 
2394.3001    8.5000    8.9158   96.1194    4.4798    0.1823    2.5670   84.2732    2.4158   57.0000 
2394.4001    8.5000    8.9177  100.8537    4.2214    0.1890    2.5685   86.2811    2.6717   57.0000 
2394.5001    8.5000    8.9329  102.6219    3.7263    0.2061    2.5763   87.6222    3.3952   57.0000 
2394.6001    8.5000    8.9424   99.1957    3.5297    0.2085    2.5792   88.4932    3.5334   57.0000 
2394.7001    8.5000    8.9467   97.7438    3.3511    0.2072    2.5801   89.6316    3.5080   57.0000 
2394.8001    8.5000    8.9501   99.5886    3.0030    0.2160    2.5760   91.1255    3.7216   57.0000 
2394.9001    8.5000    8.9463  100.6716    2.8472    0.2219    2.5720   91.3912    3.8383   57.0000 
2395.0001    8.5000    8.9448   99.4736    2.7285    0.2260    2.5696   91.1386    3.9273   57.0000 
2395.1001    8.5000    8.9387   98.1990    2.6597    0.2295    2.5691   91.2894    4.0321   57.0000 
2395.2001    8.5000    8.9188   95.6833    2.7098    0.2333    2.5713   90.6867    4.2040   57.0000 
2395.3001    8.5000    8.8998   94.2362    2.8040    0.2265    2.5738   89.9525    4.0249   57.0000 
2395.4001    8.5000    8.9007   92.1182    2.9257    0.2108    2.5750   89.3081    3.5265   57.0000 
2395.5001    8.5000    8.8961   89.9619    3.1630    0.2066    2.5777   87.6103    3.4389   57.0000 
2395.6001    8.5000    8.9066   91.3802    3.2513    0.2133    2.5802   87.3372    3.7148   57.0000 
2395.7001    8.5000    8.9109   93.7282    3.3211    0.2079    2.5819   86.7013    3.5662   57.0000 
2395.8001    8.5000    8.9031   93.9966    3.4282    0.1971    2.5847   86.0064    3.2654   57.0000 
2395.9001    8.5000    8.9054   94.2410    3.4564    0.1949    2.5854   85.8672    3.2049   57.0000 
2396.0001    8.5000    8.8937   94.7968    3.4653    0.1961    2.5868   85.8586    3.2727   57.0000 
2396.1001    8.5000    8.8975   97.4227    3.4542    0.2002    2.5918   85.8442    3.5106   57.0000 
2396.2001    8.5000    8.8971   97.8684    3.4546    0.2001    2.5926   85.9588    3.5229   57.0000 
2396.3001    8.5000    8.9077   97.3029    3.4729    0.2017    2.5953   85.3794    3.6285   57.0000 
2396.4001    8.5000    8.9135   92.2380    3.5848    0.2040    2.5934   84.1834    3.6687   57.0000 
2396.5001    8.5000    8.9123   88.7687    3.6718    0.1963    2.5913   84.2829    3.3692   57.0000 
2396.6001    8.5000    8.9093   86.9382    3.7581    0.1938    2.5906   84.5186    3.2725   57.0000 
2396.7001    8.5000    8.9013   87.1395    3.8500    0.1931    2.5868   84.4929    3.1723   57.0000 
2396.8001    8.5000    8.9047   88.5722    3.8486    0.1905    2.5824   83.9832    3.0001   57.0000 
2396.9001    8.5000    8.9120   87.9205    3.8310    0.1893    2.5800   83.9595    2.9101   57.0000 
2397.0001    8.5000    8.9287   86.6651    3.8105    0.1903    2.5776   83.9351    2.8977   57.0000 
2397.1001    8.5000    8.9338   90.7908    3.7755    0.1961    2.5740   83.3105    3.0152   57.0000 
2397.2001    8.5000    8.9277   94.4183    3.7537    0.1994    2.5707   83.4280    3.0619   57.0000 
2397.3001    8.5000    8.9246   97.0394    3.7161    0.1976    2.5689   84.1488    2.9659   57.0000 
2397.4001    8.5000    8.9049   98.1830    3.5857    0.2026    2.5622   84.4487    2.9977   57.0000 
2397.5001    8.5000    8.9030   99.1702    3.5163    0.2032    2.5610   84.8663    2.9926   57.0000 
2397.6001    8.5000    8.9049  101.0757    3.4686    0.2047    2.5632   84.9136    3.0885   57.0000 
2397.7001    8.5000    8.9106   99.9832    3.4666    0.2048    2.5693   84.9628    3.2121   57.0000 
2397.8001    8.5000    8.9231   97.0122    3.4917    0.2031    2.5770   84.6624    3.3099   57.0000 
2397.9001    8.5000    8.9277   92.8673    3.4999    0.2009    2.5829   84.5352    3.3536   57.0000 
