~VERSION INFORMATION
 VERS.                 2.0:   CWLS LOG ASCII STANDARD - VERSION 2.0
 WRAP.                  NO:   SINGLE LINE PER DEPTH STEP
 CREA.                 06/02/2020 16:08:49
#CREATED USING IP VERSION 4.5.2019.2902 BY RMOTA ON 06/02/2020 16:08:49
~WELL INFORMATION
#MNEM.UNIT       DATA                          DESCRIPTION MNEMONIC
#---------      ---------------------------   --------------------------
 STRT    .M         -0.4572                   : START DEPTH
 STOP    .M         3564.6360                 : STOP DEPTH
 STEP    .M         0.1524                    : STEP VALUE
 NULL    .      -999.0000                     : NULL VALUE
 DATE    .      06/02/2020                    : LAS file Creation Date
 WELL   .      7-MP-28D-BA        : Well Name
 COMP   .      PETROBRAS          : Company
 FLD    .      MASSAPE            : Field
 STATE  .      BAHIA              : State
 COUNT  .      BRASIL             : Country
 API    .      20240021354        : API Number
 UWI    .                         : Unique Well Identifier (UWI)
 LOC    .      N= 8.609.866,070 m : Location
 TOWN   .      CATU               : Township
 SCT    .      OH WIRELINE        : Section
 RANG   .      SCHLUMBERGER       : Range
 PDAT   .      NM                 : Permanent Datum
 EPDAT  .      0                  : Elevation of Permanent Datum
 LGMEA  .      MR                 : Log Measured from
 DRMEA  .      MR                 : Drill Measured From
 APDAT  .      105.72             : Elevation Above Permanent Datum
 KB     .      106.02             : KB Elevation
 DF     .      105.72             : DF Elevation
 GL     .      96.31999           : GL Elevation
 RWS    .      -999               : Def_Rw
 WST    .      -999               : Def_Rwt
 BHS    .      OPEN               : Completion Status
 PROV   .                         : Province
 SRVC   .                         : Contractor
 GDAT   .      WGS 84             : Geodatum
 LONG   .      -38.4270011107127  : Longitude
 LATI   .      -12.5743130556742  : Latitude
 COORDIN.                         : Grid System
 XCOORD .                         : X or East-West Coordinate
 YCOORD .                         : Y or North-South Coordinate
~CURVE INFORMATION
#MNEM              UNIT       API CODE   Curve Type Comments
#----------  --------------- ----------  ---------- -----------
 DEPTH      .M                         : Depth       
 BS         .in                        : BitSize     
 GR         .gAPI                      : GammaRay    
 CAL        .in                        : Caliper     
 RT         .ohm.m                     : DeepRes     
 NPHI       .m3/m3                     : Neutron     
 RHOB       .g/cm3                     :             
 DT         .us/ft                     : Sonic       
 SP         .mV                        : SP          Loaded from DLIS: 7-mp-28d-ba_raw-2p.dlis
 DRDN       .                          :             
 Lith_new   .                          :             
~A  DEPTH     BS        GR       CAL        RT       NPHI      RHOB       DT        SP       DRDN    Lith_new 
# ...
1178.8140   12.2500   96.1632   12.2738    3.6851    0.3952    2.3662  113.8963  147.8125    5.4891   57.0000 
1178.9664   12.2500   95.7585   12.2738    3.4083    0.3700    2.3657  112.4505  147.6250    4.6450   57.0000 
1179.1188   12.2500   98.2376   12.2979    3.2188    0.3710    2.3625  110.6011  149.1875    4.5827   57.0000 
1179.2712   12.2500   97.2820   12.2497    3.1889    0.3876    2.3566  108.5644  148.7500    4.9857   57.0000 
1179.4236   12.2500   91.7682   12.2255    3.4924    0.3628    2.3422  109.3564  149.8125    3.8225   57.0000 
1179.5760   12.2500   83.8278   12.2738    4.0951    0.3621    2.3255  109.8612  150.5000    3.4614   57.0000 
1179.7284   12.2500   86.6713   12.2738    4.3004    0.3638    2.3096  114.0030  149.4375    3.2546   57.0000 
1179.8808   12.2500   86.7752   12.3341    4.7659    0.3936    2.3030  115.0689  148.8750    4.1580   57.0000 
1180.0332   12.2500   93.4060   12.3703    5.1254    0.4136    2.3030  113.2616  148.1875    4.8674   57.0000 
1180.1856   12.2500   94.8672   12.3824    5.9100    0.3956    2.3032  114.6087  149.0000    4.2348   57.0000 
1180.3380   12.2500  100.6817   12.3945    6.7845    0.3841    2.3084  109.2162  149.9375    4.0826   57.0000 
1180.4904   12.2500   95.5143   12.3703    6.3239    0.3742    2.3334  106.6169  150.2500    4.3719   57.0000 
1180.6428   12.2500   90.5464   12.3221    5.7880    0.3554    2.3788  102.5105  149.8125    4.8119   57.0000 
1180.7952   12.2500   87.9349   12.3100    5.4029    0.3223    2.4355   94.7346  148.7500    4.7781   57.0000 
1180.9476   12.2500   87.0316   12.4669    4.8293    0.2668    2.4767   92.1002  148.8125    3.6568   57.0000 
1181.1000   12.2500   88.7540   12.5875    5.0514    0.2538    2.5025   88.8857  149.4375    3.6015   57.0000 
1181.2524   12.2500   89.1397   12.4910    5.9223    0.2629    2.5077   87.6666  150.6250    3.9035   57.0000 
1181.4048   12.2500   97.7026   12.5634    7.5008    0.2566    2.5067   85.3608  150.2500    3.7128   57.0000 
1181.5572   12.2500   94.8604   12.4910    8.5938    0.2191    2.5162   81.8157  149.7500    2.7087   57.0000 
1181.7096   12.2500   90.8663   12.0808    8.9759    0.1989    2.5293   79.2233  148.7500    2.3131   57.0000 
1181.8620   12.2500   82.5126   12.3703    9.0865    0.2143    2.5400   78.6060  149.3750    2.9682   57.0000 
1182.0144   12.2500   86.1202   12.5151    8.0295    0.2433    2.5394   81.0715  149.8750    3.8697   57.0000 
1182.1668   12.2500   86.6743   12.5151    6.8727    0.2446    2.5352   83.7283  150.2500    3.8292   57.0000 
1182.3192   12.2500   91.5321   12.5393    6.1790    0.2612    2.5270   86.5864  150.8125    4.1434   57.0000 
1182.4716   12.2500   90.8655   12.5393    5.5136    0.2913    2.5084   91.4196  151.0000    4.7511   57.0000 
1182.6240   12.2500   98.3245   12.2135    4.9037    0.2975    2.4944   91.6679  150.3750    4.7738   57.0000 
1182.7764   12.2500   95.0786   12.0566    4.7194    0.2743    2.4967   90.5364  149.0000    4.1341   57.0000 
1182.9288   12.2500   92.1375   12.2497    5.2058    0.2474    2.5105   88.9270  149.4375    3.6047   57.0000 
1183.0812   12.2500   84.3273   12.3945    5.9540    0.2352    2.5322   83.6350  149.6875    3.5677   57.0000 
1183.2336   12.2500   85.0286   12.4910    6.3747    0.2316    2.5387   81.4280  150.7500    3.5313   57.0000 
1183.3860   12.2500   85.5952   12.5151    7.0012    0.2106    2.5441   81.6777  149.6875    2.8876   57.0000 
1183.5384   12.2500   82.2241   12.4186    7.6464    0.1984    2.5343   80.3851  149.8750    2.2216   57.0000 
1183.6908   12.2500   83.6017   12.2255    8.2770    0.2062    2.5297   79.9765  149.6875    2.4729   57.0000 
1183.8432   12.2500   78.1772   12.1773    8.7261    0.1871    2.5295   79.2089  150.1875    1.8382   57.0000 
1183.9956   12.2500   80.3319   12.2617    8.6276    0.2018    2.5343   80.4869  150.8750    2.4536   57.0000 
1184.1480   12.2500   78.6578   12.4186    8.0538    0.2014    2.5369   81.2840  150.2500    2.4429   57.0000 
1184.3004   12.2500   83.0529   12.4186    7.5672    0.2281    2.5274   81.2709  149.8750    3.0075   57.0000 
1184.4528   12.2500   86.2394   12.3462    7.4059    0.2333    2.5026   82.8626  149.7500    2.6603   57.0000 
1184.6052   12.2500   87.7556   12.2497    6.9237    0.2488    2.4791   84.3734  149.0000    2.7285   57.0000 
1184.7576   12.2500   90.5522   12.1290    6.3154    0.2441    2.4668   85.4568  148.3125    2.4843   57.0000 
1184.9100   12.2500   87.5685   12.2014    5.9745    0.2571    2.4764   87.3506  149.5625    3.1954   57.0000 
1185.0624   12.2500   88.4308   12.3583    5.5249    0.2701    2.4898   88.9873  150.1250    3.8958   57.0000 
1185.2148   12.2500   88.0826   12.4669    5.1116    0.2978    2.5060   88.6790  149.5625    5.1403   57.0000 
1185.3672   12.2500   86.1878   12.4669    5.0607    0.3040    2.5165   90.0442  149.6875    5.5263   57.0000 
1185.5196   12.2500   94.8092   12.5151    4.9136    0.3167    2.5223   93.0128  149.9375    5.9814   57.0000 
1185.6720   12.2500   95.5994   12.4427    4.0546    0.3158    2.5142   95.2871  150.5625    5.7464   57.0000 
1185.8244   12.2500  100.9406   12.2738    3.5031    0.3381    2.5012   99.7177  150.4375    6.1602   57.0000 
1185.9768   12.2500   92.5505   12.2979    3.0864    0.3202    2.4824  102.7593  149.7500    5.2334   57.0000 
1186.1292   12.2500   91.5016   12.3221    2.8700    0.3577    2.4731  104.3075  149.1875    6.3472   57.0000 
1186.2816   12.2500   91.5472   12.2979    2.8029    0.3624    2.4663  106.7464  148.5625    6.3602   57.0000 
1186.4340   12.2500   93.9962   12.3341    2.7376    0.3489    2.4594  108.2439  149.9375    5.7501   57.0000 
1186.5864   12.2500   98.4480   12.2738    2.6970    0.3164    2.4457  108.2559  151.0000    4.3753   57.0000 
1186.7388   12.2500  102.0828   12.2738    2.7075    0.3043    2.4408  107.2975  150.8125    3.9684   57.0000 
1186.8912   12.2500  101.7391   12.2738    2.8382    0.3198    2.4446  103.8946  150.5000    4.6033   57.0000 
1187.0436   12.2500  103.8881   12.2738    3.0626    0.3081    2.4535  100.7011  149.9375    4.3879   57.0000 
1187.1960   12.2500  103.0459   12.2497    3.3789    0.2941    2.4616   98.3122  148.8750    4.1147   57.0000 
1187.3484   12.2500   97.7748   12.2497    3.8072    0.2923    2.4737   96.2376  149.8750    4.3009   57.0000 
1187.5008   12.2500   88.5218   12.2738    4.3445    0.2906    2.4884   93.4591  150.8125    4.5677   57.0000 
1187.6532   12.2500   84.6138   12.2979    4.9845    0.2757    2.4989   90.5137  150.9375    4.1710   57.0000 
1187.8056   12.2500   91.0904   12.2497    5.5187    0.2659    2.4977   87.5908  151.6875    3.8118   57.0000 
1187.9580   12.2500   96.3733   12.2738    6.1639    0.2639    2.4925   87.0922  150.5625    3.5725   57.0000 
1188.1104   12.2500  101.1234   12.2255    5.7264    0.2939    2.4810   89.0732  149.8750    4.3386   57.0000 
1188.2628   12.2500   95.2027   12.2255    4.9727    0.3327    2.4659   92.7074  150.0625    5.2840   57.0000 
1188.4152   12.2500   91.6011   12.2497    4.1550    0.3789    2.4477   98.5704  150.4375    6.4803   57.0000 
1188.5676   12.2500   87.8627   12.2255    3.5162    0.3834    2.4364  103.7351  151.0000    6.4556   57.0000 
1188.7200   12.2500   94.0152   12.2738    2.8327    0.3911    2.4301  107.2101  151.3125    6.5918   57.0000 
1188.8724   12.2500   93.5698   12.2497    2.7167    0.3658    2.4253  106.1607  152.0000    5.6916   57.0000 
1189.0248   12.2500   89.3703   12.2497    3.0966    0.3192    2.4286  101.0663  151.6875    4.2927   57.0000 
1189.1772   12.2500   80.9698   12.2255    3.7704    0.2712    2.4517   95.0433  151.9375    3.3118   57.0000 
1189.3296   12.2500   80.2123   12.2979    4.4259    0.2488    2.4863   89.6771  151.9375    3.2108   57.0000 
1189.4820   12.2500   81.2104   12.2859    5.5127    0.2527    2.5104   84.3625  152.5625    3.7707   57.0000 
1189.6344   12.2500   81.4833   12.2738    7.1274    0.2327    2.5267   82.6470  152.9375    3.3496   57.0000 
1189.7868   12.2500   77.7890   12.3945   10.5973    0.2184    2.5325   80.1446  152.6250    2.9549   57.0000 
