~VERSION INFORMATION
 VERS.                 2.0:   CWLS LOG ASCII STANDARD - VERSION 2.0
 WRAP.                  NO:   SINGLE LINE PER DEPTH STEP
 CREA.                 06/02/2020 16:44:49
#CREATED USING IP VERSION 4.5.2019.2902 BY RMOTA ON 06/02/2020 16:44:49
~WELL INFORMATION
#MNEM.UNIT       DATA                          DESCRIPTION MNEMONIC
#---------      ---------------------------   --------------------------
 STRT    .M         1550.0001                 : START DEPTH
 STOP    .M         2926.1001                 : STOP DEPTH
 STEP    .M         0.1000                    : STEP VALUE
 NULL    .      -999.0000                     : NULL VALUE
 DATE    .      06/02/2020                    : LAS file Creation Date
 WELL   .      7-MP-47DP-BA    : Well Name
 COMP   .      PETROBRAS       : Company
 FLD    .      MASSAPE         : Field
 STATE  .      BAHIA           : State
 API    .      20240025025     : API Number
 UWI    .                      : Unique Well Identifier (UWI)
 LOC    .      20240025025     : Location
 PDAT   .      NM              : Permanent Datum
 EPDAT  .      0.0             : Elevation of Permanent Datum
 LGMEA  .      MR              : Log Measured from
 DRMEA  .      MR              : Drill Measured From
 APDAT  .      65.68           : Elevation Above Permanent Datum
 KB     .      -999.25         : KB Elevation
 DF     .      65.68           : DF Elevation
 GL     .      56.28           : GL Elevation
 RWS    .      -999            : Def_Rw
 WST    .      -999            : Def_Rwt
 PROV   .                      : Province
 SRVC   .                      : Contractor
 GDAT   .      WGS 84          : Geodatum
 LONG   .      -38.435024444394: Longitude
 LATI   .      0               : Latitude
 COORDIN.                      : Grid System
 XCOORD .                      : X or East-West Coordinate
 YCOORD .                      : Y or North-South Coordinate
~CURVE INFORMATION
#MNEM              UNIT       API CODE   Curve Type Comments
#----------  --------------- ----------  ---------- -----------
 DEPTH      .M                         : Depth       
 BS         .in                        : BitSize     
 CAL        .in                        : Caliper     
 GR         .api                       : GammaRay    
 ILD        .ohmm                      : DeepRes     
 NPHI       .decp                      : Neutron     
 RHOB       .g/cc                      : Density     
 DT         .uspf                      : Sonic       
 DRDN       .                          :             
 Lith_new   .                          :             
~A  DEPTH     BS       CAL        GR       ILD       NPHI      RHOB       DT       DRDN    Lith_new 
# ...
2726.0001    8.5000    8.9030   53.8027   23.0555    0.1027    2.4180   77.0709   -3.2148   49.0000 
2726.1001    8.5000    8.9117   51.5409   25.2482    0.0951    2.4174   75.8653   -3.4819   49.0000 
2726.2001    8.5000    8.9201   49.5859   29.0700    0.0829    2.4241   73.6979   -3.7553   49.0000 
2726.3001    8.5000    8.9216   51.6368   29.6830    0.0809    2.4313   73.2174   -3.6763   49.0000 
2726.4001    8.5000    8.9201   55.2594   28.9272    0.0828    2.4407   73.4089   -3.4245   49.0000 
2726.5001    8.5000    8.9060   64.5172   24.9044    0.0950    2.4609   73.9320   -2.6149   49.0000 
2726.6001    8.5000    8.9014   68.2740   22.8309    0.1017    2.4684   74.7996   -2.2425   49.0000 
2726.7001    8.5000    8.8999   68.0440   21.6545    0.1005    2.4683   74.9939   -2.2854   49.0000 
2726.8001    8.5000    8.8969   66.2998   21.8367    0.0988    2.4640   75.6759   -2.4247   49.0000 
2726.9001    8.5000    8.8999   59.8787   22.9904    0.0909    2.4447   75.8669   -3.0774   49.0000 
2727.0001    8.5000    8.9008   58.6137   24.2428    0.0906    2.4332   75.6831   -3.3152   49.0000 
2727.1001    8.5000    8.8993   57.7128   25.1527    0.0928    2.4280   75.6444   -3.3456   49.0000 
2727.2001    8.5000    8.9175   53.8410   26.6077    0.0883    2.4223   75.6268   -3.6121   49.0000 
2727.3001    8.5000    8.9206   51.6368   26.8952    0.0865    2.4227   75.8227   -3.6622   49.0000 
2727.4001    8.5000    8.9212   49.9501   27.3479    0.0872    2.4255   76.3614   -3.5842   49.0000 
2727.5001    8.5000    8.9121   50.3717   26.5785    0.0922    2.4247   77.5906   -3.4335   49.0000 
2727.6001    8.5000    8.9197   51.5409   25.7017    0.0965    2.4247   78.2799   -3.2883   49.0000 
2727.7001    8.5000    8.9227   53.7835   24.2684    0.0975    2.4243   78.5222   -3.2639   49.0000 
2727.8001    8.5000    8.9273   58.0994   21.4487    0.1019    2.4261   78.6894   -3.0806   49.0000 
2727.9001    8.5000    8.9364   60.6822   20.0915    0.1046    2.4326   78.4247   -2.8610   49.0000 
2728.0001    8.5000    8.9334   64.5492   18.8826    0.1071    2.4447   77.8891   -2.5356   49.0000 
2728.1001    8.5000    8.9291   73.9795   17.1740    0.1125    2.4758   77.3046   -1.7355   49.0000 
2728.2001    8.5000    8.9203   77.7219   16.6322    0.1152    2.4885   77.1269   -1.3905   49.0000 
2728.3001    8.5000    8.9122   80.6976   16.1959    0.1163    2.4945   76.8698   -1.2329   49.0000 
2728.4001    8.5000    8.9057   82.2087   15.4696    0.1191    2.4937   76.4565   -1.1563   49.0000 
2728.5001    8.5000    8.9032   79.6882   15.2471    0.1218    2.4816   76.8275   -1.3084   49.0000 
2728.6001    8.5000    8.9059   76.2508   15.1501    0.1250    2.4757   77.0538   -1.3179   49.0000 
2728.7001    8.5000    8.9094   72.8438   15.0864    0.1248    2.4714   77.4972   -1.4126   49.0000 
2728.8001    8.5000    8.9022   68.5599   15.0545    0.1211    2.4664   78.2383   -1.6362   49.0000 
2728.9001    8.5000    8.9083   68.1590   15.0368    0.1165    2.4623   78.8214   -1.8687   49.0000 
2729.0001    8.5000    8.9111   67.4450   15.0810    0.1162    2.4574   79.2428   -1.9796   49.0000 
2729.1001    8.5000    8.9085   64.5939   15.0692    0.1174    2.4530   79.2587   -2.0269   49.0000 
2729.2001    8.5000    8.9093   64.2681   14.9499    0.1151    2.4504   79.2209   -2.1541   49.0000 
2729.3001    8.5000    8.9063   64.7856   14.7537    0.1154    2.4518   79.1756   -2.1191   49.0000 
2729.4001    8.5000    8.9052   67.6415   14.3789    0.1161    2.4525   78.0106   -2.0812   49.0000 
2729.5001    8.5000    8.8994   67.8284   14.2219    0.1179    2.4526   77.4713   -2.0184   49.0000 
2729.6001    8.5000    8.9004   67.5744   14.0243    0.1195    2.4528   77.4842   -1.9609   49.0000 
2729.7001    8.5000    8.8965   65.2935   13.7599    0.1214    2.4441   76.6967   -2.0717   49.0000 
2729.8001    8.5000    8.9074   63.3624   13.7350    0.1234    2.4407   76.6578   -2.0732   49.0000 
2729.9001    8.5000    8.9120   60.6071   13.8202    0.1198    2.4385   76.5050   -2.2344   49.0000 
2730.0001    8.5000    8.9102   58.6520   14.0143    0.1147    2.4360   77.2176   -2.4572   49.0000 
2730.1001    8.5000    8.9116   58.9044   14.1415    0.1097    2.4346   77.5876   -2.6495   49.0000 
2730.2001    8.5000    8.9065   61.5782   14.1661    0.1121    2.4354   77.7864   -2.5539   49.0000 
2730.3001    8.5000    8.9141   63.1787   14.1106    0.1108    2.4358   77.6448   -2.5914   49.0000 
2730.4001    8.5000    8.9237   64.7568   13.6505    0.1092    2.4460   77.3504   -2.4380   49.0000 
2730.5001    8.5000    8.9329   66.6448   13.3110    0.1105    2.4538   77.0609   -2.2402   49.0000 
2730.6001    8.5000    8.9397   69.4145   12.9457    0.1113    2.4611   76.8216   -2.0682   49.0000 
2730.7001    8.5000    8.9164   77.3114   12.4428    0.1139    2.4743   75.9071   -1.7177   49.0000 
2730.8001    8.5000    8.9047   80.3255   12.3280    0.1159    2.4807   75.4778   -1.5205   49.0000 
2730.9001    8.5000    8.8923   84.1637   12.2023    0.1192    2.4872   74.8880   -1.2811   49.0000 
2731.0001    8.5000    8.8829   91.8211   11.8186    0.1232    2.5113   74.2224   -0.6660   25.0000 
2731.1001    8.5000    8.8784   96.3637   11.6549    0.1239    2.5251   73.9114   -0.3671   25.0000 
2731.2001    8.5000    8.8845  100.5806   11.6641    0.1215    2.5372   73.7110   -0.2069   54.0000 
2731.3001    8.5000    8.8964  101.0693   12.4121    0.1199    2.5511   73.6519    0.0179   54.0000 
2731.4001    8.5000    8.8976   96.6465   13.2147    0.1220    2.5470   73.8476    0.0057   54.0000 
2731.5001    8.5000    8.8900   89.3677   14.2048    0.1247    2.5364   73.6625   -0.1144   54.0000 
2731.6001    8.5000    8.8812   80.8829   16.1870    0.1213    2.5223   73.5657   -0.5090   25.0000 
2731.7001    8.5000    8.8743   67.7661   16.7574    0.1086    2.4876   72.9686   -1.6288   49.0000 
2731.8001    8.5000    8.8829   63.8559   16.8908    0.1034    2.4732   72.5518   -2.0901   49.0000 
2731.9001    8.5000    8.8936   61.8913   16.7678    0.0971    2.4634   72.7835   -2.4937   49.0000 
2732.0001    8.5000    8.9107   58.2080   16.0179    0.0870    2.4573   72.5138   -2.9547   49.0000 
2732.1001    8.5000    8.9033   57.6074   15.6125    0.0839    2.4601   72.4110   -3.0015   49.0000 
2732.2001    8.5000    8.8957   57.8055   15.2075    0.0841    2.4660   72.4142   -2.8746   49.0000 
2732.3001    8.5000    8.8956   61.6773   14.5730    0.0899    2.4780   72.8542   -2.4430   49.0000 
2732.4001    8.5000    8.9002   63.3065   14.2651    0.0931    2.4836   72.6454   -2.2234   49.0000 
2732.5001    8.5000    8.8969   63.9614   13.9793    0.0978    2.4898   72.6355   -1.9439   49.0000 
2732.6001    8.5000    8.9045   64.2776   13.6554    0.1049    2.5007   72.9324   -1.4890   49.0000 
2732.7001    8.5000    8.9060   66.4435   13.6059    0.1046    2.5065   72.9216   -1.3846   49.0000 
2732.8001    8.5000    8.9045   70.4623   13.5422    0.1065    2.5139   73.3319   -1.1730   49.0000 
2732.9001    8.5000    8.9060   78.9822   13.0530    0.1107    2.5241   73.9185   -0.8284   25.0000 
2733.0001    8.5000    8.9121   81.4068   12.7344    0.1127    2.5265   73.8225   -0.7119   25.0000 
2733.1001    8.5000    8.9090   81.5282   12.4447    0.1174    2.5281   74.5494   -0.5232   25.0000 
2733.2001    8.5000    8.9045   80.6210   12.3243    0.1175    2.5255   74.8363   -0.5739   25.0000 
2733.3001    8.5000    8.8984   80.8797   12.5405    0.1194    2.5185   76.3853   -0.6496   25.0000 
2733.4001    8.5000    8.8984   82.7725   12.9436    0.1197    2.5145   77.0923   -0.7212   25.0000 
2733.5001    8.5000    8.9014   84.8218   13.4678    0.1185    2.5107   76.8317   -0.8340   25.0000 
2733.6001    8.5000    8.9106   82.2246   14.5155    0.1257    2.5040   76.8802   -0.7317   25.0000 
2733.7001    8.5000    8.9151   78.4439   14.9250    0.1292    2.4968   77.0445   -0.7590   25.0000 
2733.8001    8.5000    8.9075   73.6568   15.2216    0.1288    2.4880   76.7452   -0.9458   25.0000 
2733.9001    8.5000    8.8938   66.4978   15.5875    0.1144    2.4668   75.2008   -1.8524   49.0000 
