~VERSION INFORMATION
 VERS.                 2.0:   CWLS LOG ASCII STANDARD - VERSION 2.0
 WRAP.                  NO:   SINGLE LINE PER DEPTH STEP
 CREA.                 06/02/2020 16:35:30
#CREATED USING IP VERSION 4.5.2019.2902 BY RMOTA ON 06/02/2020 16:35:30
~WELL INFORMATION
#MNEM.UNIT       DATA                          DESCRIPTION MNEMONIC
#---------      ---------------------------   --------------------------
 STRT    .M         15.6972                   : START DEPTH
 STOP    .M         2951.2260                 : STOP DEPTH
 STEP    .M         0.1524                    : STEP VALUE
 NULL    .      -999.0000                     : NULL VALUE
 DATE    .      06/02/2020                    : LAS file Creation Date
 WELL   .      7-MP-36D-BA       : Well Name
 COMP   .      PETROBRAS         : Company
 FLD    .      MASSAPE           : Field
 STATE  .      20240022534       : State
 COUNT  .      BRASIL            : Country
 API    .      20240022534       : API Number
 UWI    .                        : Unique Well Identifier (UWI)
 LOC    .      N= 8607444.13 M   : Location
 PDAT   .      NM                : Permanent Datum
 EPDAT  .      0                 : Elevation of Permanent Datum
 LGMEA  .      MR                : Log Measured from
 DRMEA  .      MR                : Drill Measured From
 APDAT  .      65.81             : Elevation Above Permanent Datum
 KB     .      66.11             : KB Elevation
 DF     .      65.81             : DF Elevation
 GL     .      56.41             : GL Elevation
 RWS    .      -999              : Def_Rw
 WST    .      -999              : Def_Rwt
 BHS    .      OPEN              : Completion Status
 PROV   .                        : Province
 SRVC   .                        : Contractor
 GDAT   .      WGS 84            : Geodatum
 LONG   .      -38.4351329444514 : Longitude
 LATI   .      -12.5962309720781 : Latitude
 COORDIN.                        : Grid System
 XCOORD .                        : X or East-West Coordinate
 YCOORD .                        : Y or North-South Coordinate
~CURVE INFORMATION
#MNEM              UNIT       API CODE   Curve Type Comments
#----------  --------------- ----------  ---------- -----------
 DEPTH      .M                         : Depth       
 BS         .in                        : BitSize     Loaded from DLIS: 7-mp-36d-ba_raw-1.dlis
 DCAL       .in                        :             Loaded from DLIS: 7-mp-36d-ba_raw-1.dlis
 GR         .gAPI                      : GammaRay    Loaded from DLIS: 7-mp-36d-ba_raw-1.dlis
 RT         .ohm.m                     : DeepRes     Loaded from DLIS: 7-mp-36d-ba_raw-1.dlis
 NPHI       .m3/m3                     : Neutron     Loaded from DLIS: 7-mp-36d-ba_raw-1.dlis
 RHOB       .g/cm3                     : Density     Loaded from DLIS: 7-mp-36d-ba_raw-1.dlis
 DT         .us/ft                     : Sonic       Loaded from DLIS: 7-mp-36d-ba_raw-1.dlis
 SP         .mV                        : SP          Loaded from DLIS: 7-mp-36d-ba_raw-1.dlis
 DRDN       .                          :             
 Lith_new   .                          :             
~A  DEPTH     BS       DCAL       GR        RT       NPHI      RHOB       DT        SP       DRDN    Lith_new 
# ...
 405.0792   12.2500    0.3150   48.7070    5.5574    0.5584    3.7057   67.0620 -122.8750   37.7538   57.0000 
 405.2316   12.2500    0.3150   51.6299    5.5574    0.5273    3.7097   58.2790 -122.8125   36.7910   57.0000 
 405.3840   12.2500    0.3150   50.7383    5.5574    0.5563    3.7084   57.7998 -122.6250   37.6782   57.0000 
 405.5364   12.2500    0.3150   50.7275    5.5574    0.5360    3.7005   57.1508 -122.4375   36.8082   57.0000 
 405.6888   12.2500    0.3263   46.7872    5.5574    0.5939    3.6908   57.2611 -122.3750   38.5476   57.0000 
 405.8412   12.2500    0.3150   45.8739    5.5574    0.5250    3.6858   55.5948 -122.1875   36.2157   57.0000 
 405.9936   12.2500    0.3150   41.5814    5.5574    0.5546    3.6875   64.3391 -122.0625   37.2616   57.0000 
 406.1460   12.2500    0.3263   39.7262    5.5574    0.5547    3.6893   56.2282 -121.8125   37.2786   57.0000 
 406.2984   12.2500    0.3150   39.7514    5.5574    0.6008    3.6863   57.2127 -121.8750   38.7131   57.0000 
 406.4508   12.2500    0.3150   40.3691    5.5574    0.5328    3.6794   66.8462 -121.9375   36.2956   57.0000 
 406.6032   12.2500    0.3150   40.9527    5.5574    0.5188    3.6718   66.5353 -122.3750   35.6731   57.0000 
 406.7556   12.2500    0.3150   40.3860    5.5574    0.5190    3.6629   66.8854 -122.5625   35.4942   57.0000 
 406.9080   12.2500    0.3150   43.2578    5.5574    0.5964    3.6528  122.3739 -122.5000   37.8674   57.0000 
 407.0604   12.2500    0.3150   44.1380    5.5574    0.5694    3.6452  113.9654 -122.4375   36.8683   57.0000 
 407.2128   12.2500    0.2924   44.1684    5.5574    0.5447    3.6490  113.6689 -122.3750   36.2175   57.0000 
 407.3652   12.2500    0.3150   41.3618    5.5574    0.5240    3.6658  117.3000 -122.3750   35.9194   57.0000 
 407.5176   12.2500    0.3150   41.7715    5.5574    0.5018    3.6858  173.1642 -122.3750   35.5608   57.0000 
 407.6700   12.2500    0.3150   44.9935    5.5574    0.4746    3.6991  171.1241 -122.1875   34.8521   57.0000 
 407.8224   12.2500    0.3150   49.3531    5.5574    0.4425    3.7041  173.3818 -121.9375   33.8577   57.0000 
 407.9748   12.2500    0.3150   49.9167    5.5574    0.4395    3.7086  171.4097 -121.8750   33.8609   57.0000 
 408.1272   12.2500    0.3037   45.0615    5.5574    0.4629    3.7145  144.4179 -121.8750   34.7616   57.0000 
 408.2796   12.2500    0.3150   43.2287    5.5574    0.4747    3.7193  149.5412 -121.6875   35.2245   57.0000 
 408.4320   12.2500    0.3150   48.5474    5.5574    0.5572    3.7199  151.8881 -121.4375   37.9617   57.0000 
 408.5844   12.2500    0.3150   53.5794    5.5574    0.5429    3.7154  151.0637 -121.1875   37.3713   57.0000 
 408.7368   12.2500    0.2924   54.6731    5.5574    0.5416    3.7143  151.3983 -121.3750   37.3330   57.0000 
 408.8892   12.2500    0.3150   50.6037    5.5574    0.4797    3.7152  150.7187 -121.1250   35.3017   57.0000 
 409.0416   12.2500    0.3150   48.9794    5.5574    0.4918    3.7191  148.9575 -121.1250   35.8034   57.0000 
 409.1940   12.2500    0.3037   48.4529    5.5574    0.5229    3.7168  149.2774 -120.8125   36.7727   57.0000 
 409.3464   12.2500    0.3037   51.8584    5.5574    0.5318    3.7143  150.3854 -120.5000   36.9789   57.0000 
 409.4988   12.2500    0.3150   52.2906    5.5574    0.5231    3.7094  149.2993 -120.8125   36.5960   57.0000 
 409.6512   12.2500    0.3037   52.8329    5.5574    0.4994    3.7095  148.0816 -120.7500   35.8421   57.0000 
 409.8036   12.2500    0.2924   47.1626    5.5574    0.4545    3.7146  146.6678 -120.6875   34.5163   57.0000 
 409.9560   12.2500    0.3150   46.9386    5.5574    0.4313    3.7286  158.3436 -120.7500   34.0619   57.0000 
 410.1084   12.2500    0.3150   45.8289    5.5574    0.4092    3.7446  159.9873 -120.4375   33.6323   57.0000 
 410.2608   12.2500    0.2924   46.4660    5.5574    0.4479    3.7580  163.3844 -120.1875   35.1614   57.0000 
 410.4132   12.2500    0.3150   44.4530    5.5574    0.4446    3.7688  163.4319 -120.0625   35.2711   57.0000 
 410.5656   12.2500    0.3150   48.5988    5.5574    0.4550    3.7838  167.5149 -120.0625   35.9721   57.0000 
 410.7180   12.2500    0.3150   51.6434    5.5574    0.4754    3.8066  172.4442 -119.8750   37.1549   57.0000 
 410.8704   12.2500    0.3150   54.0179    5.5574    0.4942    3.8328  172.3104 -120.0625   38.2761   57.0000 
 411.0228   12.2500    0.3150   53.9822    5.5574    0.5255    3.8533  182.6774 -119.6875   39.6859   57.0000 
 411.1752   12.2500    0.3150   53.0782    5.5574    0.5246    3.8635  187.7658 -119.3125   39.7802   57.0000 
 411.3276   12.2500    0.3150   54.1593    5.5574    0.5439    3.8634  221.0459 -119.0000   40.3843   57.0000 
 411.4800   12.2500    0.3150   53.7531    5.5574    0.5262    3.8551  219.6973 -118.8125   39.5515   57.0000 
 411.6324   12.2500    0.3150   56.6788    5.5574    0.5282    3.8402  223.2569 -118.3750   39.3122   57.0000 
 411.7848   12.2500    0.3150   59.3598    5.5574    0.5601    3.8275  229.6639 -118.3125   40.1635   57.0000 
 411.9372   12.2500    0.3150   61.0225    5.5574    0.5818    3.8245  223.7136 -118.0625   40.9106   57.0000 
 412.0896   12.2500    0.3150   58.9710    5.5574    0.5605    3.8333  221.8510 -117.8125   40.4373   57.0000 
 412.2420   12.2500    0.3037   56.9343    5.5574    0.6253    3.8489  225.5116 -117.6875   42.9438   57.0000 
 412.3944   12.2500    0.3150   58.7241    5.5574    0.5739    3.8612  217.2375 -117.3125   41.4107   57.0000 
 412.5468   12.2500    0.3037   57.8499    5.5574    0.5939    3.8731  213.5911 -117.4375   42.3381   57.0000 
 412.6992   12.2500    0.3150   56.9988    5.5574    0.5355    3.8822  210.0159 -117.5625   40.5665   57.0000 
 412.8516   12.2500    0.2924   54.3951    5.5574    0.5897    3.8996  139.7093 -117.4375   42.8981   57.0000 
 413.0040   12.2500    0.3037   58.1917    5.5574    0.5387    3.9941  142.3193 -117.3750   44.1229   57.0000 
 413.1564   12.2500    0.3150   55.7583    5.5574    0.4151    4.2213  141.4610 -116.9375   44.8562   57.0000 
 413.3088   12.2500    0.2924   47.7956    5.5574    0.3862    4.4574  135.5222 -118.0000   48.4646   57.0000 
 413.4612   12.2500    0.3150   38.9370    5.5574    0.4383    4.6111  130.4157 -121.0000   52.1868   57.0000 
 413.6136   12.2500    0.3037   44.2173    5.5574    0.5041    4.5492  127.2452 -123.6250   51.5984   57.0000 
 413.7660   12.2500    0.3037   49.5034    5.5574    0.4483    4.3230  126.2673 -124.1875   44.6441   57.0000 
 413.9184   12.2500    0.2924   56.9479    5.5574    0.3983    4.0606  128.0984 -123.9375   37.7324   57.0000 
 414.0708   12.2500    0.3150   59.5155    5.5574    0.3920    3.8729   55.9243 -123.6250   34.8951   57.0000 
 414.2232   12.2500    0.3150   60.5645    5.5574    0.4039    3.8205   56.9915 -123.3125   34.7256   57.0000 
 414.3756   12.2500    0.3150   54.5919    5.5574    0.4095    3.7924   58.5268 -123.0000   34.2851   57.0000 
 414.5280   12.2500    0.3150   43.2411    5.5574    0.3672    3.7653   55.6055 -122.8125   32.4168   57.0000 
 414.6804   12.2500    0.3150   36.9119    5.5574    0.3501    3.7553   60.4838 -122.7500   31.7807   57.0000 
 414.8328   12.2500    0.2924   34.5359    5.5574    0.3335    3.7545   57.4506 -122.6250   31.2671   57.0000 
 414.9852   12.2500    0.3037   34.4053    5.5574    0.3767    3.7557   55.4773 -122.5625   32.6704   57.0000 
 415.1376   12.2500    0.3150   36.5461    5.5574    0.4190    3.7511   61.0992 -122.4375   33.9321   57.0000 
 415.2900   12.2500    0.2924   38.5132    5.5574    0.4192    3.7484   61.8101 -122.3750   33.8893   57.0000 
 415.4424   12.2500    0.3037   40.7513    5.5574    0.4223    3.7470   61.5936 -122.1875   33.9986   57.0000 
 415.5948   12.2500    0.3150   38.2252    5.5574    0.3981    3.7444   61.4120 -122.1875   33.1337   57.0000 
 415.7472   12.2500    0.2924   36.2399    5.5574    0.3827    3.7391   61.3151 -122.1875   32.4881   57.0000 
 415.8996   12.2500    0.2924   31.7821    5.5574    0.3568    3.7312   61.3295 -122.5000   31.4585   57.0000 
 416.0520   12.2500    0.2924   29.9334    5.5574    0.3574    3.7225   61.3770 -122.6250   31.3087   57.0000 
