~VERSION INFORMATION
 VERS.                 2.0:   CWLS LOG ASCII STANDARD - VERSION 2.0
 WRAP.                  NO:   SINGLE LINE PER DEPTH STEP
 CREA.                 28/08/2020 11:52:07
#CREATED USING IP VERSION 4.5.2019.2902 BY CANDIDO ON 28/08/2020 11:52:07
~WELL INFORMATION
#MNEM.UNIT       DATA                          DESCRIPTION MNEMONIC
#---------      ---------------------------   --------------------------
 STRT    .M         639.0000                  : START DEPTH
 STOP    .M         3007.1000                 : STOP DEPTH
 STEP    .M         0.1000                    : STEP VALUE
 NULL    .      -999.0000                     : NULL VALUE
 DATE    .      28/08/2020                    : LAS file Creation Date
 WELL   .      7-MP-55D-BA     : Well Name
 COMP   .      PETROBRAS       : Company
 FLD    .      MASSAPE         : Field
 STATE  .      BAHIA           : State
 COUNT  .      -999.25         : Country
 API    .      20240028408     : API Number
 UWI    .                      : Unique Well Identifier (UWI)
 LOC    .      -999.25         : Location
 TOWN   .      -999.25         : Township
 SCT    .      -999.25         : Section
 RANG   .      -999.25         : Range
 PDAT   .      NM              : Permanent Datum
 EPDAT  .      0.00            : Elevation of Permanent Datum
 LGMEA  .      MR              : Log Measured from
 DRMEA  .      MR              : Drill Measured From
 APDAT  .      65.67           : Elevation Above Permanent Datum
 KB     .      65.97           : KB Elevation
 DF     .      65.67           : DF Elevation
 GL     .      56.27           : GL Elevation
 RWS    .      -999            : Def_Rw
 WST    .      -999            : Def_Rwt
 PROV   .                      : Province
 SRVC   .                      : Contractor
 GDAT   .      WGS 84          : Geodatum
 LONG   .      -38.435231944455: Longitude
 LATI   .      0               : Latitude
 COORDIN.                      : Grid System
 XCOORD .                      : X or East-West Coordinate
 YCOORD .                      : Y or North-South Coordinate
~CURVE INFORMATION
#MNEM                UNIT       API CODE   Curve Type Comments
#----------    --------------- ----------  ---------- -----------
 DEPTH        .M                         : Depth       
 TVD          .M                         : Depth       
 TVDSS        .M                         : Depth       
 GR           .api                       : GammaRay    
 CAL          .in                        : Caliper     
 BS           .in                        : BitSize     
 Lith_new     .                          :             
 RT           .ohmm                      : DeepRes     
 NPHI         .decp                      : Neutron     
 RHOB         .g/cc                      : Density     
 Res          .                          :             
 N_Res        .                          :             
 VCLGR        .Dec                       : Vcl         
 Phi_Gaymard  .                          :             
 Phie_Gaymard .                          :             
 SwArch       .Dec                       :             
 SwSim        .Dec                       :             
~A  DEPTH    TVD      TVDSS       GR       CAL        BS     Lith_new     RT       NPHI      RHOB      Res      N_Res     VCLGR   Phi_Gaym~ Phie_Gay~   SwArch    SwSim   
# ...
 667.2000  667.1793 -601.5093  100.1958   12.4643   12.2500 -999.0000 -999.0000 -999.0000    2.4203 -999.0000 -999.0000    0.0000 -999.0000 -999.0000 -999.0000 -999.0000 
 667.3000  667.2792 -601.6092  100.6952   12.4355   12.2500 -999.0000 -999.0000 -999.0000    2.4682 -999.0000 -999.0000    0.0000 -999.0000 -999.0000 -999.0000 -999.0000 
 667.4000  667.3792 -601.7092  100.8501   12.4022   12.2500 -999.0000 -999.0000 -999.0000    2.5232 -999.0000 -999.0000    0.0000 -999.0000 -999.0000 -999.0000 -999.0000 
 667.5000  667.4792 -601.8092  100.0236   12.4061   12.2500 -999.0000 -999.0000 -999.0000    2.5370 -999.0000 -999.0000    0.0000 -999.0000 -999.0000 -999.0000 -999.0000 
 667.6000  667.5792 -601.9092   98.8097   12.4067   12.2500   57.0000 -999.0000    0.3353    2.5451 -999.0000 -999.0000    0.0000 -999.0000 -999.0000 -999.0000 -999.0000 
 667.7000  667.6792 -602.0092   97.0104   12.4253   12.2500   57.0000 -999.0000    0.3391    2.5449 -999.0000 -999.0000    0.0000 -999.0000 -999.0000 -999.0000 -999.0000 
 667.8000  667.7792 -602.1092   99.9031   12.4643   12.2500   57.0000 -999.0000    0.3605    2.5284 -999.0000 -999.0000    0.0000 -999.0000 -999.0000 -999.0000 -999.0000 
 667.9000  667.8792 -602.2092  102.2965   12.4604   12.2500   57.0000 -999.0000    0.3794    2.5215 -999.0000 -999.0000    0.0000 -999.0000 -999.0000 -999.0000 -999.0000 
 668.0000  667.9792 -602.3092  102.9250   12.5007   12.2500   57.0000    4.2807    0.3807    2.5169 -999.0000 -999.0000    0.0000 -999.0000 -999.0000 -999.0000 -999.0000 
 668.1000  668.0791 -602.4091   97.5011   12.5167   12.2500   57.0000    4.4415    0.3493    2.5139 -999.0000 -999.0000    0.0000 -999.0000 -999.0000 -999.0000 -999.0000 
 668.2000  668.1791 -602.5091   93.3600   12.5372   12.2500   57.0000    4.3484    0.3394    2.5144 -999.0000 -999.0000    0.0000 -999.0000 -999.0000 -999.0000 -999.0000 
 668.3000  668.2791 -602.6091   89.7010   12.5398   12.2500   57.0000    4.5104    0.3351    2.5126 -999.0000 -999.0000    0.0000 -999.0000 -999.0000 -999.0000 -999.0000 
 668.4000  668.3791 -602.7091   78.5519   12.5135   12.2500   57.0000    4.5617    0.3314    2.4962 -999.0000 -999.0000    0.0000 -999.0000 -999.0000 -999.0000 -999.0000 
 668.5000  668.4791 -602.8091   71.4405   12.5020   12.2500   57.0000    4.6332    0.3084    2.4807 -999.0000 -999.0000    0.0000 -999.0000 -999.0000 -999.0000 -999.0000 
 668.6000  668.5791 -602.9091   64.9663   12.4995   12.2500   57.0000    4.8061    0.2684    2.4651 -999.0000 -999.0000    0.0000 -999.0000 -999.0000 -999.0000 -999.0000 
 668.7000  668.6791 -603.0091   57.4417   12.4688   12.2500   57.0000    5.5217    0.2352    2.4413 -999.0000 -999.0000    0.0000 -999.0000 -999.0000 -999.0000 -999.0000 
 668.8000  668.7791 -603.1091   56.7874   12.4700   12.2500   57.0000    6.0460    0.2243    2.4405 -999.0000 -999.0000    0.0000 -999.0000 -999.0000 -999.0000 -999.0000 
 668.9000  668.8790 -603.2090   57.0457   12.4585   12.2500   57.0000    6.6510    0.2362    2.4483 -999.0000 -999.0000    0.0000 -999.0000 -999.0000 -999.0000 -999.0000 
 669.0000  668.9790 -603.3090   58.9742   12.4707   12.2500   57.0000    8.4873    0.2398    2.4750 -999.0000 -999.0000    0.0000 -999.0000 -999.0000 -999.0000 -999.0000 
 669.1000  669.0790 -603.4090   57.9238   12.4777   12.2500   57.0000    9.7193    0.2323    2.4874 -999.0000 -999.0000    0.0000 -999.0000 -999.0000 -999.0000 -999.0000 
 669.2000  669.1790 -603.5090   56.8735   12.4688   12.2500   57.0000   10.9657    0.2344    2.4949 -999.0000 -999.0000    0.0000 -999.0000 -999.0000 -999.0000 -999.0000 
 669.3000  669.2790 -603.6090   57.7172   12.4617   12.2500   57.0000   15.7837    0.2489    2.4973 -999.0000 -999.0000    0.0000 -999.0000 -999.0000 -999.0000 -999.0000 
 669.4000  669.3790 -603.7090   64.7252   12.4508   12.2500   57.0000   27.9389    0.2514    2.4922 -999.0000 -999.0000    0.0000 -999.0000 -999.0000 -999.0000 -999.0000 
 669.5000  669.4790 -603.8090   65.9219   12.4534   12.2500   57.0000   38.8120    0.2510    2.4844 -999.0000 -999.0000    0.0000 -999.0000 -999.0000 -999.0000 -999.0000 
 669.6000  669.5790 -603.9090   62.6848   12.4662   12.2500   57.0000   60.2344    0.2497    2.4735 -999.0000 -999.0000    0.0000 -999.0000 -999.0000 -999.0000 -999.0000 
 669.7000  669.6789 -604.0089   49.6244   12.4656   12.2500   57.0000  151.4510    0.2592    2.4464 -999.0000 -999.0000    0.0000 -999.0000 -999.0000 -999.0000 -999.0000 
 669.8000  669.7789 -604.1089   45.9052   12.4528   12.2500   57.0000  182.7696    0.2570    2.4311 -999.0000 -999.0000    0.0000 -999.0000 -999.0000 -999.0000 -999.0000 
 669.9000  669.8789 -604.2089   43.7270   12.4707   12.2500   57.0000  148.2442    0.2602    2.4175 -999.0000 -999.0000    0.0000 -999.0000 -999.0000 -999.0000 -999.0000 
 670.0000  669.9789 -604.3089   40.7567   12.5174   12.2500   57.0000   59.9191    0.2591    2.3986 -999.0000 -999.0000    0.0000 -999.0000 -999.0000 -999.0000 -999.0000 
 670.1000  670.0789 -604.4089   39.8700   12.5308   12.2500   57.0000   39.2089    0.2607    2.3923 -999.0000 -999.0000    0.0000 -999.0000 -999.0000 -999.0000 -999.0000 
 670.2000  670.1789 -604.5089   40.1541   12.5462   12.2500   57.0000   34.5237    0.2655    2.3853 -999.0000 -999.0000    0.0000 -999.0000 -999.0000 -999.0000 -999.0000 
 670.3000  670.2789 -604.6089   42.5131   12.5654   12.2500   57.0000   15.5264    0.2785    2.3639 -999.0000 -999.0000    0.0000 -999.0000 -999.0000 -999.0000 -999.0000 
 670.4000  670.3789 -604.7089   45.0959   12.5884   12.2500   57.0000   11.8317    0.2780    2.3556 -999.0000 -999.0000    0.0000 -999.0000 -999.0000 -999.0000 -999.0000 
 670.5000  670.4788 -604.8088   49.6674   12.5910   12.2500   57.0000   10.0470    0.2831    2.3501 -999.0000 -999.0000    0.0000 -999.0000 -999.0000 -999.0000 -999.0000 
 670.6000  670.5788 -604.9088   60.0417   12.5916   12.2500   57.0000    8.1288    0.2881    2.3669 -999.0000 -999.0000    0.0000 -999.0000 -999.0000 -999.0000 -999.0000 
 670.7000  670.6788 -605.0088   64.3120   12.5660   12.2500   57.0000    7.6422    0.2798    2.3864 -999.0000 -999.0000    0.0000 -999.0000 -999.0000 -999.0000 -999.0000 
 670.8000  670.7788 -605.1088   66.3007   12.5251   12.2500   57.0000    7.2789    0.2820    2.4068 -999.0000 -999.0000    0.0000 -999.0000 -999.0000 -999.0000 -999.0000 
 670.9000  670.8788 -605.2088   67.0239   12.4963   12.2500   57.0000    7.0949    0.2778    2.4290 -999.0000 -999.0000    0.0000 -999.0000 -999.0000 -999.0000 -999.0000 
 671.0000  670.9788 -605.3088   67.8246   12.3849   12.2500   57.0000    7.0899    0.2988    2.4513 -999.0000 -999.0000    0.0000 -999.0000 -999.0000 -999.0000 -999.0000 
 671.1000  671.0788 -605.4088   68.0398   12.2768   12.2500   57.0000    7.2895    0.2997    2.4542 -999.0000 -999.0000    0.0000 -999.0000 -999.0000 -999.0000 -999.0000 
 671.2000  671.1788 -605.5088   67.1186   12.1693   12.2500   57.0000    7.5308    0.2857    2.4521 -999.0000 -999.0000    0.0000 -999.0000 -999.0000 -999.0000 -999.0000 
 671.3000  671.2787 -605.6087   60.9371   12.0158   12.2500   57.0000    7.9552    0.2799    2.4334 -999.0000 -999.0000    0.0000 -999.0000 -999.0000 -999.0000 -999.0000 
 671.4000  671.3787 -605.7087   57.4847   12.0171   12.2500   57.0000    8.1351    0.2910    2.4225 -999.0000 -999.0000    0.0000 -999.0000 -999.0000 -999.0000 -999.0000 
 671.5000  671.4787 -605.8087   55.1860   12.0164   12.2500   57.0000    8.2576    0.2982    2.4096 -999.0000 -999.0000    0.0000 -999.0000 -999.0000 -999.0000 -999.0000 
 671.6000  671.5787 -605.9087   53.9635   12.0363   12.2500   57.0000    8.5640    0.2990    2.3862 -999.0000 -999.0000    0.0000 -999.0000 -999.0000 -999.0000 -999.0000 
 671.7000  671.6787 -606.0087   52.9476   12.0235   12.2500   57.0000    8.8032    0.2936    2.3754 -999.0000 -999.0000    0.0000 -999.0000 -999.0000 -999.0000 -999.0000 
 671.8000  671.7787 -606.1087   52.6463   12.0190   12.2500   57.0000    9.0595    0.2845    2.3668 -999.0000 -999.0000    0.0000 -999.0000 -999.0000 -999.0000 -999.0000 
