~VERSION INFORMATION
 VERS.                 2.0:   CWLS LOG ASCII STANDARD - VERSION 2.0
 WRAP.                  NO:   SINGLE LINE PER DEPTH STEP
 CREA.                 30/01/2020 17:31:38
#CREATED USING IP VERSION 4.5.2019.2902 BY RMOTA ON 30/01/2020 17:31:38
~WELL INFORMATION
#MNEM.UNIT       DATA                          DESCRIPTION MNEMONIC
#---------      ---------------------------   --------------------------
 STRT    .M         5.9400                    : START DEPTH
 STOP    .M         3362.3976                 : STOP DEPTH
 STEP    .M         0.1524                    : STEP VALUE
 NULL    .      -999.0000                     : NULL VALUE
 DATE    .      30/01/2020                    : LAS file Creation Date
 WELL   .      7-MP-31D-BA        : Well Name
 COMP   .      PETROBRAS          : Company
 FLD    .      MASSAPE            : Field
 STATE  .      BAHIA              : State
 COUNT  .      BRASIL             : Country
 API    .      20240021426        : API Number
 UWI    .                         : Unique Well Identifier (UWI)
 LOC    .      N= 8.608.492,720 m : Location
 TOWN   .      CATU               : Township
 SCT    .      OH WIRELINE        : Section
 RANG   .      SCHLUMBERGER       : Range
 PDAT   .      NM                 : Permanent Datum
 EPDAT  .      0                  : Elevation of Permanent Datum
 LGMEA  .      MR                 : Log Measured from
 DRMEA  .      MR                 : Drill Measured From
 APDAT  .      66.4               : Elevation Above Permanent Datum
 KB     .      66.7               : KB Elevation
 DF     .      66.4               : DF Elevation
 GL     .      57                 : GL Elevation
 RWS    .      -999               : Def_Rw
 WST    .      -999               : Def_Rwt
 BHS    .      OPEN               : Completion Status
 PROV   .                         : Province
 SRVC   .                         : Contractor
 GDAT   .      WGS 84             : Geodatum
 LONG   .      -38.4314536115858  : Longitude
 LATI   .      -12.5867413889037  : Latitude
 COORDIN.                         : Grid System
 XCOORD .                         : X or East-West Coordinate
 YCOORD .                         : Y or North-South Coordinate
~CURVE INFORMATION
#MNEM              UNIT       API CODE   Curve Type Comments
#----------  --------------- ----------  ---------- -----------
 DEPTH      .M                         : Depth       
 CALI       .inch                      : Caliper     
 BS         .in                        : BitSize     
 GR         .gAPI                      : GammaRay    
 RT         .ohm.m                     : DeepRes     
 NPHI       .m3/m3                     : Neutron     
 RHOB       .g/cm3                     :             
 DT         .us/ft                     : Sonic       
 SP         .mV                        : SP          
 N_Res      .                          :             
 Res        .                          :             
 DRDN       .                          :             
 Lith_new   .                          :             
 DEPTH      .M                         : Depth       
~A  DEPTH    CALI       BS        GR        RT       NPHI      RHOB       DT        SP      N_Res      Res       DRDN    Lith_new   DEPTH   
# ...
3141.8748    8.7466    8.5000   88.8924    9.2966    0.1782    2.6293  117.3510  668.5758    1.0000    0.0000    3.4803   57.0000 3141.8748 
3142.0272    8.7017    8.5000   80.5251   13.5532    0.1527    2.6278  114.9288  668.0743    1.0000    0.0000    2.6622   57.0000 3142.0272 
3142.1796    8.6782    8.5000   71.5019   15.4478    0.1296    2.6250  112.1528  668.3066    1.0000    0.0000    1.7678   57.0000 3142.1796 
3142.3320    8.6328    8.5000   64.1018   14.4852    0.1107    2.6219  111.0922  669.8381    1.0000    0.0000    1.1492   57.0000 3142.3320 
3142.4844    8.6541    8.5000   69.1133   12.7831    0.1173    2.6265  110.8450  669.9971    1.0000    0.0000    1.4656   57.0000 3142.4844 
3142.6368    8.5874    8.5000   76.7493   12.0608    0.1303    2.6331  111.2158  670.4272    1.0000    0.0000    2.0783   57.0000 3142.6368 
3142.7892    8.6306    8.5000   80.9605   11.4270    0.1464    2.6391  109.2565  670.1934    1.0000    0.0000    2.6362   57.0000 3142.7892 
3142.9416    8.5980    8.5000   76.5547   11.4473    0.1531    2.6330  111.2740  670.0045    1.0000    0.0000    2.7410   57.0000 3142.9416 
3143.0940    8.6084    8.5000   70.0150   12.3633    0.1344    2.6309  114.4742  669.0236    1.0000    0.0000    2.0817   57.0000 3143.0940 
3143.2464    8.5302    8.5000   68.0213   13.6692    0.1101    2.6277  114.7635  668.6339    1.0000    0.0000    1.2136   57.0000 3143.2464 
3143.3988    8.7302    8.5000   73.0077   12.6330    0.0958    2.6336  114.8664  668.9911    1.0000    0.0000    0.9612   57.0000 3143.3988 
3143.5512    8.8024    8.5000   80.3281   10.6851    0.1003    2.6447  115.5543  668.6949    1.0000    0.0000    1.2752   57.0000 3143.5512 
3143.7036    8.7255    8.5000   84.4616   10.3625    0.1165    2.6495  118.7770  670.1520    1.0000    0.0000    1.9029   57.0000 3143.7036 
3143.8560    8.6339    8.5000   89.0492   10.9351    0.1223    2.6492  118.6800  669.8824    1.0000    0.0000    2.0189   57.0000 3143.8560 
3144.0084    8.7887    8.5000   86.4583   10.9337    0.1198    2.6464  118.7560  669.2648    1.0000    0.0000    1.9400   57.0000 3144.0084 
3144.1608    8.8598    8.5000   90.8922   10.5116    0.1281    2.6499  120.1951  669.6772    1.0000    0.0000    2.2821   57.0000 3144.1608 
3144.3132    8.9736    8.5000   86.1332   10.3009    0.1272    2.6515  120.3318  669.3824    1.0000    0.0000    2.2567   57.0000 3144.3132 
3144.4656    9.2680    8.5000   85.6555   10.1309    0.1205    2.6449  119.5991  669.6801    1.0000    0.0000    1.8499   57.0000 3144.4656 
3144.6180    9.3424    8.5000   81.2853   10.5024    0.1028    2.6405  119.4024  669.3824    1.0000    0.0000    1.2621   57.0000 3144.6180 
3144.7704    9.1757    8.5000   81.6482   10.8034    0.0991    2.6430  118.1067  670.1073    1.0000    0.0000    1.1728   57.0000 3144.7704 
3144.9228    9.0819    8.5000   83.7713   10.3827    0.1094    2.6464  117.5893  670.0029    1.0000    0.0000    1.6227   57.0000 3144.9228 
3145.0752    9.1246    8.5000   87.7752   10.3597    0.1180    2.6506  115.7260  670.1830    1.0000    0.0000    1.9415   57.0000 3145.0752 
3145.2276    9.0023    8.5000   92.1973   11.0460    0.1271    2.6498  114.2693  670.0045    1.0000    0.0000    2.2304   57.0000 3145.2276 
3145.3800    8.9769    8.5000   96.6140   11.6950    0.1241    2.6458  114.2544  670.0610    1.0000    0.0000    1.9896   57.0000 3145.3800 
3145.5324    8.9315    8.5000   95.2810   12.3753    0.1222    2.6344  114.4615  670.7338    1.0000    0.0000    1.6651   57.0000 3145.5324 
3145.6848    8.8631    8.5000   89.2973   12.6527    0.1195    2.6222  115.1322  670.7500    1.0000    0.0000    1.3781   57.0000 3145.6848 
3145.8372    8.8390    8.5000   85.0210   12.2568    0.1336    2.6205  116.7571  671.0551    1.0000    0.0000    1.8794   57.0000 3145.8372 
3145.9896    8.7936    8.5000   85.6316   11.1665    0.1654    2.6242  117.7933  671.0625    1.0000    0.0000    3.0340   57.0000 3145.9896 
3146.1420    8.7701    8.5000   88.6164   12.3386    0.1814    2.6264  118.1075  671.0015    1.0000    0.0000    3.5722   57.0000 3146.1420 
3146.2944    8.7247    8.5000   85.4969   19.4995    0.1553    2.6283  117.7065  670.5118    1.0000    0.0000    2.7620   57.0000 3146.2944 
3146.4468    8.7460    8.5000   76.2968   31.9165    0.1092    2.6272  113.8371  671.3543    1.0000    0.0000    1.1482   57.0000 3146.4468 
3146.5992    8.7690    8.5000   60.8041   31.0152    0.0847    2.6249  111.5312  672.3514    1.0000    0.0000    0.3222   57.0000 3146.5992 
3146.7516    8.7696    8.5000   52.8759   18.4425    0.1116    2.6167  112.7509  672.4971    1.0000    0.0000    0.9471   57.0000 3146.7516 
3146.9040    8.6574    8.5000   55.4952    9.8235    0.1833    2.6084  132.5214  673.5984    1.0000    0.0000    3.2790   57.0000 3146.9040 
3147.0564    8.6771    8.5000   79.7652    7.7939    0.2540    2.5997  138.9412  673.7471    1.0000    0.0000    5.3274   57.0000 3147.0564 
3147.2088    8.7898    8.5000  104.5761    8.6987    0.3122    2.5834  146.3056  673.8110    1.0000    0.0000    7.0048   57.0000 3147.2088 
3147.3612    8.9945    8.5000  121.0135    8.8913    0.3033    2.5727  149.2618  673.9346    1.0000    0.0000    6.4877   57.0000 3147.3612 
3147.5136    9.0442    8.5000  126.2642    7.9891    0.3197    2.5594  153.0790  674.1205    1.0000    0.0000    6.7533   57.0000 3147.5136 
3147.6660    8.7312    8.5000  128.7177    7.2292    0.3180    2.5497  153.1537  673.5148    1.0000    0.0000    6.5809   57.0000 3147.6660 
3147.8184    8.5441    8.5000  125.9581    6.8169    0.3354    2.5504  153.0506  673.0728    1.0000    0.0000    7.2332   57.0000 3147.8184 
3147.9708    8.6744    8.5000  120.9594    6.9865    0.3096    2.5755  149.3664  672.8184    1.0000    0.0000    7.1085   57.0000 3147.9708 
3148.1232    8.7786    8.5000  117.6060    7.8687    0.2908    2.6133  146.5984  672.7515    1.0000    0.0000    7.1538   57.0000 3148.1232 
3148.2756    8.8147    8.5000  122.2070    9.0260    0.2804    2.6343  145.7776  672.7500    1.0000    0.0000    7.1097   57.0000 3148.2756 
3148.4280    8.8604    8.5000  113.4593    9.6486    0.2864    2.6395  141.1007  671.9567    1.0000    0.0000    7.3391   57.0000 3148.4280 
3148.5804    8.9288    8.5000   99.8163   10.1933    0.2566    2.6402  132.8210  672.0596    1.0000    0.0000    6.3727   57.0000 3148.5804 
3148.7328    8.8631    8.5000   92.4726   12.6703    0.2388    2.6473  130.0768  671.0251    1.0000    0.0000    5.9507   57.0000 3148.7328 
3148.8852    8.9288    8.5000   92.1171   16.7521    0.2144    2.6448  125.2684  672.4036    1.0000    0.0000    4.9800   57.0000 3148.8852 
3149.0376    8.8631    8.5000   88.8731   28.9895    0.2136    2.6421  123.0224  672.6205    1.0000    0.0000    4.9794   57.0000 3149.0376 
3149.1900    8.8278    8.5000   78.8964   25.3721    0.1836    2.6378  119.2012  673.7844    1.0000    0.0000    3.8102   57.0000 3149.1900 
3149.3424    8.8382    8.5000   75.2432   22.5192    0.1244    2.6312  119.2581  674.6058    1.0000    0.0000    1.7299   57.0000 3149.3424 
3149.4948    8.7824    8.5000   73.7599   24.4227    0.0823    2.6225  120.4449  675.8455    1.0000    0.0000    0.1531   54.0000 3149.4948 
3149.6472    8.7474    8.5000   82.6329   19.1771    0.0812    2.6279  120.4787  675.6309    1.0000    0.0000    0.3747   57.0000 3149.6472 
3149.7996    8.7466    8.5000   87.3901   13.1940    0.1455    2.6469  121.7909  675.2589    1.0000    0.0000    2.9481   57.0000 3149.7996 
3149.9520    8.7802    8.5000  100.7178    9.7127    0.2108    2.6668  121.9959  675.9213    1.0000    0.0000    5.4282   57.0000 3149.9520 
3150.1044    8.7474    8.5000   99.5093    9.1449    0.2224    2.6726  126.7685  676.5477    1.0000    0.0000    5.9071   57.0000 3150.1044 
3150.2568    8.7915    8.5000   99.8323   10.4311    0.2126    2.6772  128.4510  677.9661    1.0000    0.0000    5.6286   57.0000 3150.2568 
3150.4092    8.7252    8.5000  103.2547   10.2868    0.2084    2.6761  126.3705  679.4036    1.0000    0.0000    5.4838   57.0000 3150.4092 
