~VERSION INFORMATION
 VERS.                 2.0:   CWLS LOG ASCII STANDARD - VERSION 2.0
 WRAP.                  NO:   SINGLE LINE PER DEPTH STEP
 CREA.                 06/02/2020 16:08:49
#CREATED USING IP VERSION 4.5.2019.2902 BY RMOTA ON 06/02/2020 16:08:49
~WELL INFORMATION
#MNEM.UNIT       DATA                          DESCRIPTION MNEMONIC
#---------      ---------------------------   --------------------------
 STRT    .M         -0.4572                   : START DEPTH
 STOP    .M         3564.6360                 : STOP DEPTH
 STEP    .M         0.1524                    : STEP VALUE
 NULL    .      -999.0000                     : NULL VALUE
 DATE    .      06/02/2020                    : LAS file Creation Date
 WELL   .      7-MP-28D-BA        : Well Name
 COMP   .      PETROBRAS          : Company
 FLD    .      MASSAPE            : Field
 STATE  .      BAHIA              : State
 COUNT  .      BRASIL             : Country
 API    .      20240021354        : API Number
 UWI    .                         : Unique Well Identifier (UWI)
 LOC    .      N= 8.609.866,070 m : Location
 TOWN   .      CATU               : Township
 SCT    .      OH WIRELINE        : Section
 RANG   .      SCHLUMBERGER       : Range
 PDAT   .      NM                 : Permanent Datum
 EPDAT  .      0                  : Elevation of Permanent Datum
 LGMEA  .      MR                 : Log Measured from
 DRMEA  .      MR                 : Drill Measured From
 APDAT  .      105.72             : Elevation Above Permanent Datum
 KB     .      106.02             : KB Elevation
 DF     .      105.72             : DF Elevation
 GL     .      96.31999           : GL Elevation
 RWS    .      -999               : Def_Rw
 WST    .      -999               : Def_Rwt
 BHS    .      OPEN               : Completion Status
 PROV   .                         : Province
 SRVC   .                         : Contractor
 GDAT   .      WGS 84             : Geodatum
 LONG   .      -38.4270011107127  : Longitude
 LATI   .      -12.5743130556742  : Latitude
 COORDIN.                         : Grid System
 XCOORD .                         : X or East-West Coordinate
 YCOORD .                         : Y or North-South Coordinate
~CURVE INFORMATION
#MNEM              UNIT       API CODE   Curve Type Comments
#----------  --------------- ----------  ---------- -----------
 DEPTH      .M                         : Depth       
 BS         .in                        : BitSize     
 GR         .gAPI                      : GammaRay    
 CAL        .in                        : Caliper     
 RT         .ohm.m                     : DeepRes     
 NPHI       .m3/m3                     : Neutron     
 RHOB       .g/cm3                     :             
 DT         .us/ft                     : Sonic       
 SP         .mV                        : SP          Loaded from DLIS: 7-mp-28d-ba_raw-2p.dlis
 DRDN       .                          :             
 Lith_new   .                          :             
~A  DEPTH     BS        GR       CAL        RT       NPHI      RHOB       DT        SP       DRDN    Lith_new 
# ...
2903.2200    8.5000   70.8916    8.2977   13.9459    0.1145    2.5510   70.9417 -999.0000   -0.1718   54.0000 
2903.3724    8.5000   69.2329    8.2750   14.1841    0.1144    2.5533   71.3210 -999.0000   -0.0755   54.0000 
2903.5248    8.5000   64.7869    8.2523   14.4529    0.1127    2.5596   71.1770 -999.0000   -0.0249   54.0000 
2903.6772    8.5000   66.4459    8.2750   14.4621    0.1191    2.5655   71.5111 -999.0000    0.3571   57.0000 
2903.8296    8.5000   67.4545    8.2977   14.2121    0.1346    2.5772   70.4932 -999.0000    1.0858   57.0000 
2903.9820    8.5000   74.4775    8.2750   13.8546    0.1378    2.5836   69.7026 -999.0000    1.3129   57.0000 
2904.1344    8.5000   80.7423    8.2750   13.6713    0.1379    2.5881   68.9332 -999.0000    1.3431   57.0000 
2904.2868    8.5000   81.9986    8.2977   13.9050    0.1324    2.5869   68.6992 -999.0000    1.1746   57.0000 
2904.4392    8.5000   78.5695    8.2750   13.9787    0.1294    2.5892   69.6321 -999.0000    1.0918   57.0000 
2904.5916    8.5000   71.0491    8.2864   14.6756    0.1327    2.5866   70.6888 -999.0000    1.1206   57.0000 
2904.7440    8.5000   70.8470    8.2864   15.0676    0.1330    2.5759   71.2360 -999.0000    0.8311   57.0000 
2904.8964    8.5000   69.0720    8.2636   16.1440    0.1334    2.5546   71.5473 -999.0000    0.3683   57.0000 
2905.0488    8.5000   66.0463    8.2523   17.0361    0.1150    2.5265   70.1655 -999.0000   -0.8289   25.0000 
2905.2012    8.5000   61.7646    8.2977   18.8382    0.1081    2.5062   68.2793 -999.0000   -1.3297   49.0000 
2905.3536    8.5000   62.7751    8.3091   18.8329    0.1093    2.5034   68.0617 -999.0000   -1.2613   49.0000 
2905.5060    8.5000   63.2167    8.3204   18.7753    0.1115    2.5150   67.3455 -999.0000   -0.8625   25.0000 
2905.6584    8.5000   66.8475    8.3204   18.5939    0.1033    2.5285   68.0912 -999.0000   -0.9373   25.0000 
2905.8108    8.5000   67.4103    8.3432   17.1245    0.1076    2.5367   71.3802 -999.0000   -0.6086   25.0000 
2905.9632    8.5000   70.6438    8.3318   15.1788    0.1139    2.5513   70.3685 -999.0000   -0.0432   54.0000 
2906.1156    8.5000   67.6570    8.3204   15.3056    0.1184    2.5688   71.0927 -999.0000    0.3774   57.0000 
2906.2680    8.5000   67.2536    8.2864   17.2066    0.1116    2.5667   73.4053 -999.0000   -0.0198   54.0000 
2906.4204    8.5000   60.9563    8.3432   18.6030    0.1183    2.5465   73.2626 -999.0000   -0.3457   25.0000 
2906.5728    8.5000   55.0956    8.2977   17.6459    0.1255    2.5116   74.8478 -999.0000   -0.7797   25.0000 
2906.7252    8.5000   52.1069    8.2864   17.1228    0.1305    2.4972   73.6260 -999.0000   -0.7030   25.0000 
2906.8776    8.5000   53.7207    8.2296   16.1198    0.1262    2.5046   70.4564 -999.0000   -0.5738   25.0000 
2907.0300    8.5000   62.5681    8.2523   14.2665    0.1212    2.5412   67.8022 -999.0000    0.2259   54.0000 
2907.1824    8.5000   74.2894    8.3091   13.2696    0.1084    2.5959   66.8801 -999.0000    0.8744   57.0000 
2907.3348    8.5000   88.6733    8.2977   13.6739    0.1142    2.6354   65.5595 -999.0000    1.6557   57.0000 
2907.4872    8.5000   91.6990    8.2182   14.9556    0.1251    2.6356   64.3133 -999.0000    1.6972   57.0000 
2907.6396    8.5000   83.3699    8.2750   17.4105    0.1241    2.5927   65.0773 -999.0000    0.6282   57.0000 
2907.7920    8.5000   72.0528    8.2296   20.8330    0.0997    2.5445   64.9779 -999.0000   -1.0399   49.0000 
2907.9444    8.5000   66.4445    8.2296   26.7809    0.0734    2.5137   66.8223 -999.0000   -2.4130   49.0000 
2908.0968    8.5000   64.0239    8.2069   29.8762    0.0687    2.5034   69.2614 -999.0000   -2.6369   49.0000 
2908.2492    8.5000   62.9741    8.2069   30.4945    0.0716    2.5062   71.1393 -999.0000   -2.4746   49.0000 
2908.4016    8.5000   64.5909    8.2296   28.3150    0.0856    2.5074   71.9749 -999.0000   -1.9917   49.0000 
2908.5540    8.5000   63.8758    8.3204   23.0492    0.1105    2.5071   71.4587 -999.0000   -1.2066   49.0000 
2908.7064    8.5000   65.5318    8.2977   18.3390    0.1293    2.4992   73.3180 -999.0000   -0.7763   25.0000 
2908.8588    8.5000   60.2775    8.2864   15.5640    0.1332    2.4898   73.0700 -999.0000   -0.8172   25.0000 
2909.0112    8.5000   55.4534    8.2296   16.2255    0.1243    2.4807   71.1274 -999.0000   -1.2990   49.0000 
2909.1636    8.5000   50.8054    8.2523   18.3288    0.1146    2.4811   70.3745 -999.0000   -1.4929   49.0000 
2909.3160    8.5000   57.2273    8.2750   21.9466    0.1011    2.4943   70.8201 -999.0000   -1.6254   49.0000 
2909.4684    8.5000   66.0227    8.2750   21.2528    0.0994    2.5156   69.4124 -999.0000   -1.2096   49.0000 
2909.6208    8.5000   71.2337    8.3432   17.2713    0.1077    2.5379   70.5021 -999.0000   -0.5048   25.0000 
2909.7732    8.5000   73.4458    8.3432   14.4692    0.1223    2.5607   72.4324 -999.0000    0.4194   57.0000 
2909.9256    8.5000   75.2392    8.3432   12.9361    0.1307    2.5740   73.2151 -999.0000    0.8785   57.0000 
2910.0780    8.5000   75.3464    8.3204   12.4943    0.1387    2.5729   74.6832 -999.0000    1.0065   57.0000 
2910.2304    8.5000   68.7332    8.3432   13.1967    0.1397    2.5514   75.0042 -999.0000    0.4882   57.0000 
2910.3828    8.5000   63.6602    8.3432   13.9194    0.1262    2.5273   71.5413 -999.0000   -0.3652   25.0000 
2910.5352    8.5000   59.1504    8.3204   15.0091    0.0970    2.5169   66.0110 -999.0000   -1.4214   49.0000 
2910.6876    8.5000   60.3630    8.2977   15.1796    0.0804    2.5307   61.3974 -999.0000   -1.5387   49.0000 
2910.8400    8.5000   58.7725    8.2750   14.3735    0.0789    2.5500   63.0284 -999.0000   -1.2841   49.0000 
2910.9924    8.5000   57.7288    8.2296   13.8381    0.0888    2.5534   66.6194 -999.0000   -1.0647   49.0000 
2911.1448    8.5000   56.7184    8.1841   13.4844    0.0976    2.5285   68.4872 -999.0000   -1.3926   49.0000 
2911.2972    8.5000   55.7098    8.2069   14.4244    0.0997    2.4987   70.7426 -999.0000   -1.8708   49.0000 
2911.4496    8.5000   61.5595    8.2296   15.7331    0.0979    2.4807   71.9643 -999.0000   -2.1684   49.0000 
2911.6020    8.5000   59.7407    8.2750   15.9684    0.0992    2.4822   71.5977 -999.0000   -1.9849   49.0000 
2911.7544    8.5000   63.1339    8.3432   14.2231    0.1163    2.4923   71.9803 -999.0000   -1.2229   49.0000 
2911.9068    8.5000   60.2866    8.3432   12.6537    0.1408    2.4992   71.5946 -999.0000   -0.2933   54.0000 
2912.0592    8.5000   61.8667    8.2977   12.1916    0.1475    2.4987   73.6971 -999.0000   -0.1488   54.0000 
2912.2116    8.5000   57.4971    8.2523   12.3292    0.1344    2.4956   74.6901 -999.0000   -0.6010   25.0000 
2912.3640    8.5000   60.3885    8.2523   12.1478    0.1297    2.5015   74.4183 -999.0000   -0.5470   25.0000 
2912.5164    8.5000   65.2296    8.2750   11.4605    0.1315    2.5268   72.5020 -999.0000    0.1678   54.0000 
2912.6688    8.5000   70.6438    8.2977   10.9268    0.1483    2.5586   69.8087 -999.0000    1.2788   57.0000 
2912.8212    8.5000   74.2814    8.2523   11.5449    0.1418    2.5798   69.0264 -999.0000    1.4162   57.0000 
2912.9736    8.5000   74.5292    8.2523   12.3850    0.1313    2.5823   68.7264 -999.0000    0.9684   57.0000 
2913.1260    8.5000   76.9498    8.2296   13.5677    0.1150    2.5775   69.9543 -999.0000    0.3553   57.0000 
2913.2784    8.5000   74.4782    8.2296   14.6198    0.1219    2.5643   72.3609 -999.0000    0.2258   54.0000 
2913.4308    8.5000   74.6803    8.2977   14.1071    0.1253    2.5501   72.9074 -999.0000    0.0986   54.0000 
2913.5832    8.5000   68.6644    8.3204   13.2766    0.1247    2.5405   72.0799 -999.0000   -0.0603   54.0000 
2913.7356    8.5000   66.2439    8.3204   13.3390    0.1170    2.5424   70.4709 -999.0000   -0.2170   54.0000 
2913.8880    8.5000   63.3734    8.3659   13.3237    0.1259    2.5467   68.1989 -999.0000    0.1521   54.0000 
2914.0404    8.5000   62.9692    8.3204   13.5704    0.1232    2.5496   66.6942 -999.0000    0.1200   54.0000 
2914.1928    8.5000   58.9693    8.2523   15.6672    0.1097    2.5561   67.1516 -999.0000   -0.1617   54.0000 
