~VERSION INFORMATION
 VERS.                 2.0:   CWLS LOG ASCII STANDARD - VERSION 2.0
 WRAP.                  NO:   SINGLE LINE PER DEPTH STEP
 CREA.                 06/02/2020 16:33:07
#CREATED USING IP VERSION 4.5.2019.2902 BY RMOTA ON 06/02/2020 16:33:07
~WELL INFORMATION
#MNEM.UNIT       DATA                          DESCRIPTION MNEMONIC
#---------      ---------------------------   --------------------------
 STRT    .M         500.8250                  : START DEPTH
 STOP    .M         3050.8250                 : STOP DEPTH
 STEP    .M         0.1000                    : STEP VALUE
 NULL    .      -999.0000                     : NULL VALUE
 DATE    .      06/02/2020                    : LAS file Creation Date
 WELL   .      7-MP-34D-BA     : Well Name
 COMP   .      PETROBRAS       : Company
 FLD    .      MASSAPE         : Field
 STATE  .      BAHIA           : State
 API    .      20240022160     : API Number
 UWI    .                      : Unique Well Identifier (UWI)
 LOC    .                      : Location
 PDAT   .      NM              : Permanent Datum
 EPDAT  .      0.0             : Elevation of Permanent Datum
 LGMEA  .      MR              : Log Measured from
 DRMEA  .      MR              : Drill Measured From
 APDAT  .      65.65           : Elevation Above Permanent Datum
 KB     .      65.95           : KB Elevation
 DF     .      65.65           : DF Elevation
 RWS    .      -999            : Def_Rw
 WST    .      -999            : Def_Rwt
 PROV   .                      : Province
 SRVC   .                      : Contractor
 GDAT   .      WGS 84          : Geodatum
 LONG   .      -38.435477499961: Longitude
 LATI   .      0               : Latitude
 COORDIN.                      : Grid System
 XCOORD .                      : X or East-West Coordinate
 YCOORD .                      : Y or North-South Coordinate
~CURVE INFORMATION
#MNEM              UNIT       API CODE   Curve Type Comments
#----------  --------------- ----------  ---------- -----------
 DEPTH      .M                         : Depth       
 CAL        .inch                      : Caliper     
 BS         .in                        : BitSize     
 GR         .gAPI                      : GammaRay    
 ILD        .ohm.m                     : DeepRes     
 RHOB       .G/CC                      : Density     
 NPHI       .dec                       : Neutron     
 DT         .uS/ft                     : Sonic       
 DRDN       .                          :             
 Lith_new   .                          :             
~A  DEPTH    CAL        BS        GR       ILD       RHOB      NPHI       DT       DRDN    Lith_new 
# ...
1860.8250   10.6134    8.5000  102.7636    1.9772 -999.0000 -999.0000   94.7587 -999.0000 -999.0000 
1860.9250   10.5064    8.5000  101.6373    1.9538 -999.0000 -999.0000   94.3643 -999.0000 -999.0000 
1861.0250   10.3230    8.5000  101.8925    1.9252 -999.0000 -999.0000   94.4102 -999.0000 -999.0000 
1861.1250   10.1549    8.5000  102.4169    1.9028 -999.0000 -999.0000   94.9735 -999.0000 -999.0000 
1861.2250   10.0862    8.5000  102.7896    1.8868 -999.0000 -999.0000   95.7770 -999.0000 -999.0000 
1861.3250   10.1167    8.5000  104.7488    1.8720 -999.0000 -999.0000   96.4112 -999.0000 -999.0000 
1861.4250   10.1855    8.5000  105.4380    1.8541 -999.0000 -999.0000   96.5964 -999.0000 -999.0000 
1861.5250   10.2696    8.5000  105.8982    1.8332 -999.0000 -999.0000   95.9980 -999.0000 -999.0000 
1861.6250   10.3307    8.5000  105.8200    1.8177 -999.0000 -999.0000   94.9730 -999.0000 -999.0000 
1861.7250   10.3154    8.5000  104.9110    1.8181 -999.0000 -999.0000   93.9046 -999.0000 -999.0000 
1861.8250   10.2466    8.5000  104.7015    1.8416 -999.0000 -999.0000   93.2000 -999.0000 -999.0000 
1861.9250   10.1015    8.5000  104.6517    1.8748 -999.0000 -999.0000   93.2633 -999.0000 -999.0000 
1862.0250   10.0250    8.5000  105.2099    1.9037 -999.0000 -999.0000   93.6776 -999.0000 -999.0000 
1862.1250    9.9945    8.5000  105.5594    1.9217 -999.0000 -999.0000   94.4071 -999.0000 -999.0000 
1862.2250   10.0403    8.5000  105.4912    1.9270 -999.0000 -999.0000   95.1352 -999.0000 -999.0000 
1862.3250   10.0862    8.5000  104.7857    1.9220 -999.0000 -999.0000   95.9648 -999.0000 -999.0000 
1862.4250   10.1320    8.5000  104.3079    1.9129 -999.0000 -999.0000   96.8158 -999.0000 -999.0000 
1862.5250   10.1397    8.5000  104.8155    1.9047 -999.0000 -999.0000   97.3566 -999.0000 -999.0000 
1862.6250   10.0785    8.5000  105.9531    1.8978 -999.0000 -999.0000   97.4694 -999.0000 -999.0000 
1862.7250    9.9792    8.5000  107.4379    1.8934 -999.0000 -999.0000   97.2020 -999.0000 -999.0000 
1862.8250    9.8799    8.5000  107.9439    1.8963 -999.0000 -999.0000   96.8230 -999.0000 -999.0000 
1862.9250    9.8264    8.5000  108.6483    1.9068 -999.0000 -999.0000   96.4745 -999.0000 -999.0000 
1863.0250    9.8493    8.5000  109.2106    1.9221 -999.0000 -999.0000   96.2536 -999.0000 -999.0000 
1863.1250    9.9028    8.5000  110.3102    1.9363 -999.0000 -999.0000   96.0980 -999.0000 -999.0000 
1863.2250    9.9486    8.5000  112.1793    1.9430 -999.0000 -999.0000   95.9260 -999.0000 -999.0000 
1863.3250    9.9716    8.5000  112.1581    1.9454 -999.0000 -999.0000   95.6255 -999.0000 -999.0000 
1863.4250    9.9410    8.5000  110.5820    1.9571 -999.0000 -999.0000   95.0536 -999.0000 -999.0000 
1863.5250    9.8799    8.5000  108.8964    1.9959 -999.0000 -999.0000   94.1133 -999.0000 -999.0000 
1863.6250    9.7118    8.5000  106.1995    2.0727 -999.0000 -999.0000   92.7770 -999.0000 -999.0000 
1863.7250    9.5360    8.5000  104.1653    2.1844 -999.0000 -999.0000   91.1592 -999.0000 -999.0000 
1863.8250    9.3909    8.5000  103.0498    2.3111 -999.0000 -999.0000   89.3026 -999.0000 -999.0000 
1863.9250    9.2762    8.5000  100.7633    2.4292 -999.0000 -999.0000   87.4061 -999.0000 -999.0000 
1864.0250    9.2992    8.5000   98.5738    2.5236 -999.0000 -999.0000   85.6107 -999.0000 -999.0000 
1864.1250    9.3603    8.5000   96.4805    2.5907 -999.0000 -999.0000   84.1383 -999.0000 -999.0000 
1864.2250    9.4520    8.5000   94.5513    2.6322 -999.0000 -999.0000   83.2367 -999.0000 -999.0000 
1864.3250    9.5437    8.5000   92.6142    2.6481 -999.0000 -999.0000   82.8969 -999.0000 -999.0000 
1864.4250    9.5055    8.5000   92.1606    2.6405 -999.0000 -999.0000   83.0204 -999.0000 -999.0000 
1864.5250    9.4061    8.5000   91.9974    2.6178 -999.0000 -999.0000   83.4571 -999.0000 -999.0000 
1864.6250    9.2686    8.5000   92.3459    2.5909 -999.0000 -999.0000   84.0566 -999.0000 -999.0000 
1864.7250    9.1769    8.5000   94.9696    2.5702 -999.0000 -999.0000   84.7500 -999.0000 -999.0000 
1864.8250    9.1846    8.5000   97.5086    2.5598 -999.0000 -999.0000   85.4918 -999.0000 -999.0000 
1864.9250    9.2304    8.5000  100.5921    2.5596 -999.0000 -999.0000   86.1066 -999.0000 -999.0000 
1865.0250    9.2915    8.5000  103.1257    2.5660 -999.0000 -999.0000   86.5561 -999.0000 -999.0000 
1865.1250    9.3603    8.5000  104.2024    2.5683 -999.0000 -999.0000   86.7490 -999.0000 -999.0000 
1865.2250    9.3679    8.5000  103.8405    2.5540 -999.0000 -999.0000   86.7719 -999.0000 -999.0000 
1865.3250    9.3374    8.5000  104.0056    2.5216 -999.0000 -999.0000   86.7837 -999.0000 -999.0000 
1865.4250    9.3068    8.5000  104.9896    2.4779 -999.0000 -999.0000   86.9480 -999.0000 -999.0000 
1865.5250    9.2380    8.5000  105.4961    2.4269 -999.0000 -999.0000   87.4163 -999.0000 -999.0000 
1865.6250    9.1998    8.5000  107.5391    2.3701 -999.0000 -999.0000   88.1633 -999.0000 -999.0000 
1865.7250    9.1922    8.5000  107.7227    2.3108 -999.0000 -999.0000   89.0816 -999.0000 -999.0000 
1865.8250    9.1998    8.5000  106.8428    2.2555 -999.0000 -999.0000   90.0224 -999.0000 -999.0000 
1865.9250    9.2457    8.5000  107.2302    2.2097 -999.0000 -999.0000   90.7867 -999.0000 -999.0000 
1866.0250    9.3221    8.5000  106.3398    2.1747 -999.0000 -999.0000   91.2893 -999.0000 -999.0000 
1866.1250    9.3985    8.5000  106.6381    2.1460 -999.0000 -999.0000   91.5347 -999.0000 -999.0000 
1866.2250    9.4520    8.5000  107.4870    2.1176 -999.0000 -999.0000   91.6755 -999.0000 -999.0000 
1866.3250    9.4596    8.5000  107.0211    2.0895 -999.0000 -999.0000   91.7811 -999.0000 -999.0000 
1866.4250    9.4520    8.5000  106.7890    2.0680 -999.0000 -999.0000   91.8383 -999.0000 -999.0000 
1866.5250    9.4291    8.5000  106.2489    2.0578 -999.0000 -999.0000   91.8005 -999.0000 -999.0000 
1866.6250    9.4520    8.5000  105.1705    2.0592 -999.0000 -999.0000   91.6980 -999.0000 -999.0000 
1866.7250    9.4749    8.5000  105.1572    2.0703 -999.0000 -999.0000   91.5434 -999.0000 -999.0000 
1866.8250    9.5284    8.5000  105.3134    2.0883 -999.0000 -999.0000   91.5071 -999.0000 -999.0000 
1866.9250    9.5972    8.5000  105.4211    2.1077 -999.0000 -999.0000   91.5520 -999.0000 -999.0000 
1867.0250    9.5895    8.5000  106.0450    2.1177 -999.0000 -999.0000   91.8821 -999.0000 -999.0000 
1867.1250    9.5513    8.5000  105.9268    2.1073 -999.0000 -999.0000   92.4184 -999.0000 -999.0000 
1867.2250    9.4749    8.5000  105.9612    2.0749 -999.0000 -999.0000   93.0699 -999.0000 -999.0000 
1867.3250    9.4138    8.5000  105.4899    2.0332 -999.0000 -999.0000   93.6959 -999.0000 -999.0000 
1867.4250    9.3909    8.5000  104.6516    2.0021 -999.0000 -999.0000   93.8837 -999.0000 -999.0000 
1867.5250    9.3679    8.5000  103.0869    1.9952 -999.0000 -999.0000   93.5617 -999.0000 -999.0000 
1867.6250    9.3909    8.5000  100.7200    2.0156 -999.0000 -999.0000   92.6434 -999.0000 -999.0000 
1867.7250    9.4367    8.5000   98.6850    2.0597 -999.0000 -999.0000   91.3546 -999.0000 -999.0000 
1867.8250    9.4367    8.5000   96.7832    2.1199 -999.0000 -999.0000   89.9663 -999.0000 -999.0000 
1867.9250    9.4214    8.5000   95.7824    2.1913 -999.0000 -999.0000   88.5709 -999.0000 -999.0000 
1868.0250    9.3832    8.5000   94.1630    2.2806 -999.0000 -999.0000   86.8260 -999.0000 -999.0000 
1868.1250    9.2686    8.5000   92.3067    2.4045 -999.0000 -999.0000   84.5510 -999.0000 -999.0000 
1868.2250    9.1540    8.5000   90.1106    2.5831 -999.0000 -999.0000   81.7342 -999.0000 -999.0000 
1868.3250    9.0547    8.5000   88.6645    2.8174 -999.0000 -999.0000   78.9556 -999.0000 -999.0000 
1868.4250    8.9859    8.5000   89.5598    3.0642 -999.0000 -999.0000   76.9352 -999.0000 -999.0000 
1868.5250    9.0394    8.5000   91.8148    3.2193 -999.0000 -999.0000   76.2561 -999.0000 -999.0000 
1868.6250    9.1005    8.5000   95.2943    3.1957 -999.0000 -999.0000   77.2005 -999.0000 -999.0000 
1868.7250    9.1922    8.5000   99.4911    3.0212 -999.0000 -999.0000   79.4704 -999.0000 -999.0000 
