~VERSION INFORMATION
 VERS.                 2.0:   CWLS LOG ASCII STANDARD - VERSION 2.0
 WRAP.                  NO:   SINGLE LINE PER DEPTH STEP
 CREA.                 06/02/2020 16:07:36
#CREATED USING IP VERSION 4.5.2019.2902 BY RMOTA ON 06/02/2020 16:07:36
~WELL INFORMATION
#MNEM.UNIT       DATA                          DESCRIPTION MNEMONIC
#---------      ---------------------------   --------------------------
 STRT    .M         18.4404                   : START DEPTH
 STOP    .M         3544.2144                 : STOP DEPTH
 STEP    .M         0.1524                    : STEP VALUE
 NULL    .      -999.0000                     : NULL VALUE
 DATE    .      06/02/2020                    : LAS file Creation Date
 WELL   .      7-MP-25-BA         : Well Name
 COMP   .      PETROBRAS          : Company
 FLD    .      MASSAPE            : Field
 STATE  .      20240021268        : State
 COUNT  .      BRASIL             : Country
 API    .      20240021268        : API Number
 UWI    .                         : Unique Well Identifier (UWI)
 LOC    .      N= 8.607.478,570 m : Location
 TOWN   .      CTU                : Township
 SCT    .      OH WIRELINE        : Section
 RANG   .      SCHLUMBERGER       : Range
 PDAT   .      NM                 : Permanent Datum
 EPDAT  .      0                  : Elevation of Permanent Datum
 LGMEA  .      MR                 : Log Measured from
 DRMEA  .      MR                 : Drill Measured From
 APDAT  .      65.76              : Elevation Above Permanent Datum
 KB     .      66.06              : KB Elevation
 DF     .      65.76              : DF Elevation
 GL     .      56.36              : GL Elevation
 RWS    .      -999               : Def_Rw
 WST    .      -999               : Def_Rwt
 BHS    .      OPEN               : Completion Status
 PROV   .                         : Province
 MDEC   .      -23.10323          : Magnetic Declination
 SRVC   .                         : Contractor
 GDAT   .      WGS 84             : Geodatum
 LONG   .      -38.4344958333174  : Longitude
 LATI   .      -12.5959183332655  : Latitude
 COORDIN.                         : Grid System
 XCOORD .                         : X or East-West Coordinate
 YCOORD .                         : Y or North-South Coordinate
~CURVE INFORMATION
#MNEM              UNIT       API CODE   Curve Type Comments
#----------  --------------- ----------  ---------- -----------
 DEPTH      .M                         : Depth       
 BS         .in                        : BitSize     
 GR         .gAPI                      : GammaRay    
 CAL        .inch                      : Caliper     
 RT         .ohm.m                     : DeepRes     
 NPHI       .m3/m3                     : Neutron     
 RHOB       .g/cm3                     : Density     
 DT         .us/ft                     : Sonic       
 SP         .mV                        : SP          
 DRDN       .                          :             
 Lith_new   .                          :             
~A  DEPTH     BS        GR       CAL        RT       NPHI      RHOB       DT        SP       DRDN    Lith_new 
# ...
1575.9684   12.2500   93.4096   14.6319    2.9029    0.4048    2.3855   99.6820 1015.7500    6.2033   57.0000 
1576.1208   12.2500   94.3078   14.4026    3.0007    0.3904    2.3988  101.7815 1015.6875    5.9902   57.0000 
1576.2732   12.2500   95.6299   14.6394    3.1671    0.3553    2.4627  101.2789 1014.9375    6.0982   57.0000 
1576.4256   12.2500   96.8649   14.0832    3.2427    0.3222    2.4881  105.0927 1016.9375    5.5034   57.0000 
1576.5780   12.2500   93.9458   14.0869    3.0659    0.3083    2.4574  102.5787 1017.1875    4.4238   57.0000 
1576.7304   12.2500   91.9522   14.1997    2.8808    0.3168    2.4018  106.1203 1015.5000    3.5966   57.0000 
1576.8828   12.2500   86.0017   14.4364    2.8788    0.3166    2.3371  105.9545 1016.8750    2.2934   57.0000 
1577.0352   12.2500   86.3095   14.1658    2.9116    0.3213    2.3755  103.1230 1016.6875    3.2201   57.0000 
1577.1876   12.2500   87.3200   14.8423    2.9336    0.2963    2.4328  101.7442 1014.6250    3.5345   57.0000 
1577.3400   12.2500   90.6576   14.2034    2.8479    0.2992    2.4755  102.3967 1004.8125    4.4818   57.0000 
1577.4924   12.2500   93.8303   14.3913    2.7367    0.3343    2.4410  100.8620 1016.0625    4.9655   57.0000 
1577.6448   12.2500   88.3289   14.4966    2.5054    0.3607    2.4031   99.9254 1012.3750    5.0854   57.0000 
1577.7972   12.2500   88.8713   14.4815    2.5237    0.4123    2.3969   99.0123 1012.8750    6.6799   57.0000 
1577.9496   12.2500   87.8297   14.5605    2.5963    0.4327    2.4100   99.7837 1017.5000    7.6225   57.0000 
1578.1020   12.2500   90.7488   14.7070    2.6848    0.4144    2.4263   98.2582 1015.8750    7.3398   57.0000 
1578.2544   12.2500   88.8897   14.7446    2.6467    0.3832    2.4240   98.9753 1014.0000    6.2531   57.0000 
1578.4068   12.2500   88.0226   15.8458    2.4815    0.3393    2.4105  102.1768 1014.3125    4.5217   57.0000 
1578.5592   12.2500   89.4822   15.2031    2.3448    0.3537    2.3982  100.8398 1015.3750    4.7538   57.0000 
1578.7116   12.2500   90.7172   14.4815    2.2632    0.3598    2.4214  101.5183 1009.2500    5.4232   57.0000 
1578.8640   12.2500   89.1288   14.9213    2.1737    0.3637    2.4578   99.4644 1008.3750    6.2783   57.0000 
1579.0164   12.2500   90.5883   14.6619    2.1163    0.3615    2.4779   98.1277 1004.0625    6.6087   57.0000 
1579.1688   12.2500   90.2515   15.1280    2.1302    0.3737    2.4688   99.0400 1009.8125    6.8309   57.0000 
1579.3212   12.2500   94.0854   14.6845    2.1363    0.3723    2.4633   98.0188 1004.6875    6.6763   57.0000 
1579.4736   12.2500   93.1872   14.7860    2.1448    0.3597    2.4586   97.8157 1007.7500    6.1601   57.0000 
1579.6260   12.2500   92.8206   15.4399    2.1516    0.3473    2.4615   96.8275 1005.7500    5.8056   57.0000 
1579.7784   12.2500   90.9119   14.9175    2.1935    0.3390    2.4630   97.0378 1002.3750    5.5604   57.0000 
1579.9308   12.2500   91.6667   14.8198    2.2309    0.3455    2.4879  102.8860  996.1250    6.2742   57.0000 
1580.0832   12.2500   93.0438   14.7371    2.2056    0.3369    2.5025   98.2024 1004.4375    6.2799   57.0000 
1580.2356   12.2500   93.4929   15.3610    2.1771    0.3468    2.4779  101.2150 1011.6250    6.1180   57.0000 
1580.3880   12.2500   93.8608   15.3610    2.1645    0.3612    2.4372  102.6964 1009.1250    5.7831   57.0000 
1580.5404   12.2500   92.8504   14.6619    2.1930    0.4041    2.4129  102.4378 1007.7500    6.7292   57.0000 
1580.6928   12.2500   92.3991   14.8273    2.1662    0.3867    2.4531  101.7961 1004.1250    6.9518   57.0000 
1580.8452   12.2500   94.6446   15.4211    2.0237    0.3522    2.4901   99.4776 1010.1875    6.5403   57.0000 
1580.9976   12.2500   95.8796   14.6845    1.8526    0.3054    2.5022  100.2738 1014.7500    5.2253   57.0000 
1581.1500   12.2500   96.2186   14.5717    1.8716    0.3449    2.4402  108.9871 1002.7500    5.3012   57.0000 
1581.3024   12.2500   94.3099   14.6845    1.9468    0.3732    2.3923  114.2547 1005.5000    5.2863   57.0000 
1581.4548   12.2500   89.4821   14.6056    2.0442    0.3978    2.3979  113.7785 1008.3750    6.2177   57.0000 
1581.6072   12.2500   87.3202   14.6770    2.0664    0.3684    2.4597   99.7945 1011.8750    6.4747   57.0000 
1581.7596   12.2500   85.7484   14.6845    1.9900    0.3519    2.5054  101.4135 1014.4375    6.8371   57.0000 
1581.9120   12.2500   91.1443   14.6619    1.9349    0.3416    2.4984   98.9651 1013.3125    6.3544   57.0000 
1582.0644   12.2500   94.6213   15.0152    2.0166    0.3631    2.4927  100.1322 1014.3750    6.9560   57.0000 
1582.2168   12.2500   93.4986   14.7146    2.1226    0.3911    2.4858  100.0067 1006.5000    7.7517   57.0000 
1582.3692   12.2500   93.2672   14.9100    2.1700    0.3934    2.4920   99.9201 1006.6875    7.9554   57.0000 
1582.5216   12.2500   92.1456   14.8423    2.1994    0.3669    2.4819  100.1241 1009.5625    6.8697   57.0000 
1582.6740   12.2500   97.0856   15.0340    2.1644    0.3575    2.4739   98.6660 1014.7500    6.3936   57.0000 
1582.8264   12.2500   95.8506   15.2595    2.0541    0.3563    2.4599   98.8150 1010.9375    6.0750   57.0000 
1582.9788   12.2500   93.1872   14.9551    1.9549    0.3600    2.4646   97.6529 1011.0000    6.2917   57.0000 
1583.1312   12.2500   84.9912   14.9325    1.8975    0.3368    2.4829   99.9541 1015.3125    5.8849   57.0000 
1583.2836   12.2500   84.1398   15.1806    1.8834    0.3287    2.4899  100.9699 1017.9375    5.7543   57.0000 
1583.4360   12.2500   82.7925   15.2257    1.9035    0.3673    2.4641  101.3906 1017.0625    6.5264   57.0000 
1583.5884   12.2500   85.0380   15.1204    1.9275    0.4215    2.4313  103.3623 1017.5000    7.6762   57.0000 
1583.7408   12.2500   83.9808   14.8123    1.9563    0.4633    2.4233  104.5159 1015.1875    8.9072   57.0000 
1583.8932   12.2500   82.7458   14.5642    1.9376    0.4547    2.4301  106.9009 1018.8125    8.7570   57.0000 
1584.0456   12.2500   82.0721   14.6732    1.9315    0.4152    2.4514  105.1371 1018.5000    7.8674   57.0000 
1584.1980   12.2500   81.1463   14.6958    2.1047    0.3590    2.4466  106.1579 1017.1875    5.9006   57.0000 
1584.3504   12.2500   88.1072   14.3801    2.1682    0.3687    2.4590  105.0040 1016.3750    6.4690   57.0000 
1584.5028   12.2500   91.5568   14.2410    2.2804    0.3686    2.4600  101.4071 1016.4375    6.4862   57.0000 
1584.6552   12.2500   92.2581   15.2783    2.3444    0.3647    2.4909  102.0667 1014.9375    6.9739   57.0000 
1584.8076   12.2500   87.8794   14.3162    2.5099    0.3064    2.4997  103.4000 1015.6250    5.2069   57.0000 
1584.9600   12.2500   87.3490   14.3087    2.7026    0.2801    2.4808   98.5342 1018.3125    3.9549   57.0000 
1585.1124   12.2500   86.3385   14.2936    2.6848    0.2799    2.4272  102.4677 1020.3750    2.8717   57.0000 
1585.2648   12.2500   85.8894   14.4026    2.5078    0.2750    2.3689  102.9479 1017.4375    1.5440   57.0000 
1585.4172   12.2500   80.2757   14.5266    2.5676    0.3151    2.3016  103.0725 1018.2500    1.5338   57.0000 
1585.5696   12.2500   76.9957   14.5717    2.8593    0.3864    2.2224  106.8440 1019.5625    2.3285   57.0000 
1585.7220   12.2500   81.8947   14.8536    3.1110    0.4539    2.2148  109.4474 1016.5000    4.4266   57.0000 
1585.8744   12.2500   84.3647   15.0002    3.0642    0.4483    2.2874  113.3655 1016.9375    5.6915   57.0000 
1586.0268   12.2500   90.5638   14.7296    3.1087    0.3706    2.3927  104.5412 1018.1250    5.2076   57.0000 
1586.1792   12.2500   86.6463   14.1207    3.4108    0.3512    2.4394  100.1432 1016.5625    5.4930   57.0000 
1586.3316   12.2500   88.3304   14.3913    3.9935    0.3331    2.4380   98.9572 1019.5625    4.8629   57.0000 
1586.4840   12.2500   85.3840   14.1358    4.3382    0.3585    2.4604  100.4488 1017.6250    6.1571   57.0000 
1586.6364   12.2500   85.9744   14.1884    4.1233    0.3002    2.4645  100.7801 1019.1875    4.2962   57.0000 
1586.7888   12.2500   84.2903   14.1433    3.5210    0.2877    2.4560  101.9475 1018.7500    3.7106   57.0000 
1586.9412   12.2500   86.0017   14.1546    3.0353    0.2654    2.4213   99.3806 1018.5625    2.2716   57.0000 
