~VERSION INFORMATION
 VERS.                 2.0:   CWLS LOG ASCII STANDARD - VERSION 2.0
 WRAP.                  NO:   SINGLE LINE PER DEPTH STEP
 CREA.                 30/01/2020 17:31:38
#CREATED USING IP VERSION 4.5.2019.2902 BY RMOTA ON 30/01/2020 17:31:38
~WELL INFORMATION
#MNEM.UNIT       DATA                          DESCRIPTION MNEMONIC
#---------      ---------------------------   --------------------------
 STRT    .M         5.9400                    : START DEPTH
 STOP    .M         3362.3976                 : STOP DEPTH
 STEP    .M         0.1524                    : STEP VALUE
 NULL    .      -999.0000                     : NULL VALUE
 DATE    .      30/01/2020                    : LAS file Creation Date
 WELL   .      7-MP-31D-BA        : Well Name
 COMP   .      PETROBRAS          : Company
 FLD    .      MASSAPE            : Field
 STATE  .      BAHIA              : State
 COUNT  .      BRASIL             : Country
 API    .      20240021426        : API Number
 UWI    .                         : Unique Well Identifier (UWI)
 LOC    .      N= 8.608.492,720 m : Location
 TOWN   .      CATU               : Township
 SCT    .      OH WIRELINE        : Section
 RANG   .      SCHLUMBERGER       : Range
 PDAT   .      NM                 : Permanent Datum
 EPDAT  .      0                  : Elevation of Permanent Datum
 LGMEA  .      MR                 : Log Measured from
 DRMEA  .      MR                 : Drill Measured From
 APDAT  .      66.4               : Elevation Above Permanent Datum
 KB     .      66.7               : KB Elevation
 DF     .      66.4               : DF Elevation
 GL     .      57                 : GL Elevation
 RWS    .      -999               : Def_Rw
 WST    .      -999               : Def_Rwt
 BHS    .      OPEN               : Completion Status
 PROV   .                         : Province
 SRVC   .                         : Contractor
 GDAT   .      WGS 84             : Geodatum
 LONG   .      -38.4314536115858  : Longitude
 LATI   .      -12.5867413889037  : Latitude
 COORDIN.                         : Grid System
 XCOORD .                         : X or East-West Coordinate
 YCOORD .                         : Y or North-South Coordinate
~CURVE INFORMATION
#MNEM              UNIT       API CODE   Curve Type Comments
#----------  --------------- ----------  ---------- -----------
 DEPTH      .M                         : Depth       
 CALI       .inch                      : Caliper     
 BS         .in                        : BitSize     
 GR         .gAPI                      : GammaRay    
 RT         .ohm.m                     : DeepRes     
 NPHI       .m3/m3                     : Neutron     
 RHOB       .g/cm3                     :             
 DT         .us/ft                     : Sonic       
 SP         .mV                        : SP          
 N_Res      .                          :             
 Res        .                          :             
 DRDN       .                          :             
 Lith_new   .                          :             
 DEPTH      .M                         : Depth       
~A  DEPTH    CALI       BS        GR        RT       NPHI      RHOB       DT        SP      N_Res      Res       DRDN    Lith_new   DEPTH   
# ...
3350.3580    3.5536    8.5000  105.7431   12.4059    0.3270    1.7825  120.3648  503.2436 -999.0000 -999.0000   -8.4517   49.0000 3350.3580 
3350.5104    3.5536    8.5000  105.7431   10.9534    0.3270    1.7825  120.3730  502.5162 -999.0000 -999.0000   -8.4517   49.0000 3350.5104 
3350.6628    3.5536    8.5000  105.7431    9.0671    0.3270    1.7825  120.3713  500.1811 -999.0000 -999.0000   -8.4517   49.0000 3350.6628 
3350.8152    3.5536    8.5000  105.7431    9.0942    0.3270    1.7825  120.3686  499.8809 -999.0000 -999.0000   -8.4517   49.0000 3350.8152 
3350.9676    3.5536    8.5000  105.7431    9.4102    0.3270    1.7825  120.3488  498.1053 -999.0000 -999.0000   -8.4517   49.0000 3350.9676 
3351.1200    3.5536    8.5000  105.7431    9.8074    0.3270    1.7825  120.6616  495.8657 -999.0000 -999.0000   -8.4517   49.0000 3351.1200 
3351.2724    3.5536    8.5000  105.7431   10.4110    0.3270    1.7825  120.6692  495.6294 -999.0000 -999.0000   -8.4517   49.0000 3351.2724 
3351.4248    3.5536    8.5000  105.7431   11.5420    0.3270    1.7825  120.6692  494.9537 -999.0000 -999.0000   -8.4517   49.0000 3351.4248 
3351.5772    3.5536    8.5000  105.7431   12.3079    0.3270    1.7825  120.6692  492.0694 -999.0000 -999.0000   -8.4517   49.0000 3351.5772 
3351.7296    3.5536    8.5000  105.7431   12.4246    0.3270    1.7825  120.6692  490.9016 -999.0000 -999.0000   -8.4517   49.0000 3351.7296 
3351.8820    3.5536    8.5000  105.7431   12.4965    0.3270    1.7825  120.6692  486.8474 -999.0000 -999.0000   -8.4517   49.0000 3351.8820 
3352.0344    3.5536    8.5000  105.7431   12.7948    0.3270    1.7825  120.6692  483.8209 -999.0000 -999.0000   -8.4517   49.0000 3352.0344 
3352.1868    3.5536    8.5000  105.7431   13.8946    0.3270    1.7825  120.6692  480.0276 -999.0000 -999.0000   -8.4517   49.0000 3352.1868 
3352.3392    3.5536    8.5000  105.7431   14.1827    0.3270    1.7825  120.6692  476.6422 -999.0000 -999.0000   -8.4517   49.0000 3352.3392 
3352.4916    3.5536    8.5000  105.7431   15.2626    0.3270    1.7825  120.6692  472.3519 -999.0000 -999.0000   -8.4517   49.0000 3352.4916 
3352.6440    3.5536    8.5000  105.7431   15.4106    0.3270    1.7825  120.6692  468.6496 -999.0000 -999.0000   -8.4517   49.0000 3352.6440 
3352.7964    3.5536    8.5000  105.7431   15.7779    0.3270    1.7825  120.6692  464.9011 -999.0000 -999.0000   -8.4517   49.0000 3352.7964 
3352.9488    3.5536    8.5000  105.7431   16.2481    0.3270    1.7825  120.6692  462.7377 -999.0000 -999.0000   -8.4517   49.0000 3352.9488 
3353.1012    3.5536    8.5000  105.7431   16.2860    0.3270    1.7825  120.6692  460.0025 -999.0000 -999.0000   -8.4517   49.0000 3353.1012 
3353.2536    3.5536    8.5000  105.7431   16.1958    0.3270    1.7825  120.6692  456.2151 -999.0000 -999.0000   -8.4517   49.0000 3353.2536 
3353.4060    3.5536    8.5000  105.7431   16.1082    0.3270    1.7825  120.6692  453.9892 -999.0000 -999.0000   -8.4517   49.0000 3353.4060 
3353.5584    3.5536    8.5000  105.7431   16.0949    0.3270    1.7825  120.6692  449.8489 -999.0000 -999.0000   -8.4517   49.0000 3353.5584 
3353.7108    3.5536    8.5000  105.7431   16.0274    0.3270    1.7825  120.6692  444.0748 -999.0000 -999.0000   -8.4517   49.0000 3353.7108 
3353.8632    3.5536    8.5000  105.7431   15.9303    0.3270    1.7825  120.6692  440.8863 -999.0000 -999.0000   -8.4517   49.0000 3353.8632 
3354.0156    3.5536    8.5000  105.7431   15.9602    0.3270    1.7825  120.6692  434.7101 -999.0000 -999.0000   -8.4517   49.0000 3354.0156 
3354.1680    3.5536    8.5000  105.7431   15.9513    0.3270    1.7825  120.6692 -999.0000 -999.0000 -999.0000   -8.4517   49.0000 3354.1680 
3354.3204    3.5536    8.5000  105.7431   15.6500    0.3270    1.7825  120.6692 -999.0000 -999.0000 -999.0000   -8.4517   49.0000 3354.3204 
3354.4728    3.5536    8.5000  105.7431   15.5793    0.3270    1.7825  120.6692 -999.0000 -999.0000 -999.0000   -8.4517   49.0000 3354.4728 
3354.6252    3.5536    8.5000  105.7431   15.7016    0.3270    1.7825  120.6692 -999.0000 -999.0000 -999.0000   -8.4517   49.0000 3354.6252 
3354.7776    3.5536    8.5000  105.7431   15.6676    0.3270    1.7825  120.6692 -999.0000 -999.0000 -999.0000   -8.4517   49.0000 3354.7776 
3354.9300    3.5536    8.5000  105.7431   15.6694    0.3270    1.7825  120.6692 -999.0000 -999.0000 -999.0000   -8.4517   49.0000 3354.9300 
3355.0824    3.5536    8.5000  105.7431   15.6303    0.3270    1.7825  120.6692 -999.0000 -999.0000 -999.0000   -8.4517   49.0000 3355.0824 
3355.2348    3.5536    8.5000  105.7431   15.6269    0.3270    1.7825  120.6692 -999.0000 -999.0000 -999.0000   -8.4517   49.0000 3355.2348 
3355.3872    3.5536    8.5000  105.7431   15.7000    0.3270    1.7825  120.6692 -999.0000 -999.0000 -999.0000   -8.4517   49.0000 3355.3872 
3355.5396    3.5536    8.5000  105.7431   15.8043    0.3270    1.7825  120.6692 -999.0000 -999.0000 -999.0000   -8.4517   49.0000 3355.5396 
3355.6920    3.5536    8.5000  105.7431   15.7791    0.3270    1.7825  120.6692 -999.0000 -999.0000 -999.0000   -8.4517   49.0000 3355.6920 
3355.8444    3.5536    8.5000  105.7431   15.7251    0.3270    1.7825  120.6692 -999.0000 -999.0000 -999.0000   -8.4517   49.0000 3355.8444 
3355.9968    3.5536    8.5000  105.7431   15.6969    0.3270    1.7825  120.6692 -999.0000 -999.0000 -999.0000   -8.4517   49.0000 3355.9968 
3356.1492    3.5536    8.5000  105.7431   15.8426    0.3270    1.7825  120.6692 -999.0000 -999.0000 -999.0000   -8.4517   49.0000 3356.1492 
3356.3016    3.5536    8.5000  105.7431   15.9227    0.3270    1.7825  120.6692 -999.0000 -999.0000 -999.0000   -8.4517   49.0000 3356.3016 
3356.4540    3.5536    8.5000  105.7431   15.7373    0.3270    1.7825  120.6692 -999.0000 -999.0000 -999.0000   -8.4517   49.0000 3356.4540 
3356.6064    3.5536    8.5000  105.7431   15.6322    0.3270    1.7825  120.6692 -999.0000 -999.0000 -999.0000   -8.4517   49.0000 3356.6064 
3356.7588    3.5536    8.5000  105.7431   15.5729    0.3270    1.7825  120.6692 -999.0000 -999.0000 -999.0000   -8.4517   49.0000 3356.7588 
3356.9112    3.5536    8.5000  105.7431   15.5864    0.3270    1.7825  120.6692 -999.0000 -999.0000 -999.0000   -8.4517   49.0000 3356.9112 
3357.0636    3.5536    8.5000  105.7431   15.5709    0.3270    1.7825  120.6692 -999.0000 -999.0000 -999.0000   -8.4516   49.0000 3357.0636 
3357.2160    3.5536    8.5000  105.7431   15.5833    0.3270    1.7825  120.6692 -999.0000 -999.0000 -999.0000   -8.4516   49.0000 3357.2160 
3357.3684    3.5536    8.5000  105.7431   15.5630    0.3270    1.7825  120.6692 -999.0000 -999.0000 -999.0000   -8.4515   49.0000 3357.3684 
3357.5208    3.5536    8.5000  105.7431   15.4221    0.3270    1.7825  120.6692 -999.0000 -999.0000 -999.0000   -8.4514   49.0000 3357.5208 
3357.6732    3.5536    8.5000  105.7431   15.5207    0.3270    1.7825  120.6692 -999.0000 -999.0000 -999.0000   -8.4513   49.0000 3357.6732 
3357.8256    3.5536    8.5000  105.7431   15.5392    0.3270    1.7825  120.6692 -999.0000 -999.0000 -999.0000   -8.4513   49.0000 3357.8256 
3357.9780    3.5536    8.5000  105.7431   15.5978    0.3270    1.7825  120.6692 -999.0000 -999.0000 -999.0000   -8.4513   49.0000 3357.9780 
3358.1304    3.5536    8.5000  105.7431   15.5974    0.3270    1.7825  120.6692 -999.0000 -999.0000 -999.0000   -8.4514   49.0000 3358.1304 
3358.2828    3.5536    8.5000  105.7431   15.5713    0.3270    1.7825  120.6692 -999.0000 -999.0000 -999.0000   -8.4515   49.0000 3358.2828 
3358.4352    3.5536    8.5000  105.7431   15.5046    0.3270    1.7825  120.6692 -999.0000 -999.0000 -999.0000   -8.4516   49.0000 3358.4352 
3358.5876    3.5536    8.5000  105.7431   15.5809    0.3270    1.7825  120.6692 -999.0000 -999.0000 -999.0000   -8.4516   49.0000 3358.5876 
3358.7400    3.5536    8.5000  105.7431   15.6438    0.3270    1.7825  120.6692 -999.0000 -999.0000 -999.0000   -8.4514   49.0000 3358.7400 
3358.8924    3.5536    8.5000  105.7431   15.5863    0.3270    1.7825  120.6692 -999.0000 -999.0000 -999.0000   -8.4513   49.0000 3358.8924 
