~VERSION INFORMATION
 VERS.                 2.0:   CWLS LOG ASCII STANDARD - VERSION 2.0
 WRAP.                  NO:   SINGLE LINE PER DEPTH STEP
 CREA.                 06/02/2020 16:33:07
#CREATED USING IP VERSION 4.5.2019.2902 BY RMOTA ON 06/02/2020 16:33:07
~WELL INFORMATION
#MNEM.UNIT       DATA                          DESCRIPTION MNEMONIC
#---------      ---------------------------   --------------------------
 STRT    .M         500.8250                  : START DEPTH
 STOP    .M         3050.8250                 : STOP DEPTH
 STEP    .M         0.1000                    : STEP VALUE
 NULL    .      -999.0000                     : NULL VALUE
 DATE    .      06/02/2020                    : LAS file Creation Date
 WELL   .      7-MP-34D-BA     : Well Name
 COMP   .      PETROBRAS       : Company
 FLD    .      MASSAPE         : Field
 STATE  .      BAHIA           : State
 API    .      20240022160     : API Number
 UWI    .                      : Unique Well Identifier (UWI)
 LOC    .                      : Location
 PDAT   .      NM              : Permanent Datum
 EPDAT  .      0.0             : Elevation of Permanent Datum
 LGMEA  .      MR              : Log Measured from
 DRMEA  .      MR              : Drill Measured From
 APDAT  .      65.65           : Elevation Above Permanent Datum
 KB     .      65.95           : KB Elevation
 DF     .      65.65           : DF Elevation
 RWS    .      -999            : Def_Rw
 WST    .      -999            : Def_Rwt
 PROV   .                      : Province
 SRVC   .                      : Contractor
 GDAT   .      WGS 84          : Geodatum
 LONG   .      -38.435477499961: Longitude
 LATI   .      0               : Latitude
 COORDIN.                      : Grid System
 XCOORD .                      : X or East-West Coordinate
 YCOORD .                      : Y or North-South Coordinate
~CURVE INFORMATION
#MNEM              UNIT       API CODE   Curve Type Comments
#----------  --------------- ----------  ---------- -----------
 DEPTH      .M                         : Depth       
 CAL        .inch                      : Caliper     
 BS         .in                        : BitSize     
 GR         .gAPI                      : GammaRay    
 ILD        .ohm.m                     : DeepRes     
 RHOB       .G/CC                      : Density     
 NPHI       .dec                       : Neutron     
 DT         .uS/ft                     : Sonic       
 DRDN       .                          :             
 Lith_new   .                          :             
~A  DEPTH    CAL        BS        GR       ILD       RHOB      NPHI       DT       DRDN    Lith_new 
# ...
1348.8250   12.1054   12.2500   59.1063    1.9996 -999.0000 -999.0000   82.2291 -999.0000 -999.0000 
1348.9250   12.0484   12.2500   57.1976    2.2073 -999.0000 -999.0000   78.4725 -999.0000 -999.0000 
1349.0250   12.0320   12.2500   54.9143    2.4597 -999.0000 -999.0000   74.2888 -999.0000 -999.0000 
1349.1250   12.0511   12.2500   53.1930    2.6974 -999.0000 -999.0000   70.1148 -999.0000 -999.0000 
1349.2250   12.0709   12.2500   51.5735    2.8236 -999.0000 -999.0000   66.6786 -999.0000 -999.0000 
1349.3250   12.0785   12.2500   51.4768    2.7764 -999.0000 -999.0000   64.7806 -999.0000 -999.0000 
1349.4250   12.0725   12.2500   51.9629    2.5893 -999.0000 -999.0000   65.1245 -999.0000 -999.0000 
1349.5250   12.0620   12.2500   52.7890    2.3393 -999.0000 -999.0000   67.5337 -999.0000 -999.0000 
1349.6250   12.0581   12.2500   53.8284    2.0869 -999.0000 -999.0000   71.1071 -999.0000 -999.0000 
1349.7250   12.0574   12.2500   54.0752    1.8716 -999.0000 -999.0000   75.1357 -999.0000 -999.0000 
1349.8250   12.0586   12.2500   53.8370    1.7104 -999.0000 -999.0000   79.0842 -999.0000 -999.0000 
1349.9250   12.0595   12.2500   53.4666    1.6067 -999.0000 -999.0000   82.6214 -999.0000 -999.0000 
1350.0250   12.0592   12.2500   53.6255    1.5521 -999.0000 -999.0000   85.5474 -999.0000 -999.0000 
1350.1250   12.0594   12.2500   54.0140    1.5322 -999.0000 -999.0000   87.4444 -999.0000 -999.0000 
1350.2250   12.0607   12.2500   55.1077    1.5340 -999.0000 -999.0000   88.5240 -999.0000 -999.0000 
1350.3250   12.0613   12.2500   56.3301    1.5526 -999.0000 -999.0000   89.0342 -999.0000 -999.0000 
1350.4250   12.0594   12.2500   57.0587    1.5967 -999.0000 -999.0000   89.1923 -999.0000 -999.0000 
1350.5250   12.0547   12.2500   58.8007    1.6815 -999.0000 -999.0000   89.1403 -999.0000 -999.0000 
1350.6250   12.0472   12.2500   62.5766    1.8093 -999.0000 -999.0000   88.8546 -999.0000 -999.0000 
1350.7250   12.0444   12.2500   67.2477    1.9669 -999.0000 -999.0000   88.4051 -999.0000 -999.0000 
1350.8250   12.0462   12.2500   72.4997    2.1397 -999.0000 -999.0000   87.8500 -999.0000 -999.0000 
1350.9250   12.0508   12.2500   77.1976    2.3132 -999.0000 -999.0000   87.1801 -999.0000 -999.0000 
1351.0250   12.0563   12.2500   78.9534    2.4745 -999.0000 -999.0000   86.5056 -999.0000 -999.0000 
1351.1250   12.0561   12.2500   80.0101    2.6173 -999.0000 -999.0000   85.9184 -999.0000 -999.0000 
1351.2250   12.0544   12.2500   80.5004    2.7438 -999.0000 -999.0000   85.5051 -999.0000 -999.0000 
1351.3250   12.0515   12.2500   80.5643    2.8546 -999.0000 -999.0000   85.2577 -999.0000 -999.0000 
1351.4250   12.0480   12.2500   81.7452    2.9536 -999.0000 -999.0000   85.1791 -999.0000 -999.0000 
1351.5250   12.0466   12.2500   82.9909    3.0391 -999.0000 -999.0000   85.1199 -999.0000 -999.0000 
1351.6250   12.0454   12.2500   85.4391    3.1079 -999.0000 -999.0000   85.1684 -999.0000 -999.0000 
1351.7250   12.0468   12.2500   87.8355    3.1568 -999.0000 -999.0000   85.2133 -999.0000 -999.0000 
1351.8250   12.0495   12.2500   89.6241    3.1875 -999.0000 -999.0000   85.2694 -999.0000 -999.0000 
1351.9250   12.0506   12.2500   91.4335    3.2061 -999.0000 -999.0000   85.3740 -999.0000 -999.0000 
1352.0250   12.0525   12.2500   91.8082    3.2205 -999.0000 -999.0000   85.4531 -999.0000 -999.0000 
1352.1250   12.0501   12.2500   91.8194    3.2379 -999.0000 -999.0000   85.5240 -999.0000 -999.0000 
1352.2250   12.0460   12.2500   92.0352    3.2615 -999.0000 -999.0000   85.4847 -999.0000 -999.0000 
1352.3250   12.0427   12.2500   90.4632    3.2878 -999.0000 -999.0000   85.2209 -999.0000 -999.0000 
1352.4250   12.0392   12.2500   88.2775    3.3129 -999.0000 -999.0000   84.7566 -999.0000 -999.0000 
1352.5250   12.0396   12.2500   87.1501    3.3366 -999.0000 -999.0000   84.2020 -999.0000 -999.0000 
1352.6250   12.0296   12.2500   85.2889    3.3582 -999.0000 -999.0000   83.6429 -999.0000 -999.0000 
1352.7250   12.0170   12.2500   85.2785    3.3763 -999.0000 -999.0000   83.2357 -999.0000 -999.0000 
1352.8250   12.0073   12.2500   86.9998    3.3932 -999.0000 -999.0000   82.9878 -999.0000 -999.0000 
1352.9250   11.9995   12.2500   87.6637    3.4091 -999.0000 -999.0000   82.8842 -999.0000 -999.0000 
1353.0250   11.9988   12.2500   88.6910    3.4214 -999.0000 -999.0000   82.8668 -999.0000 -999.0000 
1353.1250   11.9965   12.2500   89.0863    3.4278 -999.0000 -999.0000   82.8995 -999.0000 -999.0000 
1353.2250   11.9916   12.2500   88.2662    3.4292 -999.0000 -999.0000   82.8990 -999.0000 -999.0000 
1353.3250   11.9903   12.2500   87.5100    3.4276 -999.0000 -999.0000   82.8500 -999.0000 -999.0000 
1353.4250   11.9912   12.2500   87.7984    3.4240 -999.0000 -999.0000   82.7612 -999.0000 -999.0000 
1353.5250   11.9942   12.2500   87.7034    3.4172 -999.0000 -999.0000   82.6459 -999.0000 -999.0000 
1353.6250   11.9961   12.2500   87.8691    3.4062 -999.0000 -999.0000   82.5342 -999.0000 -999.0000 
1353.7250   11.9957   12.2500   88.4941    3.3948 -999.0000 -999.0000   82.4250 -999.0000 -999.0000 
1353.8250   11.9944   12.2500   87.7155    3.3895 -999.0000 -999.0000   82.2934 -999.0000 -999.0000 
1353.9250   11.9942   12.2500   88.1834    3.3914 -999.0000 -999.0000   82.2173 -999.0000 -999.0000 
1354.0250   11.9948   12.2500   89.1606    3.3976 -999.0000 -999.0000   81.6974 -999.0000 -999.0000 
1354.1250   11.9972   12.2500   89.1002    3.4024 -999.0000 -999.0000   79.7117 -999.0000 -999.0000 
1354.2250   11.9984   12.2500   89.5715    3.4049 -999.0000 -999.0000   77.7566 -999.0000 -999.0000 
1354.3250   11.9987   12.2500   88.6038    3.4055 -999.0000 -999.0000   75.7485 -999.0000 -999.0000 
1354.4250   11.9979   12.2500   86.4940    3.4021 -999.0000 -999.0000   76.8056 -999.0000 -999.0000 
1354.5250   11.9969   12.2500   85.6756    3.3935 -999.0000 -999.0000   78.9878 -999.0000 -999.0000 
1354.6250   11.9968   12.2500   85.1835    3.3808 -999.0000 -999.0000   80.5694 -999.0000 -999.0000 
1354.7250   11.9962   12.2500   85.5996    3.3743 -999.0000 -999.0000   78.5449 -999.0000 -999.0000 
1354.8250   11.9985   12.2500   87.1345    3.3827 -999.0000 -999.0000   71.3847 -999.0000 -999.0000 
1354.9250   12.0017   12.2500   87.7854    3.4021 -999.0000 -999.0000   60.5913 -999.0000 -999.0000 
1355.0250   12.0071   12.2500   87.8717    3.4177 -999.0000 -999.0000   50.6199 -999.0000 -999.0000 
1355.1250   12.0110   12.2500   87.5912    3.4216 -999.0000 -999.0000   46.2969 -999.0000 -999.0000 
1355.2250   12.0081   12.2500   86.6476    3.4209 -999.0000 -999.0000   49.0383 -999.0000 -999.0000 
1355.3250   12.0014   12.2500   86.1884    3.4288 -999.0000 -999.0000   57.9827 -999.0000 -999.0000 
1355.4250   11.9945   12.2500   86.6787    3.4460 -999.0000 -999.0000   68.8607 -999.0000 -999.0000 
1355.5250   11.9872   12.2500   87.6283    3.4660 -999.0000 -999.0000   76.6607 -999.0000 -999.0000 
1355.6250   11.9872   12.2500   88.9137    3.4833 -999.0000 -999.0000   80.9801 -999.0000 -999.0000 
1355.7250   11.9913   12.2500   90.6609    3.4975 -999.0000 -999.0000   82.1275 -999.0000 -999.0000 
1355.8250   12.0078   12.2500   91.7383    3.5119 -999.0000 -999.0000   82.1709 -999.0000 -999.0000 
1355.9250   12.0286   12.2500   92.5549    3.5287 -999.0000 -999.0000   82.2184 -999.0000 -999.0000 
1356.0250   12.0476   12.2500   92.9278    3.5483 -999.0000 -999.0000   82.2245 -999.0000 -999.0000 
1356.1250   12.0573   12.2500   92.9261    3.5689 -999.0000 -999.0000   82.1189 -999.0000 -999.0000 
1356.2250   12.0543   12.2500   92.3814    3.5924 -999.0000 -999.0000   82.0097 -999.0000 -999.0000 
1356.3250   12.0475   12.2500   91.5388    3.6197 -999.0000 -999.0000   81.8847 -999.0000 -999.0000 
1356.4250   12.0425   12.2500   91.0045    3.6475 -999.0000 -999.0000   81.7138 -999.0000 -999.0000 
1356.5250   12.0439   12.2500   90.3070    3.6714 -999.0000 -999.0000   81.5214 -999.0000 -999.0000 
1356.6250   12.0498   12.2500   90.3829    3.6907 -999.0000 -999.0000   81.3122 -999.0000 -999.0000 
1356.7250   12.0576   12.2500   90.1550    3.7058 -999.0000 -999.0000   81.1495 -999.0000 -999.0000 
