~VERSION INFORMATION
 VERS.                 2.0:   CWLS LOG ASCII STANDARD - VERSION 2.0
 WRAP.                  NO:   SINGLE LINE PER DEPTH STEP
 CREA.                 06/02/2020 16:44:49
#CREATED USING IP VERSION 4.5.2019.2902 BY RMOTA ON 06/02/2020 16:44:49
~WELL INFORMATION
#MNEM.UNIT       DATA                          DESCRIPTION MNEMONIC
#---------      ---------------------------   --------------------------
 STRT    .M         1550.0001                 : START DEPTH
 STOP    .M         2926.1001                 : STOP DEPTH
 STEP    .M         0.1000                    : STEP VALUE
 NULL    .      -999.0000                     : NULL VALUE
 DATE    .      06/02/2020                    : LAS file Creation Date
 WELL   .      7-MP-47DP-BA    : Well Name
 COMP   .      PETROBRAS       : Company
 FLD    .      MASSAPE         : Field
 STATE  .      BAHIA           : State
 API    .      20240025025     : API Number
 UWI    .                      : Unique Well Identifier (UWI)
 LOC    .      20240025025     : Location
 PDAT   .      NM              : Permanent Datum
 EPDAT  .      0.0             : Elevation of Permanent Datum
 LGMEA  .      MR              : Log Measured from
 DRMEA  .      MR              : Drill Measured From
 APDAT  .      65.68           : Elevation Above Permanent Datum
 KB     .      -999.25         : KB Elevation
 DF     .      65.68           : DF Elevation
 GL     .      56.28           : GL Elevation
 RWS    .      -999            : Def_Rw
 WST    .      -999            : Def_Rwt
 PROV   .                      : Province
 SRVC   .                      : Contractor
 GDAT   .      WGS 84          : Geodatum
 LONG   .      -38.435024444394: Longitude
 LATI   .      0               : Latitude
 COORDIN.                      : Grid System
 XCOORD .                      : X or East-West Coordinate
 YCOORD .                      : Y or North-South Coordinate
~CURVE INFORMATION
#MNEM              UNIT       API CODE   Curve Type Comments
#----------  --------------- ----------  ---------- -----------
 DEPTH      .M                         : Depth       
 BS         .in                        : BitSize     
 CAL        .in                        : Caliper     
 GR         .api                       : GammaRay    
 ILD        .ohmm                      : DeepRes     
 NPHI       .decp                      : Neutron     
 RHOB       .g/cc                      : Density     
 DT         .uspf                      : Sonic       
 DRDN       .                          :             
 Lith_new   .                          :             
~A  DEPTH     BS       CAL        GR       ILD       NPHI      RHOB       DT       DRDN    Lith_new 
# ...
2814.0001    8.5000    8.7969   51.1097   41.8797    0.0701    2.4489   75.3069   -3.6872   49.0000 
2814.1001    8.5000    8.7832   48.5269   43.5401    0.0702    2.4487   74.8436   -3.6859   49.0000 
2814.2001    8.5000    8.7965   44.8707   48.6237    0.0716    2.4495   74.0589   -3.6233   49.0000 
2814.3001    8.5000    8.7885   42.6281   50.5990    0.0699    2.4574   72.5982   -3.5213   49.0000 
2814.4001    8.5000    8.7836   44.1088   51.6166    0.0655    2.4639   70.5491   -3.5393   49.0000 
2814.5001    8.5000    8.7866   46.0064   51.4295    0.0621    2.4692   68.8308   -3.5453   49.0000 
2814.6001    8.5000    8.7874   48.9486   50.0453    0.0602    2.4722   66.5501   -3.5490   49.0000 
2814.7001    8.5000    8.7935   51.9003   50.0129    0.0592    2.4725   66.2044   -3.5777   49.0000 
2814.8001    8.5000    8.7977   56.2130   49.5377    0.0611    2.4712   65.8738   -3.5386   49.0000 
2814.9001    8.5000    8.7899   66.3094   46.0866    0.0683    2.4649   66.2961   -3.4262   49.0000 
2815.0001    8.5000    8.7835   71.6906   44.5535    0.0730    2.4642   66.9740   -3.2826   49.0000 
2815.1001    8.5000    8.7819   77.1916   43.6925    0.0789    2.4664   68.2580   -3.0438   49.0000 
2815.2001    8.5000    8.7893   88.7399   39.4497    0.0873    2.4864   69.7090   -2.3603   49.0000 
2815.3001    8.5000    8.7875   91.7300   34.1865    0.0914    2.5005   70.2722   -1.9427   49.0000 
2815.4001    8.5000    8.8048   93.3832   28.9413    0.0947    2.5127   70.7848   -1.5894   49.0000 
2815.5001    8.5000    8.8063   88.5195   21.4488    0.1066    2.5184   72.1597   -1.0780   49.0000 
2815.6001    8.5000    8.8027   84.0919   19.3755    0.1167    2.5105   72.2283   -0.8997   25.0000 
2815.7001    8.5000    8.8168   78.5477   17.8396    0.1234    2.4985   72.8002   -0.9143   25.0000 
2815.8001    8.5000    8.8195   74.6280   15.9721    0.1309    2.4879   73.5757   -0.8786   25.0000 
2815.9001    8.5000    8.8286   71.2402   15.4170    0.1313    2.4738   74.7133   -1.1472   49.0000 
2816.0001    8.5000    8.8347   72.0164   15.1471    0.1260    2.4691   75.0803   -1.4189   49.0000 
2816.1001    8.5000    8.8225   71.5564   14.9561    0.1232    2.4658   74.8797   -1.5782   49.0000 
2816.2001    8.5000    8.8041   73.8086   14.8939    0.1280    2.4563   73.5516   -1.6063   49.0000 
2816.3001    8.5000    8.7950   75.1407   14.8567    0.1274    2.4526   72.7825   -1.7004   49.0000 
2816.4001    8.5000    8.7767   76.4920   14.8290    0.1268    2.4514   71.9599   -1.7471   49.0000 
2816.5001    8.5000    8.7615   73.9380   14.7574    0.1227    2.4539   70.8940   -1.8328   49.0000 
2816.6001    8.5000    8.7722   72.3135   14.6854    0.1198    2.4592   70.3749   -1.8244   49.0000 
2816.7001    8.5000    8.7843   71.7912   14.5949    0.1192    2.4643   70.3086   -1.7404   49.0000 
2816.8001    8.5000    8.7783   77.1437   14.2670    0.1254    2.4682   71.2491   -1.4553   49.0000 
2816.9001    8.5000    8.7752   80.4772   14.2195    0.1238    2.4670   72.0642   -1.5331   49.0000 
2817.0001    8.5000    8.7828   83.1894   14.2827    0.1229    2.4632   72.2921   -1.6396   49.0000 
2817.1001    8.5000    8.7707   81.5937   14.8767    0.1194    2.4567   73.0992   -1.8874   49.0000 
2817.2001    8.5000    8.7650   77.8864   15.2374    0.1180    2.4564   73.4967   -1.9374   49.0000 
2817.3001    8.5000    8.7708   73.8421   15.5273    0.1207    2.4609   73.5982   -1.7588   49.0000 
2817.4001    8.5000    8.7719   72.5994   16.0738    0.1207    2.4683   72.9686   -1.6090   49.0000 
2817.5001    8.5000    8.7765   75.4266   16.4521    0.1242    2.4842   72.4979   -1.1763   49.0000 
2817.6001    8.5000    8.7883   75.5321   16.9481    0.1246    2.4858   72.7028   -1.1304   49.0000 
2817.7001    8.5000    8.7824   72.8167   17.3576    0.1235    2.4822   73.0557   -1.2394   49.0000 
2817.8001    8.5000    8.7931   68.9257   17.6954    0.1216    2.4634   72.8781   -1.6775   49.0000 
2817.9001    8.5000    8.7931   70.0949   17.9566    0.1155    2.4543   72.7165   -2.0632   49.0000 
2818.0001    8.5000    8.7977   70.9191   18.6272    0.1115    2.4500   72.6239   -2.2834   49.0000 
2818.1001    8.5000    8.7973   67.6319   21.8446    0.1106    2.4489   72.4067   -2.3360   49.0000 
2818.2001    8.5000    8.7809   65.4948   23.7404    0.1084    2.4514   71.9634   -2.3588   49.0000 
2818.3001    8.5000    8.7779   63.6227   25.3950    0.1028    2.4502   71.9981   -2.5680   49.0000 
2818.4001    8.5000    8.7779   62.9902   26.8411    0.0957    2.4387   71.5283   -3.0360   49.0000 
2818.5001    8.5000    8.7760   61.2460   27.6697    0.0940    2.4311   71.6813   -3.2460   49.0000 
2818.6001    8.5000    8.7775   60.5081   28.4992    0.0938    2.4248   71.7683   -3.3766   49.0000 
2818.7001    8.5000    8.7745   59.6903   31.7908    0.0929    2.4245   69.8609   -3.4115   49.0000 
2818.8001    8.5000    8.7653   59.9139   33.7132    0.0925    2.4264   69.0176   -3.3895   49.0000 
2818.9001    8.5000    8.7513   59.3772   36.1620    0.0943    2.4300   69.5322   -3.2571   49.0000 
2819.0001    8.5000    8.7498   58.1728   41.6250    0.0957    2.4307   69.2234   -3.1962   49.0000 
2819.1001    8.5000    8.7733   56.3328   45.7408    0.0948    2.4252   67.9253   -3.3338   49.0000 
2819.2001    8.5000    8.7870   55.5853   50.9083    0.0913    2.4219   68.6686   -3.5204   49.0000 
2819.3001    8.5000    8.8015   54.1285   57.8824    0.0879    2.4186   69.3004   -3.6982   49.0000 
2819.4001    8.5000    8.8174   53.6909   69.7271    0.0817    2.4184   69.2749   -3.9088   49.0000 
2819.5001    8.5000    8.8079   54.6924   71.0958    0.0795    2.4236   69.2147   -3.8791   49.0000 
2819.6001    8.5000    8.7950   55.9814   67.2296    0.0763    2.4308   70.3088   -3.8393   49.0000 
2819.7001    8.5000    8.7847   56.6203   54.4108    0.0769    2.4498   71.3459   -3.4420   49.0000 
2819.8001    8.5000    8.7832   55.8105   48.7889    0.0778    2.4553   71.9247   -3.3007   49.0000 
2819.9001    8.5000    8.7790   54.7706   45.3741    0.0810    2.4573   72.5741   -3.1541   49.0000 
2820.0001    8.5000    8.7809   53.6877   41.1721    0.0901    2.4466   74.6572   -3.0634   49.0000 
2820.1001    8.5000    8.7939   54.8505   39.6994    0.0940    2.4389   73.7479   -3.0870   49.0000 
2820.2001    8.5000    8.8060   56.5181   38.0813    0.0938    2.4335   73.6753   -3.2022   49.0000 
2820.3001    8.5000    8.8208   60.1503   34.1707    0.1008    2.4249   74.4699   -3.1423   49.0000 
2820.4001    8.5000    8.8254   62.7059   31.5783    0.1037    2.4238   74.2916   -3.0666   49.0000 
2820.5001    8.5000    8.8235   66.2215   28.6013    0.1064    2.4206   74.1409   -3.0416   49.0000 
2820.6001    8.5000    8.8250   71.4111   22.7628    0.1114    2.4187   74.2357   -2.9121   49.0000 
2820.7001    8.5000    8.8174   76.9488   20.5457    0.1218    2.4237   75.0841   -2.4661   49.0000 
2820.8001    8.5000    8.8235   75.9394   18.9466    0.1261    2.4299   74.8694   -2.1991   49.0000 
2820.9001    8.5000    8.8227   74.3293   17.8639    0.1269    2.4409   75.0028   -1.9527   49.0000 
2821.0001    8.5000    8.8193   74.4060   16.6342    0.1269    2.4644   75.6834   -1.4829   49.0000 
2821.1001    8.5000    8.8178   75.4458   16.4406    0.1265    2.4706   75.7660   -1.3695   49.0000 
2821.2001    8.5000    8.8170   74.5258   16.5218    0.1255    2.4731   76.4471   -1.3548   49.0000 
2821.3001    8.5000    8.8292   66.4276   17.2375    0.1250    2.4674   76.8088   -1.4844   49.0000 
2821.4001    8.5000    8.8338   60.9074   18.0360    0.1217    2.4613   77.0337   -1.7182   49.0000 
2821.5001    8.5000    8.8391   54.6972   19.1682    0.1183    2.4564   76.6496   -1.9275   49.0000 
2821.6001    8.5000    8.8265   46.3562   23.1459    0.1197    2.4462   74.9467   -2.0881   49.0000 
2821.7001    8.5000    8.8110   44.6503   25.6380    0.1153    2.4412   73.9223   -2.3336   49.0000 
2821.8001    8.5000    8.8045   45.0049   28.1616    0.1052    2.4385   72.8898   -2.7233   49.0000 
2821.9001    8.5000    8.7927   50.5730   30.9771    0.0908    2.4333   71.5810   -3.3082   49.0000 
