~VERSION INFORMATION
 VERS.                 2.0:   CWLS LOG ASCII STANDARD - VERSION 2.0
 WRAP.                  NO:   SINGLE LINE PER DEPTH STEP
 CREA.                 06/02/2020 16:08:49
#CREATED USING IP VERSION 4.5.2019.2902 BY RMOTA ON 06/02/2020 16:08:49
~WELL INFORMATION
#MNEM.UNIT       DATA                          DESCRIPTION MNEMONIC
#---------      ---------------------------   --------------------------
 STRT    .M         -0.4572                   : START DEPTH
 STOP    .M         3564.6360                 : STOP DEPTH
 STEP    .M         0.1524                    : STEP VALUE
 NULL    .      -999.0000                     : NULL VALUE
 DATE    .      06/02/2020                    : LAS file Creation Date
 WELL   .      7-MP-28D-BA        : Well Name
 COMP   .      PETROBRAS          : Company
 FLD    .      MASSAPE            : Field
 STATE  .      BAHIA              : State
 COUNT  .      BRASIL             : Country
 API    .      20240021354        : API Number
 UWI    .                         : Unique Well Identifier (UWI)
 LOC    .      N= 8.609.866,070 m : Location
 TOWN   .      CATU               : Township
 SCT    .      OH WIRELINE        : Section
 RANG   .      SCHLUMBERGER       : Range
 PDAT   .      NM                 : Permanent Datum
 EPDAT  .      0                  : Elevation of Permanent Datum
 LGMEA  .      MR                 : Log Measured from
 DRMEA  .      MR                 : Drill Measured From
 APDAT  .      105.72             : Elevation Above Permanent Datum
 KB     .      106.02             : KB Elevation
 DF     .      105.72             : DF Elevation
 GL     .      96.31999           : GL Elevation
 RWS    .      -999               : Def_Rw
 WST    .      -999               : Def_Rwt
 BHS    .      OPEN               : Completion Status
 PROV   .                         : Province
 SRVC   .                         : Contractor
 GDAT   .      WGS 84             : Geodatum
 LONG   .      -38.4270011107127  : Longitude
 LATI   .      -12.5743130556742  : Latitude
 COORDIN.                         : Grid System
 XCOORD .                         : X or East-West Coordinate
 YCOORD .                         : Y or North-South Coordinate
~CURVE INFORMATION
#MNEM              UNIT       API CODE   Curve Type Comments
#----------  --------------- ----------  ---------- -----------
 DEPTH      .M                         : Depth       
 BS         .in                        : BitSize     
 GR         .gAPI                      : GammaRay    
 CAL        .in                        : Caliper     
 RT         .ohm.m                     : DeepRes     
 NPHI       .m3/m3                     : Neutron     
 RHOB       .g/cm3                     :             
 DT         .us/ft                     : Sonic       
 SP         .mV                        : SP          Loaded from DLIS: 7-mp-28d-ba_raw-2p.dlis
 DRDN       .                          :             
 Lith_new   .                          :             
~A  DEPTH     BS        GR       CAL        RT       NPHI      RHOB       DT        SP       DRDN    Lith_new 
# ...
1824.0756   12.2500   90.2844   12.4186    4.3719    0.2926    2.4864   81.5039  -95.0000    4.3099   57.0000 
1824.2280   12.2500   86.0310   12.4307    3.9173    0.3387    2.4710   84.8010  -96.5625    5.7328   57.0000 
1824.3804   12.2500   90.8760   12.4186    3.6178    0.3537    2.4825   85.4385  -97.9375    6.5309   57.0000 
1824.5328   12.2500   88.6985   12.3703    3.3159    0.3400    2.4919   86.8824 -101.1875    6.2077   57.0000 
1824.6852   12.2500   89.2301   12.3341    3.0849    0.3161    2.4948   88.4609 -102.5000    5.4305   57.0000 
1824.8376   12.2500   84.9927   12.3462    2.9486    0.3092    2.4929   87.6460 -103.0625    5.1339   57.0000 
1824.9900   12.2500   86.2080   12.3583    2.8480    0.3156    2.4825   87.4544 -105.1875    5.0346   57.0000 
1825.1424   12.2500   86.4685   12.3462    2.7671    0.3371    2.4549   87.1366 -106.5625    5.1336   57.0000 
1825.2948   12.2500   83.6329   12.1773    2.6957    0.3245    2.4348   87.0094 -107.9375    4.4771   57.0000 
1825.4472   12.2500   76.7464   12.0808    2.6934    0.3327    2.4464   86.3564 -108.2500    5.2508   57.0000 
1825.5996   12.2500   85.7389   12.2497    2.6843    0.3106    2.4907   85.9149 -107.4375    5.4708   57.0000 
1825.7520   12.2500   92.2203   12.3221    2.6932    0.3342    2.5200   86.9388 -103.9375    6.6183   57.0000 
1825.9044   12.2500  100.7982   12.4186    2.6985    0.3644    2.5252   85.4632 -106.3125    7.6405   57.0000 
1826.0568   12.2500   92.4314   12.4186    2.6869    0.3895    2.5223   87.3007 -107.8750    8.4218   57.0000 
1826.2092   12.2500   90.2034   12.3945    2.6228    0.3971    2.5268   89.0888 -108.3750    8.8283   57.0000 
1826.3616   12.2500   88.1069   12.3462    2.5441    0.3702    2.5340   92.9399 -109.5000    8.0501   57.0000 
1826.5140   12.2500   87.2967   12.3945    2.5169    0.3601    2.5340   93.5049 -108.5625    7.6453   57.0000 
1826.6664   12.2500   88.9170   12.4186    2.4743    0.3325    2.5332   93.3985 -107.5625    6.7873   57.0000 
1826.8188   12.2500   86.2840   12.4065    2.3976    0.3353    2.5349   92.7006 -106.7500    6.8541   57.0000 
1826.9712   12.2500   91.0001   12.4186    2.3284    0.3338    2.5346   90.9498 -105.1875    6.8403   57.0000 
1827.1236   12.2500   89.9873   12.4427    2.3808    0.3406    2.5319   89.6131 -104.1875    6.9416   57.0000 
1827.2760   12.2500   88.7721   12.4669    2.4607    0.3178    2.5327   88.3430 -103.8750    6.2980   57.0000 
1827.4284   12.2500   84.6325   12.4186    2.5540    0.3112    2.5349   88.4104 -104.5625    6.0476   57.0000 
1827.5808   12.2500   87.0630   12.4186    2.7110    0.2967    2.5303   87.6725 -103.7500    5.4538   57.0000 
1827.7332   12.2500   88.7658   12.4186    2.8439    0.3177    2.5229   87.2980 -104.1875    6.0082   57.0000 
1827.8856   12.2500   91.8255   12.4186    2.8417    0.3434    2.5205   87.9366 -102.7500    6.8550   57.0000 
1828.0380   12.2500   87.3158   12.5151    2.7010    0.3635    2.5195   88.2836 -101.7500    7.4982   57.0000 
1828.1904   12.2500   88.8189   12.5875    2.6555    0.3551    2.5132   87.5045 -102.1250    7.0250   57.0000 
1828.3428   12.2500   88.4589   12.5755    2.6531    0.3587    2.5029   86.0726 -103.8750    6.9447   57.0000 
1828.4952   12.2500   90.1673   12.6599    2.7055    0.3617    2.4858   84.2334 -105.4375    6.6278   57.0000 
1828.6476   12.2500   89.1949   12.6961    2.7498    0.3561    2.4726   83.6158 -106.0000    6.2813   57.0000 
1828.8000   12.2500   92.6550   12.7082    2.8252    0.3300    2.4645   83.7974 -107.3125    5.2574   57.0000 
1828.9524   12.2500   93.6860   12.8892    2.8421    0.3015    2.4752   83.5251 -107.0625    4.7148   57.0000 
1829.1048   12.2500   99.5698   12.8288    2.7869    0.3217    2.4930   84.6490 -104.8750    5.6711   57.0000 
1829.2572   12.2500   97.0658   12.8288    2.7361    0.3241    2.5112   84.9266 -104.2500    6.1714   57.0000 
1829.4096   12.2500   95.4456   12.8530    2.7069    0.3214    2.5155   87.0545 -104.8750    5.9035   57.0000 
1829.5620   12.2500   86.9207   12.9012    2.7140    0.3096    2.4949   85.1851 -105.1250    5.0975   57.0000 
1829.7144   12.2500   86.4788   12.9495    2.7256    0.2989    2.4768   85.8739 -101.7500    4.3662   57.0000 
1829.8668   12.2500   86.3315   12.9254    2.7347    0.3003    2.4683   84.4979  -99.3750    4.4289   57.0000 
1830.0192   12.2500   89.2593   12.9736    2.7713    0.2937    2.4754   83.2972 -102.5000    4.3031   57.0000 
1830.1716   12.2500   89.4213   13.1184    2.8342    0.2955    2.4749   85.6676 -101.5000    4.3528   57.0000 
1830.3240   12.2500   93.8627   13.0219    2.8026    0.2920    2.4758   86.4214 -101.4375    4.2617   57.0000 
1830.4764   12.2500   95.0410   12.9736    2.7648    0.3000    2.4879   86.1581 -101.8750    4.9038   57.0000 
1830.6288   12.2500   91.0495   12.9616    2.7954    0.3098    2.5116   86.8949 -102.1250    5.7254   57.0000 
1830.7812   12.2500   87.6391   12.8530    2.8036    0.3087    2.5370   83.6143 -103.1875    6.1844   57.0000 
1830.9336   12.2500   85.8716   12.8530    2.8617    0.2911    2.5540   78.9511 -100.5000    5.8522   57.0000 
1831.0860   12.2500   86.6081   12.8047    2.9180    0.2565    2.5587   76.8009  -99.6250    4.7202   57.0000 
1831.2384   12.2500   83.5149   12.7564    3.0413    0.2448    2.5623   76.4888  -98.3125    4.4643   57.0000 
1831.3908   12.2500   81.3864   12.8047    3.3504    0.2326    2.5667   76.5025 -100.0625    4.0837   57.0000 
1831.5432   12.2500   80.7973   12.7444    3.6048    0.2359    2.5701   80.9065  -99.3750    4.2820   57.0000 
1831.6956   12.2500   86.5417   12.7323    4.1235    0.2492    2.5614   82.8652 -100.0000    4.4082   57.0000 
1831.8480   12.2500   85.7243   12.6840    4.2021    0.2654    2.5412   84.6649 -100.3750    4.5177   57.0000 
1832.0004   12.2500   85.7243   12.7082    3.9809    0.3044    2.5177   85.0885 -100.3750    5.3988   57.0000 
1832.1528   12.2500   82.4839   12.7564    3.6222    0.3320    2.5118   85.6028  -99.5625    6.3212   57.0000 
1832.3052   12.2500   88.3756   12.7564    3.2956    0.3481    2.5201   88.1358 -101.1250    7.0845   57.0000 
1832.4576   12.2500   87.7864   12.7806    3.1856    0.3201    2.5224   86.3950 -100.5000    6.0571   57.0000 
1832.6100   12.2500   84.3987   12.7564    3.1246    0.2947    2.5134   86.2389 -100.0625    5.0348   57.0000 
1832.7624   12.2500   78.3597   12.7444    3.1050    0.2787    2.5086   84.9142  -99.6250    4.4803   57.0000 
1832.9148   12.2500   83.9568   12.7564    3.0873    0.2790    2.5201   84.3477 -101.0625    4.8219   57.0000 
1833.0672   12.2500   87.1972   12.8047    2.9363    0.2829    2.5336   84.2112  -98.2500    5.1366   57.0000 
1833.2196   12.2500   91.0791   12.8288    2.9260    0.2824    2.5254   84.6609  -99.9375    4.7875   57.0000 
1833.3720   12.2500   86.6603   12.8047    2.8802    0.3044    2.5097   85.1198  -98.7500    5.2721   57.0000 
1833.5244   12.2500   86.9549   12.8168    2.8014    0.3024    2.5001   87.2600 -100.3750    5.0450   57.0000 
1833.6768   12.2500   87.1972   12.8168    2.7933    0.3139    2.5022   88.8360 -100.6875    5.5306   57.0000 
1833.8292   12.2500   84.9878   12.7323    2.8314    0.2916    2.4935   89.8361  -99.0000    4.4576   57.0000 
1833.9816   12.2500   83.2392   12.7323    2.8903    0.3203    2.4726   90.1852  -95.0000    4.9690   57.0000 
1834.1340   12.2500   80.7352   12.7806    2.9253    0.3491    2.4509   89.4987  -90.3750    5.5626   57.0000 
1834.2864   12.2500   82.6500   12.8530    2.9947    0.3821    2.4455   88.7158  -91.6875    6.6642   57.0000 
1834.4388   12.2500   88.9647   12.9133    2.9818    0.3550    2.4531   88.4092  -91.3125    5.9958   57.0000 
1834.5912   12.2500   90.7323   12.9736    2.8905    0.3390    2.4653   88.1448  -92.8125    5.6195   57.0000 
1834.7436   12.2500   92.5225   13.0460    2.7825    0.3417    2.4604   88.3244  -93.0000    5.5400   57.0000 
1834.8960   12.2500   86.9254   13.0460    2.8531    0.3612    2.4522   89.2011  -94.1875    6.0115   57.0000 
1835.0484   12.2500   84.5687   12.7564    2.9227    0.3575    2.4433   87.9583  -93.2500    5.7984   57.0000 
