~VERSION INFORMATION
 VERS.                 2.0:   CWLS LOG ASCII STANDARD - VERSION 2.0
 WRAP.                  NO:   SINGLE LINE PER DEPTH STEP
 CREA.                 28/08/2020 11:52:07
#CREATED USING IP VERSION 4.5.2019.2902 BY CANDIDO ON 28/08/2020 11:52:07
~WELL INFORMATION
#MNEM.UNIT       DATA                          DESCRIPTION MNEMONIC
#---------      ---------------------------   --------------------------
 STRT    .M         639.0000                  : START DEPTH
 STOP    .M         3007.1000                 : STOP DEPTH
 STEP    .M         0.1000                    : STEP VALUE
 NULL    .      -999.0000                     : NULL VALUE
 DATE    .      28/08/2020                    : LAS file Creation Date
 WELL   .      7-MP-55D-BA     : Well Name
 COMP   .      PETROBRAS       : Company
 FLD    .      MASSAPE         : Field
 STATE  .      BAHIA           : State
 COUNT  .      -999.25         : Country
 API    .      20240028408     : API Number
 UWI    .                      : Unique Well Identifier (UWI)
 LOC    .      -999.25         : Location
 TOWN   .      -999.25         : Township
 SCT    .      -999.25         : Section
 RANG   .      -999.25         : Range
 PDAT   .      NM              : Permanent Datum
 EPDAT  .      0.00            : Elevation of Permanent Datum
 LGMEA  .      MR              : Log Measured from
 DRMEA  .      MR              : Drill Measured From
 APDAT  .      65.67           : Elevation Above Permanent Datum
 KB     .      65.97           : KB Elevation
 DF     .      65.67           : DF Elevation
 GL     .      56.27           : GL Elevation
 RWS    .      -999            : Def_Rw
 WST    .      -999            : Def_Rwt
 PROV   .                      : Province
 SRVC   .                      : Contractor
 GDAT   .      WGS 84          : Geodatum
 LONG   .      -38.435231944455: Longitude
 LATI   .      0               : Latitude
 COORDIN.                      : Grid System
 XCOORD .                      : X or East-West Coordinate
 YCOORD .                      : Y or North-South Coordinate
~CURVE INFORMATION
#MNEM                UNIT       API CODE   Curve Type Comments
#----------    --------------- ----------  ---------- -----------
 DEPTH        .M                         : Depth       
 TVD          .M                         : Depth       
 TVDSS        .M                         : Depth       
 GR           .api                       : GammaRay    
 CAL          .in                        : Caliper     
 BS           .in                        : BitSize     
 Lith_new     .                          :             
 RT           .ohmm                      : DeepRes     
 NPHI         .decp                      : Neutron     
 RHOB         .g/cc                      : Density     
 Res          .                          :             
 N_Res        .                          :             
 VCLGR        .Dec                       : Vcl         
 Phi_Gaymard  .                          :             
 Phie_Gaymard .                          :             
 SwArch       .Dec                       :             
 SwSim        .Dec                       :             
~A  DEPTH    TVD      TVDSS       GR       CAL        BS     Lith_new     RT       NPHI      RHOB      Res      N_Res     VCLGR   Phi_Gaym~ Phie_Gay~   SwArch    SwSim   
# ...
2316.9000 2304.4684 -2238.7984   34.6554    8.7698    8.5000   49.0000    8.9576    0.0665    2.5597    1.0000    0.0000   -0.0961    0.0632    0.0693    0.3924    0.3924 
2317.0000 2304.5678 -2238.8978   34.9073    8.7872    8.5000   49.0000    8.1440    0.0723    2.5587    1.0000    0.0000   -0.0923    0.0666    0.0728    0.3937    0.3937 
2317.1000 2304.6672 -2238.9972   36.4034    8.7741    8.5000   25.0000    7.2470    0.0854    2.5643    0.0000    1.0000   -0.0696    0.0725    0.0776    0.3923    0.3923 
2317.2000 2304.7666 -2239.0966   39.9682    8.7810    8.5000   54.0000    6.2782    0.0953    2.5794    0.0000    1.0000   -0.0156    0.0751    0.0762    0.4065    0.4065 
2317.3000 2304.8660 -2239.1960   52.2579    8.8062    8.5000   57.0000    4.5171    0.1056    2.6115    0.0000    1.0000    0.0889    0.0768    0.0700    0.5848    0.5657 
2317.4000 2304.9654 -2239.2954   63.0591    8.7942    8.5000   57.0000    3.8890    0.1386    2.6268    0.0000    1.0000    0.1965    0.0986    0.0792    0.6282    0.5870 
2317.5000 2305.0648 -2239.3948   77.2876    8.8029    8.5000   57.0000    3.4546    0.1598    2.6338    0.0000    1.0000    0.3810    0.1133    0.0701    0.9457    0.7939 
2317.6000 2305.1643 -2239.4943  104.7982    8.8233    8.5000   57.0000    3.0128    0.1856    2.6385    0.0000    1.0000    0.7797    0.1313    0.0289    1.3000    1.3000 
2317.7000 2305.2637 -2239.5937  113.6911    8.8355    8.5000   57.0000    2.9134    0.2153    2.6364    0.0000    1.0000    0.9513    0.1524    0.0074    1.3000    1.2772 
2317.8000 2305.3631 -2239.6931  116.1948    8.8197    8.5000   57.0000    2.8580    0.2199    2.6341    0.0000    1.0000    1.0023    0.1557    0.0000    1.3000    1.2387 
2317.9000 2305.4625 -2239.7925  117.8970    8.7753    8.5000   57.0000    2.8492    0.2117    2.6304    0.0000    1.0000    1.0221    0.1500    0.0000    1.3000    1.2426 
2318.0000 2305.5619 -2239.8919  118.7978    8.7810    8.5000   57.0000    2.8878    0.2202    2.6285    0.0000    1.0000    1.0325    0.1560    0.0000    1.3000    1.2260 
2318.1000 2305.6613 -2239.9913  119.7519    8.7813    8.5000   57.0000    2.9448    0.2177    2.6307    0.0000    1.0000    1.0436    0.1542    0.0000    1.3000    1.2022 
2318.2000 2305.7607 -2240.0907  114.7597    8.7732    8.5000   57.0000    3.0628    0.2038    2.6277    0.0000    1.0000    0.9736    0.1445    0.0038    1.3000    1.1871 
2318.3000 2305.8602 -2240.1902  110.1797    8.7827    8.5000   57.0000    3.1084    0.1999    2.6221    0.0000    1.0000    0.8806    0.1420    0.0170    1.3000    1.2866 
2318.4000 2305.9596 -2240.2896  106.6607    8.7760    8.5000   57.0000    3.1575    0.2002    2.6170    0.0000    1.0000    0.8136    0.1424    0.0265    1.3000    1.2401 
2318.5000 2306.0590 -2240.3890  108.1034    8.7688    8.5000   57.0000    3.3948    0.1965    2.6179    0.0000    1.0000    0.8406    0.1398    0.0223    1.3000    1.2001 
2318.6000 2306.1584 -2240.4884  109.7980    8.7617    8.5000   57.0000    3.6536    0.1913    2.6261    0.0000    1.0000    0.8731    0.1357    0.0172    1.3000    1.1025 
2318.7000 2306.2578 -2240.5878  109.4469    8.7291    8.5000   57.0000    4.0268    0.1992    2.6300    0.0000    1.0000    0.8663    0.1412    0.0189    1.3000    1.0063 
2318.8000 2306.3572 -2240.6872  104.9890    8.6789    8.5000   57.0000    4.4955    0.1898    2.6333    0.0000    1.0000    0.7832    0.1344    0.0292    1.3000    0.9548 
2318.9000 2306.4566 -2240.7867   93.0658    8.6927    8.5000   57.0000    5.4447    0.1651    2.6372    0.0000    1.0000    0.5879    0.1169    0.0482    1.3000    0.8904 
2319.0000 2306.5561 -2240.8861   88.5773    8.6598    8.5000   57.0000    5.6959    0.1417    2.6388    0.0000    1.0000    0.5236    0.1003    0.0478    1.3000    0.9702 
2319.1000 2306.6555 -2240.9855   86.1423    8.6448    8.5000   57.0000    5.6880    0.1409    2.6398    0.0000    1.0000    0.4906    0.0997    0.0508    1.3000    0.9456 
2319.2000 2306.7549 -2241.0849   81.3486    8.6465    8.5000   57.0000    5.1908    0.1415    2.6399    0.0000    1.0000    0.4294    0.1002    0.0572    1.3000    0.8984 
2319.3000 2306.8543 -2241.1843   80.7990    8.6263    8.5000   57.0000    4.9417    0.1387    2.6378    0.0000    1.0000    0.4226    0.0982    0.0567    1.3000    0.9410 
2319.4000 2306.9537 -2241.2837   82.4020    8.6504    8.5000   57.0000    4.7567    0.1447    2.6378    0.0000    1.0000    0.4424    0.1025    0.0571    1.3000    0.9396 
2319.5000 2307.0531 -2241.3831   89.4781    8.6257    8.5000   57.0000    4.5420    0.1505    2.6344    0.0000    1.0000    0.5362    0.1067    0.0495    1.3000    1.0665 
2319.6000 2307.1526 -2241.4826   91.8521    8.6237    8.5000   57.0000    4.5265    0.1567    2.6379    0.0000    1.0000    0.5701    0.1109    0.0477    1.3000    1.0894 
2319.7000 2307.2520 -2241.5820   93.0200    8.6106    8.5000   57.0000    4.5820    0.1609    2.6331    0.0000    1.0000    0.5872    0.1140    0.0471    1.3000    1.0293 
2319.8000 2307.3514 -2241.6814   92.2414    8.6153    8.5000   57.0000    4.8181    0.1617    2.6298    0.0000    1.0000    0.5758    0.1147    0.0487    1.3000    0.9459 
2319.9000 2307.4508 -2241.7808   90.3865    8.6184    8.5000   57.0000    4.9122    0.1551    2.6240    0.0000    1.0000    0.5490    0.1103    0.0498    1.3000    0.9112 
2320.0000 2307.5502 -2241.8802   88.6460    8.6126    8.5000   57.0000    4.9396    0.1474    2.6241    0.0000    1.0000    0.5246    0.1049    0.0499    1.3000    0.9379 
2320.1000 2307.6496 -2241.9796   86.0278    8.6050    8.5000   57.0000    4.8140    0.1464    2.6133    0.0000    1.0000    0.4891    0.1049    0.0536    1.2798    0.8462 
2320.2000 2307.7490 -2242.0791   87.0736    8.6086    8.5000   57.0000    4.6912    0.1468    2.6088    0.0000    1.0000    0.5031    0.1056    0.0525    1.2992    0.8531 
2320.3000 2307.8485 -2242.1785   87.0965    8.6233    8.5000   57.0000    4.5294    0.1481    2.6049    0.0000    1.0000    0.5034    0.1068    0.0531    1.2466    0.8429 
2320.4000 2307.9479 -2242.2779   87.0583    8.6130    8.5000   57.0000    4.3289    0.1512    2.6066    0.0000    1.0000    0.5029    0.1088    0.0541    1.2409    0.8547 
2320.5000 2308.0473 -2242.3773   88.4018    8.6030    8.5000   57.0000    3.9020    0.1573    2.6134    0.0000    1.0000    0.5212    0.1125    0.0539    1.3000    0.9413 
2320.6000 2308.1467 -2242.4767   92.7910    8.5923    8.5000   57.0000    3.7319    0.1695    2.6149    0.0000    1.0000    0.5839    0.1210    0.0503    1.3000    0.9815 
2320.7000 2308.2461 -2242.5761   98.4167    8.5868    8.5000   57.0000    3.6192    0.1773    2.6178    0.0000    1.0000    0.6709    0.1263    0.0416    1.3000    1.0816 
2320.8000 2308.3455 -2242.6755  104.1875    8.6093    8.5000   57.0000    3.5651    0.1888    2.6127    0.0000    1.0000    0.7688    0.1346    0.0311    1.3000    1.0384 
2320.9000 2308.4450 -2242.7750  105.5157    8.6062    8.5000   57.0000    3.5980    0.2085    2.6136    0.0000    1.0000    0.7927    0.1484    0.0308    1.3000    1.0246 
2321.0000 2308.5444 -2242.8744  105.3936    8.6141    8.5000   57.0000    3.6607    0.2131    2.6078    0.0000    1.0000    0.7905    0.1520    0.0318    1.3000    0.9992 
2321.1000 2308.6438 -2242.9738  104.7829    8.6261    8.5000   57.0000    3.9058    0.2113    2.5969    0.0000    1.0000    0.7795    0.1515    0.0334    1.3000    0.8928 
2321.2000 2308.7432 -2243.0732  103.2181    8.6241    8.5000   57.0000    4.0821    0.1988    2.5874    0.0000    1.0000    0.7517    0.1436    0.0357    1.2455    0.7430 
2321.3000 2308.8426 -2243.1726  102.5616    8.6336    8.5000   57.0000    4.2257    0.2104    2.5860    0.0000    1.0000    0.7403    0.1518    0.0394    1.0677    0.6769 
2321.4000 2308.9420 -2243.2720   99.9205    8.6308    8.5000   57.0000    4.1111    0.2073    2.5870    0.0000    1.0000    0.6956    0.1495    0.0455    1.0233    0.6843 
2321.5000 2309.0415 -2243.3715   97.5236    8.6209    8.5000   57.0000    3.9113    0.2028    2.5885    0.0000    1.0000    0.6566    0.1463    0.0502    1.0137    0.7073 
