~VERSION INFORMATION
 VERS.                 2.0:   CWLS LOG ASCII STANDARD - VERSION 2.0
 WRAP.                  NO:   SINGLE LINE PER DEPTH STEP
 CREA.                 06/02/2020 16:08:49
#CREATED USING IP VERSION 4.5.2019.2902 BY RMOTA ON 06/02/2020 16:08:49
~WELL INFORMATION
#MNEM.UNIT       DATA                          DESCRIPTION MNEMONIC
#---------      ---------------------------   --------------------------
 STRT    .M         -0.4572                   : START DEPTH
 STOP    .M         3564.6360                 : STOP DEPTH
 STEP    .M         0.1524                    : STEP VALUE
 NULL    .      -999.0000                     : NULL VALUE
 DATE    .      06/02/2020                    : LAS file Creation Date
 WELL   .      7-MP-28D-BA        : Well Name
 COMP   .      PETROBRAS          : Company
 FLD    .      MASSAPE            : Field
 STATE  .      BAHIA              : State
 COUNT  .      BRASIL             : Country
 API    .      20240021354        : API Number
 UWI    .                         : Unique Well Identifier (UWI)
 LOC    .      N= 8.609.866,070 m : Location
 TOWN   .      CATU               : Township
 SCT    .      OH WIRELINE        : Section
 RANG   .      SCHLUMBERGER       : Range
 PDAT   .      NM                 : Permanent Datum
 EPDAT  .      0                  : Elevation of Permanent Datum
 LGMEA  .      MR                 : Log Measured from
 DRMEA  .      MR                 : Drill Measured From
 APDAT  .      105.72             : Elevation Above Permanent Datum
 KB     .      106.02             : KB Elevation
 DF     .      105.72             : DF Elevation
 GL     .      96.31999           : GL Elevation
 RWS    .      -999               : Def_Rw
 WST    .      -999               : Def_Rwt
 BHS    .      OPEN               : Completion Status
 PROV   .                         : Province
 SRVC   .                         : Contractor
 GDAT   .      WGS 84             : Geodatum
 LONG   .      -38.4270011107127  : Longitude
 LATI   .      -12.5743130556742  : Latitude
 COORDIN.                         : Grid System
 XCOORD .                         : X or East-West Coordinate
 YCOORD .                         : Y or North-South Coordinate
~CURVE INFORMATION
#MNEM              UNIT       API CODE   Curve Type Comments
#----------  --------------- ----------  ---------- -----------
 DEPTH      .M                         : Depth       
 BS         .in                        : BitSize     
 GR         .gAPI                      : GammaRay    
 CAL        .in                        : Caliper     
 RT         .ohm.m                     : DeepRes     
 NPHI       .m3/m3                     : Neutron     
 RHOB       .g/cm3                     :             
 DT         .us/ft                     : Sonic       
 SP         .mV                        : SP          Loaded from DLIS: 7-mp-28d-ba_raw-2p.dlis
 DRDN       .                          :             
 Lith_new   .                          :             
~A  DEPTH     BS        GR       CAL        RT       NPHI      RHOB       DT        SP       DRDN    Lith_new 
# ...
2680.7160    8.5000   35.3274    8.1841   31.4183    0.1661    2.3370   76.1351 -999.0000   -2.7243   49.0000 
2680.8684    8.5000   31.6431    8.1160   32.4499    0.1607    2.3388   75.0457 -999.0000   -2.8574   49.0000 
2681.0208    8.5000   33.8839    8.0251   34.7838    0.1447    2.3353   75.1920 -999.0000   -3.5102   49.0000 
2681.1732    8.5000   33.7025    8.0933   38.4564    0.1395    2.3359   76.9381 -999.0000   -3.6027   49.0000 
2681.3256    8.5000   32.5496    8.1614   38.6776    0.1400    2.3392   76.9810 -999.0000   -3.5242   49.0000 
2681.4780    8.5000   31.3370    8.1841   36.8105    0.1523    2.3449   75.3961 -999.0000   -2.9924   49.0000 
2681.6304    8.5000   30.5098    8.1841   36.3199    0.1646    2.3511   73.2706 -999.0000   -2.3979   49.0000 
2681.7828    8.5000   32.6972    8.2069   36.5683    0.1640    2.3723   68.0149 -999.0000   -1.9044   49.0000 
2681.9352    8.5000   33.7180    8.1955   37.6635    0.1454    2.4016   68.4651 -999.0000   -1.9123   49.0000 
2682.0876    8.5000   35.1515    8.2296   38.1635    0.1246    2.4196   70.9612 -999.0000   -2.4786   49.0000 
2682.2400    8.5000   32.5470    8.2296   38.6526    0.1245    2.4045   73.7867 -999.0000   -2.9195   49.0000 
2682.3924    8.5000   30.2963    8.0933   36.7721    0.1447    2.3783   76.6392 -999.0000   -2.7992   49.0000 
2682.5448    8.5000   27.6525    8.1728   34.5992    0.1635    2.3599   75.7471 -999.0000   -2.3707   49.0000 
2682.6972    8.5000   29.2462    8.2069   35.4116    0.1707    2.3626   72.9861 -999.0000   -2.0347   49.0000 
2682.8496    8.5000   34.4908    8.1387   34.6679    0.1687    2.3604   72.6790 -999.0000   -2.2173   49.0000 
2683.0020    8.5000   41.5806    8.1614   32.6078    0.1626    2.3536   72.2652 -999.0000   -2.5464   49.0000 
2683.1544    8.5000   43.0182    8.2069   29.5422    0.1549    2.3503   73.0999 -999.0000   -2.8090   49.0000 
2683.3068    8.5000   40.4855    8.2296   27.1712    0.1479    2.3603   75.4796 -999.0000   -2.7669   49.0000 
2683.4592    8.5000   37.6563    8.2523   25.3138    0.1438    2.3713   77.0126 -999.0000   -2.7241   49.0000 
2683.6116    8.5000   34.6071    8.2523   22.6554    0.1518    2.3771   76.6218 -999.0000   -2.4155   49.0000 
2683.7640    8.5000   33.7106    8.2523   26.2708    0.1537    2.3684   74.1732 -999.0000   -2.5656   49.0000 
2683.9164    8.5000   28.8760    8.1614   29.0124    0.1441    2.3653   71.7748 -999.0000   -2.8984   49.0000 
2684.0688    8.5000   30.5105    8.1614   31.8979    0.1300    2.3684   70.9294 -999.0000   -3.2128   49.0000 
2684.2212    8.5000   31.5417    8.1387   29.4977    0.1293    2.3842   71.2658 -999.0000   -2.8947   49.0000 
2684.3736    8.5000   34.7700    8.2182   25.5706    0.1186    2.4005   71.3809 -999.0000   -2.9365   49.0000 
2684.5260    8.5000   33.3554    8.3204   24.3234    0.1113    2.4105   72.0417 -999.0000   -3.0286   49.0000 
2684.6784    8.5000   32.7276    8.1614   23.0242    0.1076    2.4253   71.4444 -999.0000   -2.7710   49.0000 
2684.8308    8.5000   35.3179    8.1274   20.4636    0.1184    2.4457   67.9456 -999.0000   -1.9978   49.0000 
2684.9832    8.5000   38.7612    8.1841   18.9968    0.1261    2.4660   69.2846 -999.0000   -1.3833   49.0000 
2685.1356    8.5000   42.0162    8.1614   21.0332    0.1298    2.4724   72.6923 -999.0000   -1.2202   49.0000 
2685.2880    8.5000   44.4678    8.2750   20.4172    0.1348    2.4809   73.3604 -999.0000   -0.7650   25.0000 
2685.4404    8.5000   57.7485    8.2977   13.1558    0.1483    2.5034   75.9635 -999.0000    0.2095   54.0000 
2685.5928    8.5000   70.0328    8.3091    9.4960    0.1631    2.5440   76.4720 -999.0000    1.6270   57.0000 
2685.7452    8.5000   81.9029    8.3432    7.7664    0.2083    2.5762   79.1170 -999.0000    3.5933   57.0000 
2685.8976    8.5000   92.3920    8.3659    6.7524    0.2316    2.5962   75.5919 -999.0000    4.7451   57.0000 
2686.0500    8.5000   89.8500    8.3432    6.0226    0.2353    2.5953   75.3249 -999.0000    4.6651   57.0000 
2686.2024    8.5000   90.0518    8.3204    5.7899    0.2049    2.5901   82.2769 -999.0000    3.6385   57.0000 
2686.3548    8.5000   85.8770    8.2636    4.4313    0.2155    2.5925   79.4535 -999.0000    4.0681   57.0000 
2686.5072    8.5000   91.4935    8.3659    3.3198    0.2513    2.5981   80.3168 -999.0000    5.3672   57.0000 
2686.6596    8.5000   85.6438    8.3204    3.3766    0.2483    2.5988   76.9192 -999.0000    5.2347   57.0000 
2686.8120    8.5000   83.1125    8.2523    5.0016    0.2120    2.5976   68.0754 -999.0000    4.0561   57.0000 
2686.9644    8.5000   77.4083    8.2977    5.8918    0.1636    2.6078   62.3474 -999.0000    2.6747   57.0000 
2687.1168    8.5000   74.4196    8.3659    5.8564    0.1414    2.6131   58.2309 -999.0000    1.9832   57.0000 
2687.2692    8.5000   60.7836    8.3432    6.1751    0.1230    2.6089   54.2913 -999.0000    1.1936   57.0000 
2687.4216    8.5000   51.3647    8.2977    6.6478    0.1073    2.5962   63.9197 -999.0000    0.4604   57.0000 
2687.5740    8.5000   46.7167    8.3204    7.8488    0.0947    2.5955   67.5978 -999.0000    0.0621   54.0000 
2687.7264    8.5000   45.2737    8.3204    7.6001    0.0852    2.5885   64.9270 -999.0000   -0.4557   25.0000 
2687.8788    8.5000   47.8343    8.2296    7.3189    0.0771    2.5796   64.2519 -999.0000   -0.9138   25.0000 
2688.0312    8.5000   49.9718    8.3659    6.8207    0.0778    2.5688   61.0957 -999.0000   -1.0597   49.0000 
2688.1836    8.5000   55.2545    8.2523    6.3765    0.0841    2.5728   60.8568 -999.0000   -0.6794   25.0000 
2688.3360    8.5000   66.2003    8.2296    6.0132    0.0839    2.5859   64.1029 -999.0000   -0.3500   25.0000 
2688.4884    8.5000   79.3647    8.3886    6.3051    0.0993    2.6080   66.9713 -999.0000    0.6072   57.0000 
2688.6408    8.5000   91.7675    8.4227    5.5742    0.1461    2.6260   70.9518 -999.0000    2.4896   57.0000 
2688.7932    8.5000   96.5554    8.3204    4.6840    0.1859    2.6351   73.9775 -999.0000    3.9288   57.0000 
2688.9456    8.5000   99.5811    8.2523    4.0867    0.2321    2.6415   71.8573 -999.0000    5.6034   57.0000 
2689.0980    8.5000  104.3560    8.2977    3.5876    0.2266    2.6464   73.7809 -999.0000    5.5319   57.0000 
2689.2504    8.5000  101.1848    8.3318    3.5153    0.2311    2.6566   74.7857 -999.0000    5.8663   57.0000 
2689.4028    8.5000  100.9055    8.3659    3.6982    0.2069    2.6512   74.3040 -999.0000    4.8556   57.0000 
2689.5552    8.5000   94.8428    8.3659    4.0557    0.1908    2.6462   77.3286 -999.0000    4.2643   57.0000 
2689.7076    8.5000   92.7694    8.3659    4.5992    0.1973    2.6382   76.9721 -999.0000    4.2822   57.0000 
2689.8600    8.5000   92.2418    8.2296    5.3465    0.2071    2.6340   79.0536 -999.0000    4.5832   57.0000 
2690.0124    8.5000   85.9770    8.2977    5.9759    0.1907    2.6305   74.9269 -999.0000    3.9040   57.0000 
2690.1648    8.5000   81.2286    8.3886    6.5102    0.1647    2.6274   72.8364 -999.0000    3.0880   57.0000 
2690.3172    8.5000   74.8229    8.2977    7.5057    0.1543    2.6335   74.1169 -999.0000    2.7997   57.0000 
2690.4696    8.5000   84.4579    8.3886    8.9225    0.1923    2.6291   72.8855 -999.0000    3.9991   57.0000 
2690.6220    8.5000   98.1417    8.4340    7.0357    0.2267    2.6319   78.4147 -999.0000    5.1725   57.0000 
2690.7744    8.5000  108.7834    8.4567    5.8486    0.2663    2.6266   78.9038 -999.0000    6.4099   57.0000 
2690.9268    8.5000  105.7577    8.3999    5.5415    0.2793    2.6318   77.2087 -999.0000    6.9805   57.0000 
2691.0792    8.5000  101.9893    8.2864    5.9849    0.2798    2.6364   79.1012 -999.0000    7.1198   57.0000 
2691.2316    8.5000   96.8040    8.3886    6.0142    0.2577    2.6492   73.4562 -999.0000    6.6301   57.0000 
2691.3840    8.5000   96.8637    8.3886    5.9231    0.2430    2.6523   79.6595 -999.0000    6.1465   57.0000 
2691.5364    8.5000   98.1516    8.3659    5.5825    0.2415    2.6468   81.0678 -999.0000    5.8999   57.0000 
2691.6888    8.5000   93.4602    8.5022    5.0672    0.2175    2.6350   73.5340 -999.0000    4.9052   57.0000 
