~VERSION INFORMATION
 VERS.                 2.0:   CWLS LOG ASCII STANDARD - VERSION 2.0
 WRAP.                  NO:   SINGLE LINE PER DEPTH STEP
 CREA.                 06/02/2020 16:33:07
#CREATED USING IP VERSION 4.5.2019.2902 BY RMOTA ON 06/02/2020 16:33:07
~WELL INFORMATION
#MNEM.UNIT       DATA                          DESCRIPTION MNEMONIC
#---------      ---------------------------   --------------------------
 STRT    .M         500.8250                  : START DEPTH
 STOP    .M         3050.8250                 : STOP DEPTH
 STEP    .M         0.1000                    : STEP VALUE
 NULL    .      -999.0000                     : NULL VALUE
 DATE    .      06/02/2020                    : LAS file Creation Date
 WELL   .      7-MP-34D-BA     : Well Name
 COMP   .      PETROBRAS       : Company
 FLD    .      MASSAPE         : Field
 STATE  .      BAHIA           : State
 API    .      20240022160     : API Number
 UWI    .                      : Unique Well Identifier (UWI)
 LOC    .                      : Location
 PDAT   .      NM              : Permanent Datum
 EPDAT  .      0.0             : Elevation of Permanent Datum
 LGMEA  .      MR              : Log Measured from
 DRMEA  .      MR              : Drill Measured From
 APDAT  .      65.65           : Elevation Above Permanent Datum
 KB     .      65.95           : KB Elevation
 DF     .      65.65           : DF Elevation
 RWS    .      -999            : Def_Rw
 WST    .      -999            : Def_Rwt
 PROV   .                      : Province
 SRVC   .                      : Contractor
 GDAT   .      WGS 84          : Geodatum
 LONG   .      -38.435477499961: Longitude
 LATI   .      0               : Latitude
 COORDIN.                      : Grid System
 XCOORD .                      : X or East-West Coordinate
 YCOORD .                      : Y or North-South Coordinate
~CURVE INFORMATION
#MNEM              UNIT       API CODE   Curve Type Comments
#----------  --------------- ----------  ---------- -----------
 DEPTH      .M                         : Depth       
 CAL        .inch                      : Caliper     
 BS         .in                        : BitSize     
 GR         .gAPI                      : GammaRay    
 ILD        .ohm.m                     : DeepRes     
 RHOB       .G/CC                      : Density     
 NPHI       .dec                       : Neutron     
 DT         .uS/ft                     : Sonic       
 DRDN       .                          :             
 Lith_new   .                          :             
~A  DEPTH    CAL        BS        GR       ILD       RHOB      NPHI       DT       DRDN    Lith_new 
# ...
2364.8250    9.0088    8.5000   86.1349    5.2367    2.5792    0.1919   83.6444    2.9810   57.0000 
2364.9250    9.0852    8.5000   84.6232    5.2962    2.5850    0.1895   88.6760    3.0175   57.0000 
2365.0250    9.1158    8.5000   85.2833    5.2565    2.5967    0.1917   96.0760    3.3238   57.0000 
2365.1250    9.0929    8.5000   85.8181    5.2129    2.6006    0.1976  102.1699    3.5981   57.0000 
2365.2250    9.0165    8.5000   85.3106    5.2508    2.5887    0.2046  102.3775    3.5946   57.0000 
2365.3250    8.9706    8.5000   84.2252    5.4273    2.5729    0.2110   97.0536    3.4902   57.0000 
2365.4250    8.9324    8.5000   84.1422    5.7669    2.5599    0.2186   90.2582    3.4858   57.0000 
2365.5250    8.9630    8.5000   86.8939    6.2562    2.5561    0.2283   86.3020    3.7327   57.0000 
2365.6250    9.0165    8.5000   89.6879    6.8880    2.5541    0.2401   85.4500    4.0850   57.0000 
2365.7250    9.0470    8.5000   89.8811    7.7458    2.5534    0.2440   86.4816    4.2002   57.0000 
2365.8250    9.1005    8.5000   85.7122    9.0593    2.5545    0.2349   86.5372    3.9204   57.0000 
2365.9250    9.0776    8.5000   77.9232   11.1625    2.5548    0.2108   85.0388    3.1231   57.0000 
2366.0250    9.0623    8.5000   70.5967   14.3360    2.5540    0.1816   82.1449    2.1356   57.0000 
2366.1250    9.0547    8.5000   65.1075   17.2982    2.5521    0.1586   78.6122    1.3294   57.0000 
2366.2250    8.9783    8.5000   63.2878   16.1844    2.5531    0.1526   75.8372    1.1504   57.0000 
2366.3250    8.8866    8.5000   66.3360   12.3727    2.5610    0.1652   75.1939    1.7275   57.0000 
2366.4250    8.8636    8.5000   73.6342    8.6952    2.5635    0.1943   77.0143    2.7450   57.0000 
2366.5250    8.9248    8.5000   85.3768    6.0757    2.5586    0.2307   80.8041    3.8627   57.0000 
2366.6250    9.0165    8.5000  100.2717    4.6138    2.5447    0.2679   85.4469    4.8245   57.0000 
2366.7250    9.1463    8.5000  112.6303    3.9160    2.5329    0.3001   90.0469    5.6625   57.0000 
2366.8250    9.2075    8.5000  120.6116    3.5919    2.5210    0.3246   94.3449    6.2415   57.0000 
2366.9250    9.2151    8.5000  123.5521    3.4640    2.5088    0.3387   98.2046    6.4661   57.0000 
2367.0250    9.2075    8.5000  120.7802    3.4648    2.4987    0.3388  101.2719    6.2676   57.0000 
2367.1250    9.1846    8.5000  116.3130    3.6013    2.4986    0.3284  103.2709    5.9184   57.0000 
2367.2250    9.1463    8.5000  110.2908    3.9393    2.5070    0.3135  106.1770    5.5905   57.0000 
2367.3250    9.1234    8.5000  102.4771    4.5875    2.5209    0.2967  107.8760    5.3083   57.0000 
2367.4250    9.0852    8.5000   96.1972    5.6137    2.5325    0.2774  108.1541    4.8955   57.0000 
2367.5250    9.0623    8.5000   92.3918    6.9112    2.5440    0.2571  105.2056    4.4522   57.0000 
2367.6250    9.0852    8.5000   91.3805    7.9245    2.5476    0.2450   98.0485    4.1196   57.0000 
2367.7250    9.1081    8.5000   93.2894    8.4562    2.5403    0.2445   91.8082    3.9560   57.0000 
2367.8250    9.1081    8.5000   94.3210    8.4302    2.5190    0.2515   86.9189    3.7626   57.0000 
2367.9250    9.0776    8.5000   91.7053    8.1154    2.4994    0.2550   85.6760    3.4859   57.0000 
2368.0250    9.0241    8.5000   87.1657    8.0576    2.4927    0.2463   86.0832    3.0634   57.0000 
2368.1250    8.9630    8.5000   80.2751    8.6411    2.5001    0.2243   86.3689    2.4784   57.0000 
2368.2250    8.9477    8.5000   71.8790   10.4489    2.5122    0.1925   85.9199    1.6623   57.0000 
2368.3250    8.9171    8.5000   63.5128   14.8692    2.5281    0.1575   84.2464    0.8115   57.0000 
2368.4250    8.9018    8.5000   55.5226   22.8312    2.5449    0.1249   81.6291    0.0608   54.0000 
2368.5250    8.8866    8.5000   50.2497   24.8510    2.5564    0.1021   78.8490   -0.4693   25.0000 
2368.6250    8.9095    8.5000   48.4600   27.8219    2.5518    0.0958   76.9480   -0.7703   25.0000 
2368.7250    8.9630    8.5000   50.2338   27.3244    2.5352    0.1050   78.5286   -0.7949   25.0000 
2368.8250    8.9859    8.5000   53.6085   23.4367    2.5177    0.1225   81.3480   -0.5619   25.0000 
2368.9250    8.9706    8.5000   58.0713   15.7021    2.5096    0.1380   85.4143   -0.2092   54.0000 
2369.0250    8.9477    8.5000   65.2355   10.8169    2.5146    0.1486   85.7577    0.2454   54.0000 
2369.1250    8.8942    8.5000   73.9687    8.0352    2.5294    0.1564   83.0153    0.7992   57.0000 
2369.2250    8.8713    8.5000   82.2872    6.5612    2.5471    0.1625   80.8199    1.3594   57.0000 
2369.3250    8.8484    8.5000   86.2620    5.8826    2.5592    0.1633   81.6332    1.6281   57.0000 
2369.4250    8.8407    8.5000   82.0842    5.7994    2.5606    0.1529   87.2434    1.3070   57.0000 
2369.5250    8.8407    8.5000   71.7846    6.2913    2.5554    0.1320   95.2260    0.5063   57.0000 
2369.6250    8.8866    8.5000   60.2105    7.4292    2.5486    0.1088  101.9474   -0.4016   25.0000 
2369.7250    8.8942    8.5000   52.3649    9.2870    2.5424    0.0960  105.4306   -0.9539   25.0000 
2369.8250    8.8636    8.5000   51.7462   11.6292    2.5324    0.0996  104.4332   -1.0323   49.0000 
2369.9250    8.8484    8.5000   57.4070   13.6190    2.5201    0.1200   99.7908   -0.5961   25.0000 
2370.0250    8.7872    8.5000   66.6214   14.2191    2.5073    0.1521   93.5985    0.2175   54.0000 
2370.1250    8.7796    8.5000   76.0228   13.8720    2.5003    0.1898   88.2168    1.3309   57.0000 
2370.2250    8.8254    8.5000   82.5932   13.7775    2.4966    0.2234   84.8041    2.3779   57.0000 
2370.3250    8.8254    8.5000   84.9912   14.5782    2.4995    0.2410   82.7949    3.0223   57.0000 
2370.4250    8.8254    8.5000   81.4417   17.8513    2.4993    0.2352   81.3485    2.8275   57.0000 
2370.5250    8.8713    8.5000   73.6898   25.3748    2.4936    0.2082   79.6423    1.8106   57.0000 
2370.6250    8.8636    8.5000   63.8358   40.0028    2.4791    0.1706   76.7954    0.2702   54.0000 
2370.7250    8.8407    8.5000   53.4911   41.4093    2.4697    0.1336   73.2179   -1.1537   49.0000 
2370.8250    8.8713    8.5000   46.1293   52.0123    2.4725    0.1031   69.0219   -2.1127   49.0000 
2370.9250    8.8407    8.5000   41.5932   56.5905    2.4902    0.0808   64.8571   -2.5046   49.0000 
2371.0250    8.8254    8.5000   39.2317   49.6564    2.5159    0.0657   61.6255   -2.4939   49.0000 
2371.1250    8.8713    8.5000   38.8937   70.1764    2.5457    0.0573   59.5291   -2.1769   49.0000 
2371.2250    8.8407    8.5000   39.0454   45.6757    2.5698    0.0563   59.1709   -1.7271   49.0000 
2371.3250    8.8789    8.5000   41.0787   24.5555    2.5827    0.0642   60.0485   -1.2064   49.0000 
2371.4250    8.9400    8.5000   46.8432   14.3666    2.5816    0.0838   62.2005   -0.5733   25.0000 
2371.5250    8.9400    8.5000   56.4378    8.4919    2.5778    0.1154   65.7847    0.4023   57.0000 
2371.6250    8.9706    8.5000   70.9073    5.5419    2.5764    0.1592   70.4403    1.8338   57.0000 
2371.7250    8.9171    8.5000   86.8030    3.9973    2.5765    0.2089   76.1352    3.4936   57.0000 
2371.8250    8.8713    8.5000  100.9353    3.1946    2.5721    0.2563   82.1107    4.9866   57.0000 
2371.9250    8.8484    8.5000  111.8237    2.7945    2.5634    0.2879   87.6464    5.8653   57.0000 
2372.0250    8.8560    8.5000  116.9792    2.6573    2.5584    0.2973   91.8189    6.0772   57.0000 
2372.1250    8.8713    8.5000  116.5451    2.7320    2.5583    0.2847   93.6041    5.6571   57.0000 
2372.2250    8.8789    8.5000  110.2422    3.0056    2.5652    0.2558   92.7454    4.8307   57.0000 
2372.3250    8.8789    8.5000   99.9417    3.4585    2.5715    0.2192   89.7638    3.7366   57.0000 
2372.4250    8.8407    8.5000   89.2228    3.9609    2.5815    0.1855   85.8582    2.8139   57.0000 
2372.5250    8.8636    8.5000   80.8231    4.1694    2.5936    0.1670   82.2857    2.4374   57.0000 
2372.6250    8.8713    8.5000   78.8110    3.8220    2.6038    0.1685   79.9628    2.6917   57.0000 
2372.7250    8.8407    8.5000   82.1222    3.1621    2.5998    0.1860   79.7362    3.1953   57.0000 
