~VERSION INFORMATION
 VERS.                 2.0:   CWLS LOG ASCII STANDARD - VERSION 2.0
 WRAP.                  NO:   SINGLE LINE PER DEPTH STEP
 CREA.                 30/01/2020 17:28:45
#CREATED USING IP VERSION 4.5.2019.2902 BY RMOTA ON 30/01/2020 17:28:45
~WELL INFORMATION
#MNEM.UNIT       DATA                          DESCRIPTION MNEMONIC
#---------      ---------------------------   --------------------------
 STRT    .M         5.0000                    : START DEPTH
 STOP    .M         2977.0000                 : STOP DEPTH
 STEP    .M         0.1000                    : STEP VALUE
 NULL    .      -999.0000                     : NULL VALUE
 DATE    .      30/01/2020                    : LAS file Creation Date
 WELL   .      7-MP-53D-BA      : Well Name
 COMP   .      PETROBRAS        : Company
 FLD    .      MASSAPE          : Field
 STATE  .      BAHIA            : State
 API    .      20240027945      : API Number
 UWI    .                       : Unique Well Identifier (UWI)
 LOC    .                       : Location
 TOWN   .      -999.25          : Township
 SCT    .      -999.25          : Section
 RANG   .      -999.25          : Range
 PDAT   .      NM               : Permanent Datum
 EPDAT  .      0.00             : Elevation of Permanent Datum
 LGMEA  .      MR               : Log Measured from
 DRMEA  .      MR               : Drill Measured From
 APDAT  .      64.90            : Elevation Above Permanent Datum
 KB     .      -999.25          : KB Elevation
 DF     .      64.90            : DF Elevation
 GL     .      56.80            : GL Elevation
 RWS    .      -999             : Def_Rw
 WST    .      -999             : Def_Rwt
 PROV   .                       : Province
 SRVC   .                       : Contractor
 GDAT   .      WGS 84           : Geodatum
 LONG   .      -38.4325436115265: Longitude
 LATI   .      0                : Latitude
 COORDIN.                       : Grid System
 XCOORD .                       : X or East-West Coordinate
 YCOORD .                       : Y or North-South Coordinate
~CURVE INFORMATION
#MNEM              UNIT       API CODE   Curve Type Comments
#----------  --------------- ----------  ---------- -----------
 DEPTH      .M                         : Depth       
 DEPTH      .M                         : Depth       
 DRDN       .                          :             
 GR         .api                       : GammaRay    
 CAL        .in                        : Caliper     
 Res        .                          :             
 N_Res      .                          :             
 ILD        .ohmm                      : DeepRes     
 RHOB       .g/cc                      : Density     Loaded from DLIS: 7-mp-53d-ba_raw-3.dlis
 NPHI       .dec                       : Neutron     Loaded from DLIS: 7-mp-53d-ba_raw-3.dlis
 Lith_new   .                          :             
~A  DEPTH   DEPTH      DRDN       GR       CAL       Res      N_Res      ILD       RHOB      NPHI    Lith_new 
# ...
2603.8000 2603.8000    1.5368   91.5413    8.6411    0.0000    1.0000    7.4715    2.5932    0.1402   57.0000 
2603.9000 2603.9000    1.2625   86.0544    8.6482    0.0000    1.0000    7.6586    2.5895    0.1342   57.0000 
2604.0000 2604.0000    1.4763   80.4656    8.6409    0.0000    1.0000    8.1843    2.5939    0.1380   57.0000 
2604.1000 2604.1000    1.7045   80.2144    8.6283    0.0000    1.0000    8.4193    2.5968    0.1431   57.0000 
2604.2000 2604.2000    1.6950   78.7936    8.6300    0.0000    1.0000    8.5133    2.6032    0.1389   57.0000 
2604.3000 2604.3000    1.5030   74.7433    8.6331    0.0000    1.0000    8.2141    2.6038    0.1328   57.0000 
2604.4000 2604.4000    1.4882   72.4826    8.6524    0.0000    1.0000    7.9869    2.6054    0.1314   57.0000 
2604.5000 2604.5000    1.5285   73.6051    8.6713    0.0000    1.0000    7.8494    2.6026    0.1343   57.0000 
2604.6000 2604.6000    1.2043   76.0934    8.6728    0.0000    1.0000    7.8527    2.5963    0.1283   57.0000 
2604.7000 2604.7000    1.1132   81.6587    8.6555    0.0000    1.0000    8.3417    2.5946    0.1266   57.0000 
2604.8000 2604.8000    1.0310   80.8737    8.6726    0.0000    1.0000    8.8857    2.5972    0.1226   57.0000 
2604.9000 2604.9000    0.9197   77.3572    8.6765    0.0000    1.0000    9.6574    2.6055    0.1143   57.0000 
2605.0000 2605.0000    0.8395   67.3098    8.7057    0.0000    1.0000   11.0871    2.6071    0.1109   57.0000 
2605.1000 2605.1000    0.6325   63.8560    8.7397    0.0000    1.0000   10.8765    2.6070    0.1048   57.0000 
2605.2000 2605.2000    0.8742   63.2201    8.6922    0.0000    1.0000    9.8728    2.6109    0.1097   57.0000 
2605.3000 2605.3000    2.0595   68.1261    8.6561    0.0000    1.0000    7.4467    2.6228    0.1381   57.0000 
2605.4000 2605.4000    2.6354   73.5815    8.6621    0.0000    1.0000    6.6684    2.6290    0.1517   57.0000 
2605.5000 2605.5000    2.7130   80.4734    8.6709    0.0000    1.0000    6.2127    2.6326    0.1518   57.0000 
2605.6000 2605.6000    2.6789   92.5303    8.6591    0.0000    1.0000    6.0241    2.6309    0.1518   57.0000 
2605.7000 2605.7000    2.5596   95.6544    8.6510    0.0000    1.0000    6.1971    2.6342    0.1463   57.0000 
2605.8000 2605.8000    2.5411   95.6230    8.6494    0.0000    1.0000    6.4827    2.6367    0.1442   57.0000 
2605.9000 2605.9000    2.5233   91.1959    8.6399    0.0000    1.0000    6.9963    2.6321    0.1464   57.0000 
2606.0000 2606.0000    2.3487   87.9383    8.6398    0.0000    1.0000    7.0330    2.6210    0.1479   57.0000 
2606.1000 2606.1000    2.0762   85.6306    8.6460    0.0000    1.0000    6.9353    2.6117    0.1453   57.0000 
2606.2000 2606.2000    1.9667   84.5944    8.6597    0.0000    1.0000    6.8157    2.6088    0.1437   57.0000 
2606.3000 2606.3000    2.0815   87.3025    8.6660    0.0000    1.0000    6.9542    2.6109    0.1459   57.0000 
2606.4000 2606.4000    1.8341   89.3512    8.6518    0.0000    1.0000    7.3404    2.6083    0.1400   57.0000 
2606.5000 2606.5000    1.1563   91.5648    8.6465    0.0000    1.0000    8.0393    2.5959    0.1271   57.0000 
2606.6000 2606.6000    0.7931   89.1472    8.6422    0.0000    1.0000   11.0309    2.5916    0.1188   57.0000 
2606.7000 2606.7000    0.4939   82.3966    8.6480    0.0000    1.0000   13.5799    2.5917    0.1098   57.0000 
2606.8000 2606.8000    0.1504   73.4873    8.6432    0.0000    1.0000   16.5115    2.5953    0.0973   54.0000 
2606.9000 2606.9000   -0.3475   58.2043    8.6371    0.0000    1.0000   19.4140    2.5939    0.0832   25.0000 
2607.0000 2607.0000   -0.2922   56.4695    8.6392    0.0000    1.0000   18.2387    2.5940    0.0848   54.0000 
2607.1000 2607.1000   -0.2276   57.0033    8.6424    0.0000    1.0000   16.2255    2.5912    0.0885   54.0000 
2607.2000 2607.2000    0.5592   60.8103    8.6580    0.0000    1.0000   12.1742    2.5971    0.1085   57.0000 
2607.3000 2607.3000    0.9340   61.9407    8.6420    0.0000    1.0000   10.5030    2.5964    0.1202   57.0000 
2607.4000 2607.4000    1.2702   64.2720    8.6347    0.0000    1.0000    9.2575    2.6008    0.1276   57.0000 
2607.5000 2607.5000    1.7448   71.7212    8.6409    0.0000    1.0000    8.3228    2.6099    0.1364   57.0000 
2607.6000 2607.6000    1.6695   75.9521    8.6539    0.0000    1.0000    8.5645    2.6168    0.1300   57.0000 
2607.7000 2607.7000    1.3953   78.8957    8.6639    0.0000    1.0000    9.1441    2.6168    0.1218   57.0000 
2607.8000 2607.8000    0.9074   80.6069    8.6615    0.0000    1.0000    9.8956    2.6049    0.1143   57.0000 
2607.9000 2607.9000    0.7275   76.2425    8.6547    0.0000    1.0000   11.2164    2.5999    0.1119   57.0000 
2608.0000 2608.0000    0.5819   71.8703    8.6671    0.0000    1.0000   11.6271    2.6017    0.1064   57.0000 
2608.1000 2608.1000    0.6892   68.2674    8.6398    0.0000    1.0000   11.9514    2.6197    0.0989   57.0000 
2608.2000 2608.2000    0.7732   71.6191    8.6462    0.0000    1.0000   12.7501    2.6297    0.0954   57.0000 
2608.3000 2608.3000    0.8830   74.6726    8.6584    0.0000    1.0000   13.3379    2.6370    0.0943   57.0000 
2608.4000 2608.4000    0.9630   76.1954    8.6651    0.0000    1.0000   13.9788    2.6412    0.0942   57.0000 
2608.5000 2608.5000    1.1618   73.6443    8.6756    0.0000    1.0000   14.2179    2.6395    0.1012   57.0000 
2608.6000 2608.6000    1.1758   73.4559    8.6625    0.0000    1.0000   13.3299    2.6338    0.1050   57.0000 
2608.7000 2608.7000    1.1868   74.3665    8.6303    0.0000    1.0000   11.9387    2.6280    0.1088   57.0000 
2608.8000 2608.8000    1.8212   82.1218    8.6321    0.0000    1.0000    8.9997    2.6234    0.1306   57.0000 
2608.9000 2608.9000    2.2238   85.9367    8.6406    0.0000    1.0000    7.7419    2.6265    0.1408   57.0000 
2609.0000 2609.0000    2.6799   87.2554    8.6486    0.0000    1.0000    6.6238    2.6326    0.1508   57.0000 
2609.1000 2609.1000    3.7381   88.6997    8.6458    0.0000    1.0000    4.8597    2.6377    0.1795   57.0000 
2609.2000 2609.2000    4.2424   92.1300    8.6430    0.0000    1.0000    4.2392    2.6354    0.1960   57.0000 
2609.3000 2609.3000    4.8468   97.7188    8.6469    0.0000    1.0000    3.7724    2.6286    0.2182   57.0000 
2609.4000 2609.4000    4.8475  103.9671    8.6550    0.0000    1.0000    3.4292    2.6137    0.2272   57.0000 
2609.5000 2609.5000    4.9668  114.4070    8.6626    0.0000    1.0000    2.9936    2.6082    0.2341   57.0000 
2609.6000 2609.6000    4.9029  119.7054    8.6540    0.0000    1.0000    2.8554    2.6047    0.2343   57.0000 
2609.7000 2609.7000    5.4111  124.0148    8.6532    0.0000    1.0000    2.7557    2.6081    0.2475   57.0000 
2609.8000 2609.8000    5.3552  127.6177    8.6487    0.0000    1.0000    2.6697    2.6128    0.2430   57.0000 
2609.9000 2609.9000    4.9389  127.0290    8.6604    0.0000    1.0000    2.6902    2.6171    0.2279   57.0000 
2610.0000 2610.0000    5.1637  125.7260    8.6489    0.0000    1.0000    2.7577    2.6204    0.2327   57.0000 
2610.1000 2610.1000    5.7223  123.6694    8.6438    0.0000    1.0000    3.0293    2.6234    0.2476   57.0000 
2610.2000 2610.2000    5.6243  122.2015    8.6554    0.0000    1.0000    3.2115    2.6264    0.2429   57.0000 
2610.3000 2610.3000    5.4845  121.6050    8.6496    0.0000    1.0000    3.3947    2.6280    0.2377   57.0000 
2610.4000 2610.4000    4.9406  119.5092    8.6469    0.0000    1.0000    3.7299    2.6291    0.2208   57.0000 
2610.5000 2610.5000    4.5911  118.1355    8.6460    0.0000    1.0000    3.9365    2.6277    0.2111   57.0000 
2610.6000 2610.6000    4.2237  115.2390    8.6468    0.0000    1.0000    4.2481    2.6271    0.2005   57.0000 
2610.7000 2610.7000    3.2682  106.2670    8.6495    0.0000    1.0000    5.3501    2.6257    0.1726   57.0000 
2610.8000 2610.8000    2.7175  101.4552    8.6391    0.0000    1.0000    6.0640    2.6243    0.1569   57.0000 
2610.9000 2610.9000    2.3993   96.4315    8.6378    0.0000    1.0000    6.7302    2.6220    0.1488   57.0000 
2611.0000 2611.0000    2.5363   92.3655    8.6452    0.0000    1.0000    7.2123    2.6236    0.1519   57.0000 
