~VERSION INFORMATION
 VERS.                 2.0:   CWLS LOG ASCII STANDARD - VERSION 2.0
 WRAP.                  NO:   SINGLE LINE PER DEPTH STEP
 CREA.                 06/02/2020 16:07:36
#CREATED USING IP VERSION 4.5.2019.2902 BY RMOTA ON 06/02/2020 16:07:36
~WELL INFORMATION
#MNEM.UNIT       DATA                          DESCRIPTION MNEMONIC
#---------      ---------------------------   --------------------------
 STRT    .M         18.4404                   : START DEPTH
 STOP    .M         3544.2144                 : STOP DEPTH
 STEP    .M         0.1524                    : STEP VALUE
 NULL    .      -999.0000                     : NULL VALUE
 DATE    .      06/02/2020                    : LAS file Creation Date
 WELL   .      7-MP-25-BA         : Well Name
 COMP   .      PETROBRAS          : Company
 FLD    .      MASSAPE            : Field
 STATE  .      20240021268        : State
 COUNT  .      BRASIL             : Country
 API    .      20240021268        : API Number
 UWI    .                         : Unique Well Identifier (UWI)
 LOC    .      N= 8.607.478,570 m : Location
 TOWN   .      CTU                : Township
 SCT    .      OH WIRELINE        : Section
 RANG   .      SCHLUMBERGER       : Range
 PDAT   .      NM                 : Permanent Datum
 EPDAT  .      0                  : Elevation of Permanent Datum
 LGMEA  .      MR                 : Log Measured from
 DRMEA  .      MR                 : Drill Measured From
 APDAT  .      65.76              : Elevation Above Permanent Datum
 KB     .      66.06              : KB Elevation
 DF     .      65.76              : DF Elevation
 GL     .      56.36              : GL Elevation
 RWS    .      -999               : Def_Rw
 WST    .      -999               : Def_Rwt
 BHS    .      OPEN               : Completion Status
 PROV   .                         : Province
 MDEC   .      -23.10323          : Magnetic Declination
 SRVC   .                         : Contractor
 GDAT   .      WGS 84             : Geodatum
 LONG   .      -38.4344958333174  : Longitude
 LATI   .      -12.5959183332655  : Latitude
 COORDIN.                         : Grid System
 XCOORD .                         : X or East-West Coordinate
 YCOORD .                         : Y or North-South Coordinate
~CURVE INFORMATION
#MNEM              UNIT       API CODE   Curve Type Comments
#----------  --------------- ----------  ---------- -----------
 DEPTH      .M                         : Depth       
 BS         .in                        : BitSize     
 GR         .gAPI                      : GammaRay    
 CAL        .inch                      : Caliper     
 RT         .ohm.m                     : DeepRes     
 NPHI       .m3/m3                     : Neutron     
 RHOB       .g/cm3                     : Density     
 DT         .us/ft                     : Sonic       
 SP         .mV                        : SP          
 DRDN       .                          :             
 Lith_new   .                          :             
~A  DEPTH     BS        GR       CAL        RT       NPHI      RHOB       DT        SP       DRDN    Lith_new 
# ...
 875.0808 -999.0000   68.4205 -999.0000    7.3005 -999.0000    2.0439   66.9990  125.1875 -999.0000 -999.0000 
 875.2332 -999.0000   68.7307 -999.0000    6.8954 -999.0000    2.1679   66.1571  126.0000 -999.0000 -999.0000 
 875.3856 -999.0000   67.0276 -999.0000    6.5676 -999.0000    2.3124   56.5138  125.3750 -999.0000 -999.0000 
 875.5380 -999.0000   68.1489 -999.0000    6.2898 -999.0000    2.4305   56.8574  122.6250 -999.0000 -999.0000 
 875.6904 -999.0000   65.4257 -999.0000    6.1560 -999.0000    2.4541   56.8528  118.1250 -999.0000 -999.0000 
 875.8428 -999.0000   59.6839 -999.0000    6.2298 -999.0000    2.4586   56.7686  119.6250 -999.0000 -999.0000 
 875.9952 -999.0000   59.3280 -999.0000    6.2364 -999.0000    2.4723   56.7063  116.3750 -999.0000 -999.0000 
 876.1476 -999.0000   60.4328 -999.0000    6.0027 -999.0000    2.4998   56.6168  117.5625 -999.0000 -999.0000 
 876.3000 -999.0000   62.4369 -999.0000    5.8474 -999.0000    2.5278   56.5500  119.0625 -999.0000 -999.0000 
 876.4524 -999.0000   58.7650 -999.0000    5.7536 -999.0000    2.5835   56.4382  119.5000 -999.0000 -999.0000 
 876.6048 -999.0000   58.5954 -999.0000    5.7265 -999.0000    2.6616   56.2741  123.1875 -999.0000 -999.0000 
 876.7572 -999.0000   58.9692 -999.0000    5.7335 -999.0000    2.8054   56.3240  122.0625 -999.0000 -999.0000 
 876.9096 -999.0000   61.1281 -999.0000    5.7524 -999.0000    3.1746   56.2610  117.5625 -999.0000 -999.0000 
 877.0620 -999.0000   62.2431 -999.0000    5.8022 -999.0000    3.6200   56.4630  120.7500 -999.0000 -999.0000 
 877.2144 -999.0000   66.5414 -999.0000    5.8160 -999.0000    4.0083   56.6042  130.1875 -999.0000 -999.0000 
 877.3668 -999.0000   75.3249 -999.0000    5.7746 -999.0000    4.1391   56.8661  130.4375 -999.0000 -999.0000 
 877.5192 -999.0000   79.2600 -999.0000    5.8610 -999.0000    4.1619   56.7228  131.5000 -999.0000 -999.0000 
 877.6716 -999.0000   85.3865 -999.0000    5.8871 -999.0000    4.1652   56.8771  129.0625 -999.0000 -999.0000 
 877.8240 -999.0000   82.2094 -999.0000    5.8557 -999.0000    4.1518   56.5751  126.6875 -999.0000 -999.0000 
 877.9764 -999.0000   80.6929 -999.0000    5.6912 -999.0000    4.1211   56.3493  124.5000 -999.0000 -999.0000 
 878.1288 -999.0000   74.7534 -999.0000    5.8157 -999.0000    4.0789   56.4321  128.0000 -999.0000 -999.0000 
 878.2812 -999.0000   68.2283 -999.0000    6.1992 -999.0000    4.0368   56.2617  132.0625 -999.0000 -999.0000 
 878.4336 -999.0000   66.3146 -999.0000    6.4403 -999.0000    4.0013   56.2896  132.5625 -999.0000 -999.0000 
 878.5860 -999.0000   60.7081 -999.0000    6.5308 -999.0000    3.9689   56.2728  132.8125 -999.0000 -999.0000 
 878.7384 -999.0000   58.4496 -999.0000    6.6705 -999.0000    3.9385   56.3710  132.8125 -999.0000 -999.0000 
 878.8908 -999.0000   59.2420 -999.0000    6.6840 -999.0000    3.9137   56.3059  133.1875 -999.0000 -999.0000 
 879.0432 -999.0000   57.6623 -999.0000    6.5673 -999.0000    3.8992   56.4497  135.1875 -999.0000 -999.0000 
 879.1956 -999.0000   59.3597 -999.0000    6.3466 -999.0000    3.8907   56.4525  137.4375 -999.0000 -999.0000 
 879.3480 -999.0000   55.9958 -999.0000    6.0827 -999.0000    3.8836   56.5507  136.9375 -999.0000 -999.0000 
 879.5004 -999.0000   59.2574 -999.0000    6.0819 -999.0000    3.8775   56.4424  136.4375 -999.0000 -999.0000 
 879.6528 -999.0000   66.1507 -999.0000    6.2069 -999.0000    3.8702   56.1223  136.6250 -999.0000 -999.0000 
 879.8052 -999.0000   64.2819 -999.0000    6.3730 -999.0000    3.8609   56.3328  136.0625 -999.0000 -999.0000 
 879.9576 -999.0000   65.3955 -999.0000    6.4587    0.4021    3.8525   56.3183  136.1250   35.4537   57.0000 
 880.1100 -999.0000   59.9819 -999.0000    6.6378    0.4253    3.8519   56.6136  135.4375   36.2130   57.0000 
 880.2624 -999.0000   61.8672 -999.0000    6.8698    0.4155    3.8799   56.6491  136.0000   36.4467   57.0000 
 880.4148 -999.0000   57.4787 -999.0000    6.8914    0.4181    3.9079   56.3842  134.6875   37.0963   57.0000 
 880.5672 -999.0000   54.8768 -999.0000    6.6635    0.4015    3.9423   56.4156  130.3750   37.2287   57.0000 
 880.7196 -999.0000   52.4308 -999.0000    6.4761    0.4002    3.9712   56.3081  127.0625   37.7649   57.0000 
 880.8720 -999.0000   51.9392 -999.0000    6.2597    0.3984    3.9818   56.4480  131.7500   37.9147   57.0000 
 881.0244 -999.0000   52.2985 -999.0000    6.3890    0.4004    3.9778   56.5727  131.1250   37.9008   57.0000 
 881.1768 -999.0000   54.9149 -999.0000    6.7383    0.4205    3.9427   56.3425  131.4375   37.8697   57.0000 
 881.3292 -999.0000   58.6988 -999.0000    6.8742    0.4324    3.9242   56.5596  131.5625   37.8962   57.0000 
 881.4816 -999.0000   59.8201 -999.0000    6.7955    0.4321    3.9166   56.4821  131.1875   37.7377   57.0000 
 881.6340 -999.0000   53.7907 -999.0000    6.5790    0.4315    3.9237   56.6093  133.0000   37.8566   57.0000 
 881.7864 -999.0000   46.9672 -999.0000    6.2869    0.4421    3.9306   56.7024  128.6250   38.3475   57.0000 
 881.9388 -999.0000   44.7385 -999.0000    5.9668    0.4487    3.9538   56.4003  125.6875   39.0317   57.0000 
 882.0912 -999.0000   51.4541 -999.0000    5.7873    0.4497    3.9443   56.6282  126.6250   38.8764   57.0000 
 882.2436 -999.0000   57.3545 -999.0000    5.8764    0.4403    3.9197   56.1397  128.8750   38.0709   57.0000 
 882.3960 -999.0000   64.9402 -999.0000    5.9954    0.4291    3.8799   55.8838  126.6875   36.9025   57.0000 
 882.5484 -999.0000   64.4408 -999.0000    6.1085    0.4500    3.9196   56.3031  125.9375   38.3937   57.0000 
 882.7008 -999.0000   64.6090 -999.0000    6.1807    0.4600    4.0130   56.3295  121.5000   40.5927   57.0000 
 882.8532 -999.0000   62.7412 -999.0000    6.6783    0.5043    4.0413   56.7052  124.1875   42.6363   57.0000 
 883.0056 -999.0000   63.0879 -999.0000    7.1659    0.5195    4.0191   56.4693  130.2500   42.6997   57.0000 
 883.1580 -999.0000   59.7223 -999.0000    7.5670    0.5063    4.0314   56.4628  132.8750   42.5044   57.0000 
 883.3104 -999.0000   56.2332 -999.0000    7.6910    0.4834    4.0774   56.2525  132.9375   42.6635   57.0000 
 883.4628 -999.0000   51.8579 -999.0000    7.7061    0.4408    4.0715   56.4236  132.8750   41.1231   57.0000 
 883.6152 -999.0000   52.8542 -999.0000    7.5516    0.4504    4.0507   56.3918  132.1250   41.0261   57.0000 
 883.7676 -999.0000   55.3504 -999.0000    7.3144    0.4413    4.0275   56.3769  131.7500   40.2602   57.0000 
 883.9200 -999.0000   58.0866 -999.0000    6.9247    0.4522    4.0404   56.3879  130.1250   40.8804   57.0000 
 884.0724 -999.0000   62.6267 -999.0000    6.5162    0.4367    3.9783   55.4358  128.8125   39.1236   57.0000 
 884.2248 -999.0000   58.2515 -999.0000    6.0951    0.4603    3.9697   63.3654  128.3750   39.7354   57.0000 
 884.3772 -999.0000   61.0390 -999.0000    5.9357    0.4474    3.9630   66.6490  131.0625   39.1747   57.0000 
 884.5296 -999.0000   61.3923 -999.0000    5.9033    0.4650    3.9430   55.4521  130.0000   39.3609   57.0000 
 884.6820 -999.0000   62.0654 -999.0000    5.7409    0.4282    3.9186   56.4585  129.7500   37.6450   57.0000 
 884.8344 -999.0000   58.3793 -999.0000    5.5739    0.4303    3.5507   56.5601  127.6875   30.3570   57.0000 
 884.9868 -999.0000   52.3081 -999.0000    5.4286    0.4314    2.9039   56.5389  127.8125   17.4592   57.0000 
 885.1392 -999.0000   52.6312 -999.0000    5.3155    0.4674    2.8451   66.7702  127.3750   17.4821   57.0000 
 885.2916 -999.0000   50.4571 -999.0000    5.2553    0.4700    2.8578   61.2477  128.8125   17.8214   57.0000 
 885.4440 -999.0000   46.5998 -999.0000    5.3029    0.4814    3.4733   59.6223  129.0625   30.5136   57.0000 
 885.5964 -999.0000   44.3056 -999.0000    5.3594    0.4805    3.4609   49.6142  129.3125   30.2340   57.0000 
 885.7488 -999.0000   46.1567 -999.0000    5.4598    0.5139    3.1131   58.4041  129.8125   24.3921   57.0000 
 885.9012 -999.0000   51.3599 -999.0000    5.6044    0.4959    2.4625   47.2431  130.1875   10.7803   57.0000 
 886.0536 -999.0000   54.3406 -999.0000    5.7344    0.4782    2.3532   57.5167  130.0625    8.0037   57.0000 
