~VERSION INFORMATION
 VERS.                 2.0:   CWLS LOG ASCII STANDARD - VERSION 2.0
 WRAP.                  NO:   SINGLE LINE PER DEPTH STEP
 CREA.                 30/01/2020 17:31:38
#CREATED USING IP VERSION 4.5.2019.2902 BY RMOTA ON 30/01/2020 17:31:38
~WELL INFORMATION
#MNEM.UNIT       DATA                          DESCRIPTION MNEMONIC
#---------      ---------------------------   --------------------------
 STRT    .M         5.9400                    : START DEPTH
 STOP    .M         3362.3976                 : STOP DEPTH
 STEP    .M         0.1524                    : STEP VALUE
 NULL    .      -999.0000                     : NULL VALUE
 DATE    .      30/01/2020                    : LAS file Creation Date
 WELL   .      7-MP-31D-BA        : Well Name
 COMP   .      PETROBRAS          : Company
 FLD    .      MASSAPE            : Field
 STATE  .      BAHIA              : State
 COUNT  .      BRASIL             : Country
 API    .      20240021426        : API Number
 UWI    .                         : Unique Well Identifier (UWI)
 LOC    .      N= 8.608.492,720 m : Location
 TOWN   .      CATU               : Township
 SCT    .      OH WIRELINE        : Section
 RANG   .      SCHLUMBERGER       : Range
 PDAT   .      NM                 : Permanent Datum
 EPDAT  .      0                  : Elevation of Permanent Datum
 LGMEA  .      MR                 : Log Measured from
 DRMEA  .      MR                 : Drill Measured From
 APDAT  .      66.4               : Elevation Above Permanent Datum
 KB     .      66.7               : KB Elevation
 DF     .      66.4               : DF Elevation
 GL     .      57                 : GL Elevation
 RWS    .      -999               : Def_Rw
 WST    .      -999               : Def_Rwt
 BHS    .      OPEN               : Completion Status
 PROV   .                         : Province
 SRVC   .                         : Contractor
 GDAT   .      WGS 84             : Geodatum
 LONG   .      -38.4314536115858  : Longitude
 LATI   .      -12.5867413889037  : Latitude
 COORDIN.                         : Grid System
 XCOORD .                         : X or East-West Coordinate
 YCOORD .                         : Y or North-South Coordinate
~CURVE INFORMATION
#MNEM              UNIT       API CODE   Curve Type Comments
#----------  --------------- ----------  ---------- -----------
 DEPTH      .M                         : Depth       
 CALI       .inch                      : Caliper     
 BS         .in                        : BitSize     
 GR         .gAPI                      : GammaRay    
 RT         .ohm.m                     : DeepRes     
 NPHI       .m3/m3                     : Neutron     
 RHOB       .g/cm3                     :             
 DT         .us/ft                     : Sonic       
 SP         .mV                        : SP          
 N_Res      .                          :             
 Res        .                          :             
 DRDN       .                          :             
 Lith_new   .                          :             
 DEPTH      .M                         : Depth       
~A  DEPTH    CALI       BS        GR        RT       NPHI      RHOB       DT        SP      N_Res      Res       DRDN    Lith_new   DEPTH   
# ...
1908.3492    9.1490    8.5000   99.3995    2.3808    0.2479    2.5844  165.4901  750.6339 -999.0000 -999.0000    4.8753   57.0000 1908.3492 
1908.5016    9.1823    8.5000  100.1926    2.3391    0.2493    2.5800  167.9114  750.5029 -999.0000 -999.0000    4.9439   57.0000 1908.5016 
1908.6540    9.2280    8.5000  100.6612    2.3630    0.2562    2.5861  168.2437  749.4016 -999.0000 -999.0000    5.2832   57.0000 1908.6540 
1908.8064    9.3413    8.5000   93.4294    2.4465    0.2593    2.5876  167.2568  750.1683 -999.0000 -999.0000    5.4088   57.0000 1908.8064 
1908.9588    9.3664    8.5000   94.1787    2.5348    0.2668    2.5832  167.7975  750.0654 -999.0000 -999.0000    5.4645   57.0000 1908.9588 
1909.1112    9.3894    8.5000   95.6189    2.5953    0.2569    2.5683  168.4142  750.5507 -999.0000 -999.0000    4.8566   57.0000 1909.1112 
1909.2636    9.4124    8.5000   99.1199    2.4422    0.2593    2.5632  170.5442  750.5625 -999.0000 -999.0000    4.8922   57.0000 1909.2636 
1909.4160    9.2335    8.5000  102.2083    2.3016    0.2476    2.5604  172.6242  750.9286 -999.0000 -999.0000    4.4404   57.0000 1909.4160 
1909.5684    9.2291    8.5000  102.0784    2.1767    0.2601    2.5586  178.9490  750.6934 -999.0000 -999.0000    4.8464   57.0000 1909.5684 
1909.7208    9.1394    8.5000   99.9935    2.0454    0.2848    2.5539  180.7204  751.0536 -999.0000 -999.0000    5.4837   57.0000 1909.7208 
1909.8732    9.0923    8.5000   98.5565    1.9128    0.2944    2.5454  182.0131  751.0015 -999.0000 -999.0000    5.7204   57.0000 1909.8732 
1910.0256    9.1361    8.5000   94.8770    1.9520    0.2989    2.5435  182.4478  750.8779 -999.0000 -999.0000    5.7911   57.0000 1910.0256 
1910.1780    9.2382    8.5000   95.7133    2.0569    0.3009    2.5417  182.6293  750.8750 -999.0000 -999.0000    5.8917   57.0000 1910.1780 
1910.3304    9.2967    8.5000   95.4993    2.0629    0.3099    2.5436  181.9434  750.7529 -999.0000 -999.0000    6.1854   57.0000 1910.3304 
1910.4828    9.3654    8.5000  100.0120    2.0030    0.3244    2.5388  182.8147  750.8721 -999.0000 -999.0000    6.5456   57.0000 1910.4828 
1910.6352    9.3109    8.5000  100.1213    1.9480    0.3037    2.5296  183.4659  750.6309 -999.0000 -999.0000    5.6337   57.0000 1910.6352 
1910.7876    9.3208    8.5000   95.9665    1.9547    0.2887    2.5190  181.5000  750.5029 -999.0000 -999.0000    4.9575   57.0000 1910.7876 
1910.9400    9.3883    8.5000   91.5501    2.0089    0.2807    2.5178  180.5405  750.6830 -999.0000 -999.0000    4.7352   57.0000 1910.9400 
1911.0924    9.3787    8.5000   89.5968    2.0145    0.2848    2.5238  179.6731  750.5045 -999.0000 -999.0000    5.0214   57.0000 1911.0924 
1911.2448    9.4346    8.5000   96.4855    1.9862    0.2943    2.5321  179.9844  750.3170 -999.0000 -999.0000    5.5173   57.0000 1911.2448 
1911.3972    9.4808    8.5000  103.8197    1.8954    0.3003    2.5389  183.2274  751.1668 -999.0000 -999.0000    5.7720   57.0000 1911.3972 
1911.5496    9.4594    8.5000  107.1332    1.7669    0.3032    2.5245  186.8306  750.6993 -999.0000 -999.0000    5.4349   57.0000 1911.5496 
1911.7020    9.5486    8.5000  101.2635    1.7124    0.3195    2.4954  187.9365  751.1757 -999.0000 -999.0000    5.3110   57.0000 1911.7020 
1911.8544    9.5957    8.5000   91.5668    1.7414    0.3149    2.4604  189.6668  750.9434 -999.0000 -999.0000    4.5473   57.0000 1911.8544 
1912.0068    9.4846    8.5000   88.9096    1.7362    0.3207    2.4534  190.9804  750.2662 -999.0000 -999.0000    4.8230   57.0000 1912.0068 
1912.1592    9.4370    8.5000   93.9463    1.7110    0.3219    2.4634  192.5314  749.9449 -999.0000 -999.0000    5.0466   57.0000 1912.1592 
1912.3116    9.4471    8.5000   95.9185    1.7201    0.3246    2.4621  193.3706  749.3883 -999.0000 -999.0000    4.9751   57.0000 1912.3116 
1912.4640    9.5708    8.5000   97.7828    1.7668    0.3676    2.4381  200.1868  749.6801 -999.0000 -999.0000    5.7683   57.0000 1912.4640 
1912.6164    9.6187    8.5000   93.4262    1.8042    0.3643    2.4015  204.0464  749.8096 -999.0000 -999.0000    4.9881   57.0000 1912.6164 
1912.7688    9.5524    8.5000  104.4979    1.8022    0.3900    2.3876  208.5535  749.8735 -999.0000 -999.0000    5.7316   57.0000 1912.7688 
1912.9212    9.4386    8.5000  102.9488    1.9041    0.3742    2.3908  204.9651  749.5699 -999.0000 -999.0000    5.4015   57.0000 1912.9212 
1913.0736    9.4135    8.5000  105.1511    2.0188    0.3687    2.4133  191.8418  749.5625 -999.0000 -999.0000    5.6954   57.0000 1913.0736 
1913.2260    9.2335    8.5000   94.7830    2.1527    0.3403    2.4323  190.5755  749.1964 -999.0000 -999.0000    5.1707   57.0000 1913.2260 
1913.3784    9.1618    8.5000   92.7113    2.2549    0.2780    2.4704  187.6372  748.6383 -999.0000 -999.0000    3.9696   57.0000 1913.3784 
1913.5308    9.1378    8.5000   90.6526    2.3579    0.2676    2.5140  175.6941  748.9911 -999.0000 -999.0000    4.5038   57.0000 1913.5308 
1913.6832    9.0699    8.5000   93.7771    2.2296    0.2655    2.5582  162.2881  749.3051 -999.0000 -999.0000    5.2634   57.0000 1913.6832 
1913.8356    9.0234    8.5000   95.1904    2.5570    0.2794    2.5876  158.3004  749.5566 -999.0000 -999.0000    6.2249   57.0000 1913.8356 
1913.9880    8.9999    8.5000   90.9818    3.2685    0.2327    2.6171  149.7820  749.8676 -999.0000 -999.0000    5.3287   57.0000 1913.9880 
1914.1404    9.0891    8.5000   86.0258    4.5291    0.1764    2.6487  141.3077  749.8140 -999.0000 -999.0000    4.0370   57.0000 1914.1404 
1914.2928    8.9342    8.5000   76.8949    5.1450    0.1500    2.6705  140.2950  749.3853 -999.0000 -999.0000    3.4982   57.0000 1914.2928 
1914.4452    8.9528    8.5000   77.1546    5.0381    0.1541    2.6754  139.8415  749.4971 -999.0000 -999.0000    3.6055   57.0000 1914.4452 
1914.5976    8.9758    8.5000   75.1848    4.5536    0.1610    2.6639  138.8256  749.5000 -999.0000 -999.0000    3.5472   57.0000 1914.5976 
1914.7500    8.7969    8.5000   83.2259    3.9655    0.1727    2.6509  143.2114  749.6830 -999.0000 -999.0000    3.6953   57.0000 1914.7500 
1914.9024    8.9496    8.5000   83.4216    3.4492    0.2048    2.6327  147.4381  749.8705 -999.0000 -999.0000    4.3244   57.0000 1914.9024 
1915.0548    8.8636    8.5000   88.8904    2.8238    0.2407    2.6098  152.6673  749.9360 -999.0000 -999.0000    5.0595   57.0000 1915.0548 
1915.2072    8.8615    8.5000   88.0983    2.6957    0.2686    2.5852  154.2708  750.2426 -999.0000 -999.0000    5.5079   57.0000 1915.2072 
1915.3596    8.8839    8.5000   89.4626    2.7290    0.2668    2.5714  158.3823  749.8228 -999.0000 -999.0000    5.2747   57.0000 1915.3596 
1915.5120    8.8845    8.5000   83.8248    2.6875    0.2564    2.5616  159.2793  749.8735 -999.0000 -999.0000    4.7233   57.0000 1915.5120 
1915.6644    9.0303    8.5000   86.9232    2.5090    0.2616    2.5551  163.6455  749.5089 -999.0000 -999.0000    4.7734   57.0000 1915.6644 
1915.8168    8.9553    8.5000   92.6204    2.3768    0.2612    2.5494  170.2323  749.8051 -999.0000 -999.0000    4.7327   57.0000 1915.8168 
1915.9692    9.0880    8.5000   97.7137    2.4913    0.2797    2.5761  171.9420  749.6904 -999.0000 -999.0000    6.1269   57.0000 1915.9692 
1916.1216    9.1361    8.5000   98.1429    2.8155    0.2531    2.6070  174.2498  749.9316 -999.0000 -999.0000    5.6689   57.0000 1916.1216 
1916.2740    9.1372    8.5000   93.7498    2.5748    0.2741    2.6110  176.4932  749.9985 -999.0000 -999.0000    6.3088   57.0000 1916.2740 
1916.4264    9.2269    8.5000   95.2612    2.2427    0.2621    2.5899  178.7207  750.0610 -999.0000 -999.0000    5.2816   57.0000 1916.4264 
1916.5788    9.1169    8.5000   96.9112    2.0598    0.2976    2.5565  182.9365  750.4897 -999.0000 -999.0000    5.9115   57.0000 1916.5788 
1916.7312    9.2713    8.5000  101.7027    1.8440    0.2868    2.5450  184.5931  750.7441 -999.0000 -999.0000    5.4109   57.0000 1916.7312 
1916.8836    9.2078    8.5000  105.3601    1.7692    0.2954    2.5328  185.1084  750.9941 -999.0000 -999.0000    5.4082   57.0000 1916.8836 
