~VERSION INFORMATION
 VERS.                 2.0:   CWLS LOG ASCII STANDARD - VERSION 2.0
 WRAP.                  NO:   SINGLE LINE PER DEPTH STEP
 CREA.                 06/02/2020 16:33:07
#CREATED USING IP VERSION 4.5.2019.2902 BY RMOTA ON 06/02/2020 16:33:07
~WELL INFORMATION
#MNEM.UNIT       DATA                          DESCRIPTION MNEMONIC
#---------      ---------------------------   --------------------------
 STRT    .M         500.8250                  : START DEPTH
 STOP    .M         3050.8250                 : STOP DEPTH
 STEP    .M         0.1000                    : STEP VALUE
 NULL    .      -999.0000                     : NULL VALUE
 DATE    .      06/02/2020                    : LAS file Creation Date
 WELL   .      7-MP-34D-BA     : Well Name
 COMP   .      PETROBRAS       : Company
 FLD    .      MASSAPE         : Field
 STATE  .      BAHIA           : State
 API    .      20240022160     : API Number
 UWI    .                      : Unique Well Identifier (UWI)
 LOC    .                      : Location
 PDAT   .      NM              : Permanent Datum
 EPDAT  .      0.0             : Elevation of Permanent Datum
 LGMEA  .      MR              : Log Measured from
 DRMEA  .      MR              : Drill Measured From
 APDAT  .      65.65           : Elevation Above Permanent Datum
 KB     .      65.95           : KB Elevation
 DF     .      65.65           : DF Elevation
 RWS    .      -999            : Def_Rw
 WST    .      -999            : Def_Rwt
 PROV   .                      : Province
 SRVC   .                      : Contractor
 GDAT   .      WGS 84          : Geodatum
 LONG   .      -38.435477499961: Longitude
 LATI   .      0               : Latitude
 COORDIN.                      : Grid System
 XCOORD .                      : X or East-West Coordinate
 YCOORD .                      : Y or North-South Coordinate
~CURVE INFORMATION
#MNEM              UNIT       API CODE   Curve Type Comments
#----------  --------------- ----------  ---------- -----------
 DEPTH      .M                         : Depth       
 CAL        .inch                      : Caliper     
 BS         .in                        : BitSize     
 GR         .gAPI                      : GammaRay    
 ILD        .ohm.m                     : DeepRes     
 RHOB       .G/CC                      : Density     
 NPHI       .dec                       : Neutron     
 DT         .uS/ft                     : Sonic       
 DRDN       .                          :             
 Lith_new   .                          :             
~A  DEPTH    CAL        BS        GR       ILD       RHOB      NPHI       DT       DRDN    Lith_new 
# ...
1684.8250    8.9553    8.5000   66.1809    1.7786 -999.0000 -999.0000   99.4668 -999.0000 -999.0000 
1684.9250    8.9324    8.5000   67.4605    1.8454 -999.0000 -999.0000   97.9847 -999.0000 -999.0000 
1685.0250    8.9400    8.5000   68.3428    1.8932 -999.0000 -999.0000   96.9719 -999.0000 -999.0000 
1685.1250    8.9248    8.5000   68.4265    1.9167 -999.0000 -999.0000   96.4673 -999.0000 -999.0000 
1685.2250    8.9018    8.5000   66.3849    1.9213 -999.0000 -999.0000   96.4082 -999.0000 -999.0000 
1685.3250    8.8789    8.5000   64.2734    1.9156 -999.0000 -999.0000   96.5107 -999.0000 -999.0000 
1685.4250    8.8713    8.5000   62.3090    1.9054 -999.0000 -999.0000   94.4291 -999.0000 -999.0000 
1685.5250    8.8636    8.5000   61.3743    1.8947 -999.0000 -999.0000   88.4005 -999.0000 -999.0000 
1685.6250    8.8942    8.5000   63.0230    1.8869 -999.0000 -999.0000   78.8276 -999.0000 -999.0000 
1685.7250    8.8789    8.5000   64.6415    1.8862 -999.0000 -999.0000   69.9046 -999.0000 -999.0000 
1685.8250    8.8866    8.5000   66.3077    1.8950 -999.0000 -999.0000   67.8327 -999.0000 -999.0000 
1685.9250    8.9248    8.5000   68.0198    1.9127 -999.0000 -999.0000   72.1117 -999.0000 -999.0000 
1686.0250    8.9324    8.5000   68.2381    1.9332 -999.0000 -999.0000   77.6429 -999.0000 -999.0000 
1686.1250    8.9400    8.5000   68.0180    1.9494 -999.0000 -999.0000   80.3893 -999.0000 -999.0000 
1686.2250    8.9477    8.5000   68.5914    1.9571 -999.0000 -999.0000   79.7592 -999.0000 -999.0000 
1686.3250    8.9095    8.5000   68.2865    1.9584 -999.0000 -999.0000   81.2770 -999.0000 -999.0000 
1686.4250    8.9018    8.5000   67.9136    1.9573 -999.0000 -999.0000   86.2490 -999.0000 -999.0000 
1686.5250    8.9171    8.5000   68.1272    1.9554 -999.0000 -999.0000   91.3699 -999.0000 -999.0000 
1686.6250    8.9171    8.5000   67.1620    1.9508 -999.0000 -999.0000   95.2546 -999.0000 -999.0000 
1686.7250    8.9248    8.5000   66.1441    1.9442 -999.0000 -999.0000   96.0929 -999.0000 -999.0000 
1686.8250    8.9171    8.5000   65.7704    1.9426 -999.0000 -999.0000   96.2510 -999.0000 -999.0000 
1686.9250    8.9095    8.5000   65.4086    1.9552 -999.0000 -999.0000   96.3179 -999.0000 -999.0000 
1687.0250    8.8866    8.5000   65.9557    1.9841 -999.0000 -999.0000   96.1990 -999.0000 -999.0000 
1687.1250    8.9018    8.5000   67.2149    2.0260 -999.0000 -999.0000   95.8265 -999.0000 -999.0000 
1687.2250    8.9171    8.5000   67.8032    2.0723 -999.0000 -999.0000   95.4832 -999.0000 -999.0000 
1687.3250    8.9324    8.5000   68.4716    2.1128 -999.0000 -999.0000   95.1893 -999.0000 -999.0000 
1687.4250    8.8866    8.5000   68.9005    2.1367 -999.0000 -999.0000   95.0908 -999.0000 -999.0000 
1687.5250    8.8789    8.5000   68.5493    2.1358 -999.0000 -999.0000   95.1903 -999.0000 -999.0000 
1687.6250    8.8713    8.5000   68.7366    2.1040 -999.0000 -999.0000   95.4020 -999.0000 -999.0000 
1687.7250    8.8866    8.5000   68.3834    2.0464 -999.0000 -999.0000   95.8679 -999.0000 -999.0000 
1687.8250    8.9095    8.5000   67.9745    1.9776 -999.0000 -999.0000   96.5842 -999.0000 -999.0000 
1687.9250    8.9171    8.5000   68.4134    1.9131 -999.0000 -999.0000   97.4276 -999.0000 -999.0000 
1688.0250    8.9248    8.5000   69.3310    1.8574 -999.0000 -999.0000   98.2775 -999.0000 -999.0000 
1688.1250    8.9248    8.5000   71.0960    1.8113 -999.0000 -999.0000   97.0281 -999.0000 -999.0000 
1688.2250    8.9324    8.5000   73.4241    1.7782 -999.0000 -999.0000   92.7429 -999.0000 -999.0000 
1688.3250    8.9630    8.5000   75.4246    1.7592 -999.0000 -999.0000   87.7954 -999.0000 -999.0000 
1688.4250    8.9171    8.5000   76.5249    1.7484 -999.0000 -999.0000   83.9842 -999.0000 -999.0000 
1688.5250    8.8942    8.5000   76.6336    1.7376 -999.0000 -999.0000   84.2454 -999.0000 -999.0000 
1688.6250    8.8789    8.5000   75.7487    1.7220 -999.0000 -999.0000   84.7770 -999.0000 -999.0000 
1688.7250    8.8789    8.5000   74.7113    1.7024 -999.0000 -999.0000   84.1786 -999.0000 -999.0000 
1688.8250    8.9095    8.5000   73.5793    1.6839 -999.0000 -999.0000   83.4046 -999.0000 -999.0000 
1688.9250    8.9248    8.5000   72.7422    1.6777 -999.0000 -999.0000   83.2388 -999.0000 -999.0000 
1689.0250    8.9248    8.5000   71.9246    1.6904 -999.0000 -999.0000   83.4760 -999.0000 -999.0000 
1689.1250    8.9248    8.5000   71.4087    1.7155 -999.0000 -999.0000   84.4975 -999.0000 -999.0000 
1689.2250    8.9248    8.5000   71.1838    1.7368 -999.0000 -999.0000   86.3898 -999.0000 -999.0000 
1689.3250    8.9324    8.5000   71.3396    1.7449 -999.0000 -999.0000   90.9255 -999.0000 -999.0000 
1689.4250    8.9248    8.5000   71.6308    1.7426 -999.0000 -999.0000   98.3709 -999.0000 -999.0000 
1689.5250    8.9095    8.5000   70.9649    1.7404 -999.0000 -999.0000  107.1026 -999.0000 -999.0000 
1689.6250    8.9095    8.5000   70.4044    1.7471 -999.0000 -999.0000  112.8699 -999.0000 -999.0000 
1689.7250    8.8789    8.5000   69.4306    1.7681 -999.0000 -999.0000  114.0449 -999.0000 -999.0000 
1689.8250    8.8789    8.5000   68.7820    1.8017 -999.0000 -999.0000  110.6225 -999.0000 -999.0000 
1689.9250    8.8942    8.5000   69.4035    1.8387 -999.0000 -999.0000  104.3520 -999.0000 -999.0000 
1690.0250    8.8866    8.5000   70.2459    1.8668 -999.0000 -999.0000   97.6281 -999.0000 -999.0000 
1690.1250    8.9095    8.5000   71.4547    1.8778 -999.0000 -999.0000   90.9383 -999.0000 -999.0000 
1690.2250    8.8866    8.5000   71.9880    1.8708 -999.0000 -999.0000   86.3775 -999.0000 -999.0000 
1690.3250    8.8636    8.5000   71.5556    1.8489 -999.0000 -999.0000   84.6755 -999.0000 -999.0000 
1690.4250    8.8560    8.5000   70.8264    1.8146 -999.0000 -999.0000   86.0816 -999.0000 -999.0000 
1690.5250    8.8713    8.5000   69.4156    1.7735 -999.0000 -999.0000   88.1923 -999.0000 -999.0000 
1690.6250    8.9095    8.5000   68.8445    1.7321 -999.0000 -999.0000   87.8357 -999.0000 -999.0000 
1690.7250    8.9171    8.5000   69.1685    1.6970 -999.0000 -999.0000   85.5398 -999.0000 -999.0000 
1690.8250    8.9400    8.5000   69.4765    1.6719 -999.0000 -999.0000   82.8260 -999.0000 -999.0000 
1690.9250    8.9477    8.5000   70.3131    1.6586 -999.0000 -999.0000   82.3327 -999.0000 -999.0000 
1691.0250    8.9248    8.5000   70.7551    1.6571 -999.0000 -999.0000   86.4260 -999.0000 -999.0000 
1691.1250    8.9171    8.5000   70.2037    1.6686 -999.0000 -999.0000   90.6750 -999.0000 -999.0000 
1691.2250    8.9171    8.5000   69.9400    1.6959 -999.0000 -999.0000   94.0235 -999.0000 -999.0000 
1691.3250    8.9248    8.5000   70.5423    1.7453 -999.0000 -999.0000   95.2959 -999.0000 -999.0000 
1691.4250    8.9477    8.5000   72.1504    1.8258 -999.0000 -999.0000   96.6918 -999.0000 -999.0000 
1691.5250    8.9324    8.5000   74.1263    1.9489 -999.0000 -999.0000   99.2219 -999.0000 -999.0000 
1691.6250    8.9248    8.5000   75.3917    2.1148 -999.0000 -999.0000  102.8816 -999.0000 -999.0000 
1691.7250    8.8866    8.5000   74.3594    2.2957 -999.0000 -999.0000  108.2362 -999.0000 -999.0000 
1691.8250    8.8866    8.5000   71.4277    2.4297 -999.0000 -999.0000  112.8046 -999.0000 -999.0000 
1691.9250    8.8713    8.5000   67.6453    2.4685 -999.0000 -999.0000  116.2031 -999.0000 -999.0000 
1692.0250    8.8866    8.5000   63.5924    2.4159 -999.0000 -999.0000  114.8485 -999.0000 -999.0000 
1692.1250    8.9095    8.5000   60.1917    2.3144 -999.0000 -999.0000  110.1658 -999.0000 -999.0000 
1692.2250    8.9095    8.5000   57.4624    2.2019 -999.0000 -999.0000  104.6592 -999.0000 -999.0000 
1692.3250    8.9400    8.5000   56.5455    2.0993 -999.0000 -999.0000  100.2847 -999.0000 -999.0000 
1692.4250    8.9324    8.5000   56.9673    2.0225 -999.0000 -999.0000   99.3092 -999.0000 -999.0000 
1692.5250    8.9477    8.5000   58.9035    1.9815 -999.0000 -999.0000   99.4612 -999.0000 -999.0000 
1692.6250    8.9630    8.5000   61.5404    1.9749 -999.0000 -999.0000  101.0500 -999.0000 -999.0000 
1692.7250    8.9859    8.5000   63.7802    1.9917 -999.0000 -999.0000  105.9449 -999.0000 -999.0000 
