~VERSION INFORMATION
 VERS.                 2.0:   CWLS LOG ASCII STANDARD - VERSION 2.0
 WRAP.                  NO:   SINGLE LINE PER DEPTH STEP
 CREA.                 06/02/2020 16:07:36
#CREATED USING IP VERSION 4.5.2019.2902 BY RMOTA ON 06/02/2020 16:07:36
~WELL INFORMATION
#MNEM.UNIT       DATA                          DESCRIPTION MNEMONIC
#---------      ---------------------------   --------------------------
 STRT    .M         18.4404                   : START DEPTH
 STOP    .M         3544.2144                 : STOP DEPTH
 STEP    .M         0.1524                    : STEP VALUE
 NULL    .      -999.0000                     : NULL VALUE
 DATE    .      06/02/2020                    : LAS file Creation Date
 WELL   .      7-MP-25-BA         : Well Name
 COMP   .      PETROBRAS          : Company
 FLD    .      MASSAPE            : Field
 STATE  .      20240021268        : State
 COUNT  .      BRASIL             : Country
 API    .      20240021268        : API Number
 UWI    .                         : Unique Well Identifier (UWI)
 LOC    .      N= 8.607.478,570 m : Location
 TOWN   .      CTU                : Township
 SCT    .      OH WIRELINE        : Section
 RANG   .      SCHLUMBERGER       : Range
 PDAT   .      NM                 : Permanent Datum
 EPDAT  .      0                  : Elevation of Permanent Datum
 LGMEA  .      MR                 : Log Measured from
 DRMEA  .      MR                 : Drill Measured From
 APDAT  .      65.76              : Elevation Above Permanent Datum
 KB     .      66.06              : KB Elevation
 DF     .      65.76              : DF Elevation
 GL     .      56.36              : GL Elevation
 RWS    .      -999               : Def_Rw
 WST    .      -999               : Def_Rwt
 BHS    .      OPEN               : Completion Status
 PROV   .                         : Province
 MDEC   .      -23.10323          : Magnetic Declination
 SRVC   .                         : Contractor
 GDAT   .      WGS 84             : Geodatum
 LONG   .      -38.4344958333174  : Longitude
 LATI   .      -12.5959183332655  : Latitude
 COORDIN.                         : Grid System
 XCOORD .                         : X or East-West Coordinate
 YCOORD .                         : Y or North-South Coordinate
~CURVE INFORMATION
#MNEM              UNIT       API CODE   Curve Type Comments
#----------  --------------- ----------  ---------- -----------
 DEPTH      .M                         : Depth       
 BS         .in                        : BitSize     
 GR         .gAPI                      : GammaRay    
 CAL        .inch                      : Caliper     
 RT         .ohm.m                     : DeepRes     
 NPHI       .m3/m3                     : Neutron     
 RHOB       .g/cm3                     : Density     
 DT         .us/ft                     : Sonic       
 SP         .mV                        : SP          
 DRDN       .                          :             
 Lith_new   .                          :             
~A  DEPTH     BS        GR       CAL        RT       NPHI      RHOB       DT        SP       DRDN    Lith_new 
# ...
2454.8592   12.2500   48.7112   12.0011   57.9294    0.1127    2.3952   76.2517  540.1250   -3.3374   49.0000 
2455.0116   12.2500   46.2766   12.0124   54.7882    0.1189    2.4077   76.7119  538.6875   -2.8841   49.0000 
2455.1640   12.2500   45.9398   12.0311   55.0388    0.1251    2.4067   79.0435  540.0000   -2.6969   49.0000 
2455.3164   12.2500   46.9452   12.0387   55.7558    0.1332    2.3995   78.5445  539.0000   -2.5678   49.0000 
2455.4688   12.2500   47.5834   12.0161   54.3720    0.1347    2.3981   78.5998  538.7500   -2.5477   49.0000 
2455.6212   12.2500   52.3543   11.9860   52.1731    0.1362    2.4191   78.5223  539.1875   -2.0786   49.0000 
2455.7736   12.2500   56.1921   11.9860   47.4537    0.1386    2.4187   78.6763  540.8750   -2.0038   49.0000 
2455.9260   12.2500   60.8255   11.9410   48.8895    0.1352    2.4054   78.4977  539.1250   -2.3837   49.0000 
2456.0784   12.2500   61.3315   11.9410   55.9587    0.1329    2.3970   78.2984  538.3125   -2.6300   49.0000 
2456.2308   12.2500   58.5578   11.9785   60.5143    0.1123    2.4240   76.2152  539.5000   -2.7747   49.0000 
2456.3832   12.2500   57.5185   12.0086   60.4538    0.1123    2.4581   75.1568  537.9375   -2.0946   49.0000 
2456.5356   12.2500   55.2552   12.0988   59.7178    0.1141    2.4551   74.1754  538.0625   -2.0959   49.0000 
2456.6880   12.2500   56.2366   12.0575   60.2303    0.1366    2.4217   78.8914  537.6250   -2.0131   49.0000 
2456.8404   12.2500   55.1124   12.0575   62.4210    0.1418    2.3846   80.5187  539.5000   -2.5829   49.0000 
2456.9928   12.2500   52.6631   12.0462   66.5705    0.1478    2.3697   79.8758  540.4375   -2.6792   49.0000 
2457.1452   12.2500   52.6433   12.0462   69.0263    0.1392    2.3716   80.4588  537.2500   -2.9274   49.0000 
2457.2976   12.2500   50.5101   12.0687   73.2430    0.1332    2.3714   80.1617  535.9375   -3.1315   49.0000 
2457.4500   12.2500   53.8954   12.0612   75.0049    0.1262    2.3771   83.5605  539.1250   -3.2503   49.0000 
2457.6024   12.2500   53.0131   12.0462   70.1710    0.1261    2.3816   80.1224  537.6250   -3.1658   49.0000 
2457.7548   12.2500   49.9926   12.0612   69.8880    0.1345    2.3836   79.7652  536.0625   -2.8453   49.0000 
2457.9072   12.2500   50.4217   12.0762   74.1329    0.1383    2.3823   79.7553  532.1875   -2.7433   49.0000 
2458.0596   12.2500   51.6646   12.1063   67.3810    0.1308    2.3953   79.7712  529.3750   -2.7324   49.0000 
2458.2120   12.2500   59.9619   12.1364   48.5783    0.1350    2.4294   78.2944  536.0625   -1.9128   49.0000 
2458.3644   12.2500   65.1617   12.1364   34.8991    0.1384    2.4692   77.1723  531.5625   -1.0013   49.0000 
2458.5168   12.2500   63.6943   12.0988   25.0759    0.1447    2.5102   77.0200  537.4375    0.0279   54.0000 
2458.6692   12.2500   58.1468   12.0913   22.9532    0.1378    2.5040   77.8558  537.0000   -0.3250   25.0000 
2458.8216   12.2500   50.9538   12.0913   28.0288    0.1368    2.4706   78.7667  531.0625   -1.0281   49.0000 
2458.9740   12.2500   49.6065   12.0913   35.0014    0.1380    2.4182   80.3698  530.3750   -2.0338   49.0000 
2459.1264   12.2500   52.8726   12.0687   36.3068    0.1296    2.4014   81.0006  537.7500   -2.6501   49.0000 
2459.2788   12.2500   55.0176   12.0687   34.4059    0.1230    2.4388   80.6237  532.1250   -2.1221   49.0000 
2459.4312   12.2500   59.9577   12.0913   30.7574    0.1262    2.4840   77.8203  537.3750   -1.1139   49.0000 
2459.5836   12.2500   63.6626   12.1740   26.6794    0.1353    2.5302   76.4849  538.5000    0.1121   54.0000 
2459.7360   12.2500   60.5916   12.0800   23.4664    0.1417    2.5201   76.1980  532.3750    0.1250   54.0000 
2459.8884   12.2500   52.5909   12.0913   27.9475    0.1377    2.4760   76.0826  531.5000   -0.8912   25.0000 
2460.0408   12.2500   44.7678   12.1289   34.9966    0.1137    2.4243   77.7776  530.1250   -2.7228   49.0000 
2460.1932   12.2500   44.9718   12.0913   47.3876    0.0868    2.4077   76.9489  530.5000   -3.9522   49.0000 
2460.3456   12.2500   49.2502   12.1251   60.4381    0.0737    2.4365   74.9482  529.2500   -3.8137   49.0000 
2460.4980   12.2500   55.2935   12.1928   68.2228    0.0920    2.4743   74.0409  528.5625   -2.4468   49.0000 
2460.6504   12.2500   60.3239   12.1702   53.7532    0.1150    2.4921   74.1062  532.9375   -1.3257   49.0000 
2460.8028   12.2500   61.2393   12.1702   36.8974    0.1230    2.4786   75.1949  530.1250   -1.3273   49.0000 
2460.9552   12.2500   53.7796   12.1477   27.8960    0.1175    2.4610   75.2991  529.0625   -1.8650   49.0000 
2461.1076   12.2500   47.4074   12.1364   29.5275    0.1051    2.4542   75.3356  527.9375   -2.4109   49.0000 
2461.2600   12.2500   40.7697   12.1477   35.8198    0.0853    2.4630   74.5263  527.5625   -2.8965   49.0000 
2461.4124   12.2500   39.7161   12.1965   45.9118    0.0525    2.4793   72.3473  531.8125   -3.6618   49.0000 
2461.5648   12.2500   36.8468   12.1589   51.6379    0.0272    2.4886   69.1672  530.0000   -4.3204   49.0000 
2461.7172   12.2500   41.3513   12.1439   51.1208    0.0203    2.4942   68.5378  532.1875   -4.4402   49.0000 
2461.8696   12.2500   45.6350   12.1364   40.4799    0.0360    2.5035   68.2493  527.4375   -3.7306   49.0000 
2462.0220   12.2500   56.4390   12.1514   30.9205    0.0800    2.5239   87.4621  532.7500   -1.8572   49.0000 
2462.1744   12.2500   65.9822   12.1477   40.5615    0.1163    2.5588   87.9405  536.0625    0.0547   54.0000 
2462.3268   12.2500   78.1529   12.1890   23.8865    0.1852    2.5809   75.7935  536.9375    2.7904   57.0000 
2462.4792   12.2500   84.9113   12.1890   12.8500    0.2197    2.5867   79.8586  532.5625    4.0585   57.0000 
2462.6316   12.2500   83.0411   12.1815    8.0220    0.2337    2.5750   77.1197  529.1250    4.2898   57.0000 
2462.7840   12.2500   81.0426   12.1439    7.4334    0.2081    2.5742  159.8323  532.6250    3.4196   57.0000 
2462.9364   12.2500   84.1750   12.1364    6.7696    0.1930    2.5944  162.0284  533.5625    3.3232   57.0000 
2463.0888   12.2500   92.4448   12.1364    6.5711    0.2085    2.6254  202.5074  526.5625    4.4572   57.0000 
2463.2412   12.2500   94.1714   12.1514    6.6477    0.2175    2.6242  168.1014  522.6875    4.7357   57.0000 
2463.3936   12.2500   86.9248   12.1477    6.3760    0.2094    2.6004  166.1882  528.8125    3.9895   57.0000 
2463.5460   12.2500   83.1116   12.1514    5.8548    0.2000    2.5666  121.0356  528.0000    2.9975   57.0000 
2463.6984   12.2500   78.5809   12.1589    6.2805    0.1838    2.5443  120.9333  524.2500    2.0130   57.0000 
2463.8508   12.2500   72.3518   12.1439    7.5397    0.1604    2.5285  119.5569  529.1250    0.9167   57.0000 
2464.0032   12.2500   58.9872   12.1589    9.6470    0.1182    2.5228  122.9908  525.8125   -0.6039   25.0000 
2464.1556   12.2500   46.8115   12.1514   11.5233    0.0810    2.5220   71.7576  531.8125   -1.8586   49.0000 
2464.3080   12.2500   38.4349   12.1477   13.6591    0.0627    2.5136   71.9629  529.8125   -2.6368   49.0000 
2464.4604   12.2500   34.5521   12.1514   20.0151    0.0555    2.4997   71.5421  532.8750   -3.1555   49.0000 
2464.6128   12.2500   35.8620   12.1589   33.5022    0.0451    2.4891   71.3217  528.8125   -3.7147   49.0000 
2464.7652   12.2500   37.2601   12.1251   47.7557    0.0337    2.4908   72.6851  526.6250   -4.0587   49.0000 
2464.9176   12.2500   40.3429   12.1439   50.4473    0.0316    2.4976   70.8346  525.9375   -3.9953   49.0000 
2465.0700   12.2500   40.6257   12.1477   58.3770    0.0463    2.5015   86.4707  528.6250   -3.4264   49.0000 
2465.2224   12.2500   48.0773   12.1477   43.2797    0.0999    2.5074   77.0331  529.7500   -1.5213   49.0000 
2465.3748   12.2500   64.7383   12.1740   28.2021    0.1564    2.5247   81.4587  531.8750    0.7082   57.0000 
2465.5272   12.2500   79.6118   12.1364   13.3862    0.1917    2.5327   83.9500  532.7500    2.0433   57.0000 
2465.6796   12.2500   87.4909   12.1664    7.5100    0.1891    2.5384   97.2425  529.1250    2.0722   57.0000 
2465.8320   12.2500   85.7754   12.1589    7.0524    0.1806    2.5427  102.3746  525.5625    1.8730   57.0000 
