~VERSION INFORMATION
 VERS.                 2.0:   CWLS LOG ASCII STANDARD - VERSION 2.0
 WRAP.                  NO:   SINGLE LINE PER DEPTH STEP
 CREA.                 30/01/2020 17:31:38
#CREATED USING IP VERSION 4.5.2019.2902 BY RMOTA ON 30/01/2020 17:31:38
~WELL INFORMATION
#MNEM.UNIT       DATA                          DESCRIPTION MNEMONIC
#---------      ---------------------------   --------------------------
 STRT    .M         5.9400                    : START DEPTH
 STOP    .M         3362.3976                 : STOP DEPTH
 STEP    .M         0.1524                    : STEP VALUE
 NULL    .      -999.0000                     : NULL VALUE
 DATE    .      30/01/2020                    : LAS file Creation Date
 WELL   .      7-MP-31D-BA        : Well Name
 COMP   .      PETROBRAS          : Company
 FLD    .      MASSAPE            : Field
 STATE  .      BAHIA              : State
 COUNT  .      BRASIL             : Country
 API    .      20240021426        : API Number
 UWI    .                         : Unique Well Identifier (UWI)
 LOC    .      N= 8.608.492,720 m : Location
 TOWN   .      CATU               : Township
 SCT    .      OH WIRELINE        : Section
 RANG   .      SCHLUMBERGER       : Range
 PDAT   .      NM                 : Permanent Datum
 EPDAT  .      0                  : Elevation of Permanent Datum
 LGMEA  .      MR                 : Log Measured from
 DRMEA  .      MR                 : Drill Measured From
 APDAT  .      66.4               : Elevation Above Permanent Datum
 KB     .      66.7               : KB Elevation
 DF     .      66.4               : DF Elevation
 GL     .      57                 : GL Elevation
 RWS    .      -999               : Def_Rw
 WST    .      -999               : Def_Rwt
 BHS    .      OPEN               : Completion Status
 PROV   .                         : Province
 SRVC   .                         : Contractor
 GDAT   .      WGS 84             : Geodatum
 LONG   .      -38.4314536115858  : Longitude
 LATI   .      -12.5867413889037  : Latitude
 COORDIN.                         : Grid System
 XCOORD .                         : X or East-West Coordinate
 YCOORD .                         : Y or North-South Coordinate
~CURVE INFORMATION
#MNEM              UNIT       API CODE   Curve Type Comments
#----------  --------------- ----------  ---------- -----------
 DEPTH      .M                         : Depth       
 CALI       .inch                      : Caliper     
 BS         .in                        : BitSize     
 GR         .gAPI                      : GammaRay    
 RT         .ohm.m                     : DeepRes     
 NPHI       .m3/m3                     : Neutron     
 RHOB       .g/cm3                     :             
 DT         .us/ft                     : Sonic       
 SP         .mV                        : SP          
 N_Res      .                          :             
 Res        .                          :             
 DRDN       .                          :             
 Lith_new   .                          :             
 DEPTH      .M                         : Depth       
~A  DEPTH    CALI       BS        GR        RT       NPHI      RHOB       DT        SP      N_Res      Res       DRDN    Lith_new   DEPTH   
# ...
 883.3068   12.0817   12.2500   69.4455    4.3927    0.2292    2.3295   95.0635  246.1964 -999.0000 -999.0000   -0.7916   25.0000  883.3068 
 883.4592   12.0570   12.2500   67.3170    4.4081    0.2106    2.3249   94.8395  246.4926 -999.0000 -999.0000   -1.5304   49.0000  883.4592 
 883.6116   12.0811   12.2500   64.9913    4.4499    0.2527    2.3248   95.0399  245.2795 -999.0000 -999.0000   -0.0209   54.0000  883.6116 
 883.7640   12.0694   12.2500   63.3237    4.4496    0.2662    2.3305   94.9265  245.5551 -999.0000 -999.0000    0.4819   57.0000  883.7640 
 883.9164   12.0814   12.2500   63.4911    4.4559    0.2810    2.3352   94.5032  245.8676 -999.0000 -999.0000    1.1414   57.0000  883.9164 
 884.0688   12.1064   12.2500   69.0327    4.5860    0.2495    2.3453   93.9668  245.6919 -999.0000 -999.0000    0.2861   54.0000  884.0688 
 884.2212   12.1317   12.2500   69.5802    4.6606    0.2466    2.3559   93.1328  247.3351 -999.0000 -999.0000    0.4158   57.0000  884.2212 
 884.3736   12.1076   12.2500   72.1127    4.6349    0.2371    2.3670   92.6999  247.2530 -999.0000 -999.0000    0.3173   57.0000  884.3736 
 884.5260   12.1564   12.2500   74.8569    4.7752    0.2717    2.3810   95.2148  247.2500 -999.0000 -999.0000    1.7883   57.0000  884.5260 
 884.6784   12.1452   12.2500   84.3771    4.8595    0.2980    2.3964   95.8410  247.7382 -999.0000 -999.0000    2.9391   57.0000  884.6784 
 884.8308   12.1573   12.2500   81.0904    4.7450    0.3013    2.3968   95.7226  247.5669 -999.0000 -999.0000    2.9013   57.0000  884.8308 
 884.9832   12.1082   12.2500   71.5447    4.7252    0.2671    2.3810   95.3457  247.0743 -999.0000 -999.0000    1.3806   57.0000  884.9832 
 885.1356   12.0700   12.2500   56.6611    5.1029    0.2360    2.3552   91.7483  246.3912 -999.0000 -999.0000   -0.2054   54.0000  885.1356 
 885.2880   12.0814   12.2500   52.5522    5.3036    0.2277    2.3383   90.3019  245.1545 -999.0000 -999.0000   -0.6651   25.0000  885.2880 
 885.4404   12.0817   12.2500   52.2546    5.3312    0.2178    2.3447   88.9825  244.0876 -999.0000 -999.0000   -0.7440   25.0000  885.4404 
 885.5928   12.0817   12.2500   55.3812    5.3107    0.2134    2.3653   87.1159  243.4523 -999.0000 -999.0000   -0.4071   25.0000  885.5928 
 885.7452   12.0817   12.2500   63.9196    5.3623    0.2263    2.3923   86.4871  242.9493 -999.0000 -999.0000    0.5531   57.0000  885.7452 
 885.8976   12.0323   12.2500   71.9341    5.3102    0.2221    2.4056   85.9789  242.9375 -999.0000 -999.0000    0.5417   57.0000  885.8976 
 886.0500   12.0435   12.2500   74.1909    5.4476    0.2266    2.4155   86.2574  241.4119 -999.0000 -999.0000    0.9756   57.0000  886.0500 
 886.2024   12.0685   12.2500   65.6037    5.5610    0.2320    2.4333   88.1273  239.7274 -999.0000 -999.0000    1.5339   57.0000  886.2024 
 886.3548   12.1185   12.2500   64.1563    5.6268    0.2548    2.4609   88.7955  239.9316 -999.0000 -999.0000    2.9357   57.0000  886.3548 
 886.5072   12.1073   12.2500   68.4214    5.7324    0.2481    2.4836   88.9108  239.6934 -999.0000 -999.0000    3.0035   57.0000  886.5072 
 886.6596   12.1194   12.2500   78.2445    6.2776    0.2320    2.4930   89.1453  238.7721 -999.0000 -999.0000    2.6604   57.0000  886.6596 
 886.8120   12.1073   12.2500   84.7293    6.7008    0.2269    2.4990   90.2668  238.6280 -999.0000 -999.0000    2.5524   57.0000  886.8120 
 886.9644   12.1070   12.2500   91.1106    6.9228    0.2462    2.5045   90.3778  239.4183 -999.0000 -999.0000    3.3866   57.0000  886.9644 
 887.1168   12.1194   12.2500   93.8947    7.1281    0.2481    2.5181   89.7235  239.5595 -999.0000 -999.0000    3.6862   57.0000  887.1168 
 887.2692   12.1073   12.2500   86.6767    7.1553    0.2483    2.5236   87.0863  237.9149 -999.0000 -999.0000    3.7901   57.0000  887.2692 
 887.4216   12.1070   12.2500   84.2470    7.4683    0.2210    2.5330   86.9877  242.6959 -999.0000 -999.0000    3.0919   57.0000  887.4216 
 887.5740   12.1317   12.2500   83.6270    8.2692    0.2396    2.5416   88.2951  241.8971 -999.0000 -999.0000    3.8791   57.0000  887.5740 
 887.7264   12.1076   12.2500   89.5991    8.1070    0.2564    2.5453   96.3250  242.4852 -999.0000 -999.0000    4.4080   57.0000  887.7264 
 887.8788   12.1317   12.2500   91.5467    5.9682    0.3085    2.5318  103.2626  241.7677 -999.0000 -999.0000    5.7663   57.0000  887.8788 
 888.0312   12.2064   12.2500   95.1057    4.1741    0.3354    2.5018  106.2158  242.4213 -999.0000 -999.0000    5.9910   57.0000  888.0312 
 888.1836   12.1588   12.2500  103.1041    3.5652    0.3592    2.4781  111.6389  242.4985 -999.0000 -999.0000    6.4746   57.0000  888.1836 
 888.3360   12.1576   12.2500  103.7084    3.5270    0.3736    2.4761  110.4180  242.1949 -999.0000 -999.0000    7.0137   57.0000  888.3360 
 888.4884   12.1576   12.2500  110.4694    3.4494    0.4213    2.4814  111.3495  240.4788 -999.0000 -999.0000    8.7001   57.0000  888.4884 
 888.6408   12.1576   12.2500  108.9784    3.3824    0.4249    2.4847  111.3463  240.4375 -999.0000 -999.0000    8.8596   57.0000  888.6408 
 888.7932   12.1823   12.2500  110.8587    3.4091    0.4261    2.4856  109.3445  240.1934 -999.0000 -999.0000    8.9492   57.0000  888.7932 
 888.9456   12.1829   12.2500  109.4603    3.5258    0.3828    2.5001  106.9923  242.0792 -999.0000 -999.0000    7.9155   57.0000  888.9456 
 889.0980   12.1829   12.2500  114.7250    3.6985    0.3643    2.5239  102.9238  241.6978 -999.0000 -999.0000    7.7706   57.0000  889.0980 
 889.2504   12.1088   12.2500  115.8871    4.1096    0.3216    2.5387   99.8247  241.5044 -999.0000 -999.0000    6.5223   57.0000  889.2504 
 889.4028   12.1070   12.2500  114.5350    4.8161    0.2999    2.5351   98.9326  240.6457 -999.0000 -999.0000    5.6234   57.0000  889.4028 
 889.5552   12.1317   12.2500  108.8296    5.1322    0.2728    2.5224   98.0798  239.7707 -999.0000 -999.0000    4.4782   57.0000  889.5552 
 889.7076   12.1570   12.2500  109.7264    5.0257    0.2973    2.5198  100.7544  240.9705 -999.0000 -999.0000    5.3243   57.0000  889.7076 
 889.8600   12.1576   12.2500  106.5877    4.8180    0.3016    2.5225  101.8377  241.3661 -999.0000 -999.0000    5.5213   57.0000  889.8600 
 890.0124   12.1452   12.2500  107.2294    4.5955    0.3250    2.5235  101.6287  241.9852 -999.0000 -999.0000    6.2818   57.0000  890.0124 
 890.1648   12.1326   12.2500   99.8023    4.5000    0.3172    2.5175  101.5544  242.0610 -999.0000 -999.0000    5.8740   57.0000  890.1648 
 890.3172   12.1323   12.2500  100.7180    4.7216    0.3115    2.5145  100.5224  242.0015 -999.0000 -999.0000    5.6713   57.0000  890.3172 
 890.4696   12.1323   12.2500  101.3637    4.9075    0.3227    2.5116  100.4964  241.2067 -999.0000 -999.0000    5.9556   57.0000  890.4696 
 890.6220   12.1076   12.2500  106.6927    4.8860    0.3160    2.5117   99.5490  242.7741 -999.0000 -999.0000    5.8018   57.0000  890.6220 
 890.7744   12.1317   12.2500  105.5805    4.9138    0.2945    2.5165   99.8166  242.5074 -999.0000 -999.0000    5.1819   57.0000  890.7744 
 890.9268   12.1076   12.2500  100.6563    5.0124    0.2749    2.5222   98.5868  242.8051 -999.0000 -999.0000    4.6292   57.0000  890.9268 
 891.0792   12.1317   12.2500   97.8546    5.1701    0.2784    2.5177   97.1825  244.1550 -999.0000 -999.0000    4.5624   57.0000  891.0792 
 891.2316   12.1076   12.2500   98.3475    5.3174    0.3021    2.5099   97.1495  244.0655 -999.0000 -999.0000    5.2363   57.0000  891.2316 
 891.3840   12.1564   12.2500  100.5633    5.4551    0.3240    2.5096   94.9717  244.6117 -999.0000 -999.0000    6.0314   57.0000  891.3840 
 891.5364   12.1576   12.2500  104.7447    5.5423    0.3325    2.5213   95.0497  244.7470 -999.0000 -999.0000    6.6229   57.0000  891.5364 
 891.6888   12.1329   12.2500  105.4638    5.7665    0.3127    2.5345   91.7979  245.6654 -999.0000 -999.0000    6.1830   57.0000  891.6888 
 891.8412   12.1076   12.2500   98.7270    6.5231    0.2732    2.5457   87.7530  245.6875 -999.0000 -999.0000    5.1014   57.0000  891.8412 
