~VERSION INFORMATION
 VERS.                 2.0:   CWLS LOG ASCII STANDARD - VERSION 2.0
 WRAP.                  NO:   SINGLE LINE PER DEPTH STEP
 CREA.                 30/01/2020 17:28:45
#CREATED USING IP VERSION 4.5.2019.2902 BY RMOTA ON 30/01/2020 17:28:45
~WELL INFORMATION
#MNEM.UNIT       DATA                          DESCRIPTION MNEMONIC
#---------      ---------------------------   --------------------------
 STRT    .M         5.0000                    : START DEPTH
 STOP    .M         2977.0000                 : STOP DEPTH
 STEP    .M         0.1000                    : STEP VALUE
 NULL    .      -999.0000                     : NULL VALUE
 DATE    .      30/01/2020                    : LAS file Creation Date
 WELL   .      7-MP-53D-BA      : Well Name
 COMP   .      PETROBRAS        : Company
 FLD    .      MASSAPE          : Field
 STATE  .      BAHIA            : State
 API    .      20240027945      : API Number
 UWI    .                       : Unique Well Identifier (UWI)
 LOC    .                       : Location
 TOWN   .      -999.25          : Township
 SCT    .      -999.25          : Section
 RANG   .      -999.25          : Range
 PDAT   .      NM               : Permanent Datum
 EPDAT  .      0.00             : Elevation of Permanent Datum
 LGMEA  .      MR               : Log Measured from
 DRMEA  .      MR               : Drill Measured From
 APDAT  .      64.90            : Elevation Above Permanent Datum
 KB     .      -999.25          : KB Elevation
 DF     .      64.90            : DF Elevation
 GL     .      56.80            : GL Elevation
 RWS    .      -999             : Def_Rw
 WST    .      -999             : Def_Rwt
 PROV   .                       : Province
 SRVC   .                       : Contractor
 GDAT   .      WGS 84           : Geodatum
 LONG   .      -38.4325436115265: Longitude
 LATI   .      0                : Latitude
 COORDIN.                       : Grid System
 XCOORD .                       : X or East-West Coordinate
 YCOORD .                       : Y or North-South Coordinate
~CURVE INFORMATION
#MNEM              UNIT       API CODE   Curve Type Comments
#----------  --------------- ----------  ---------- -----------
 DEPTH      .M                         : Depth       
 DEPTH      .M                         : Depth       
 DRDN       .                          :             
 GR         .api                       : GammaRay    
 CAL        .in                        : Caliper     
 Res        .                          :             
 N_Res      .                          :             
 ILD        .ohmm                      : DeepRes     
 RHOB       .g/cc                      : Density     Loaded from DLIS: 7-mp-53d-ba_raw-3.dlis
 NPHI       .dec                       : Neutron     Loaded from DLIS: 7-mp-53d-ba_raw-3.dlis
 Lith_new   .                          :             
~A  DEPTH   DEPTH      DRDN       GR       CAL       Res      N_Res      ILD       RHOB      NPHI    Lith_new 
# ...
2319.1000 2319.1000    4.1127   94.1866    8.8287    0.0000    1.0000    2.9354    2.5722    0.2301   57.0000 
2319.2000 2319.2000    4.2854   92.0358    8.8092    0.0000    1.0000    3.0172    2.5804    0.2303   57.0000 
2319.3000 2319.3000    4.7102   90.6621    8.8138    0.0000    1.0000    3.0831    2.5875    0.2388   57.0000 
2319.4000 2319.4000    4.9745   88.2837    8.8347    0.0000    1.0000    3.0932    2.6040    0.2368   57.0000 
2319.5000 2319.5000    4.8088   85.6227    8.8504    0.0000    1.0000    2.9747    2.6126    0.2267   57.0000 
2319.6000 2319.6000    4.4056   84.8142    8.8092    0.0000    1.0000    2.7985    2.6161    0.2125   57.0000 
2319.7000 2319.7000    4.4100   88.7861    8.8312    0.0000    1.0000    2.5118    2.6174    0.2119   57.0000 
2319.8000 2319.8000    4.9371   92.2163    8.8549    0.0000    1.0000    2.4423    2.6136    0.2300   57.0000 
2319.9000 2319.9000    4.9607   95.1128    8.8263    0.0000    1.0000    2.4126    2.6146    0.2301   57.0000 
2320.0000 2320.0000    5.0839   96.5493    8.8115    0.0000    1.0000    2.4297    2.6158    0.2330   57.0000 
2320.1000 2320.1000    5.3985   97.3892    8.8084    0.0000    1.0000    2.4606    2.6179    0.2412   57.0000 
2320.2000 2320.2000    4.9210   97.2557    8.7960    0.0000    1.0000    2.4993    2.6176    0.2271   57.0000 
2320.3000 2320.3000    4.8531   95.8114    8.8075    0.0000    1.0000    2.5765    2.6194    0.2240   57.0000 
2320.4000 2320.4000    5.3502   94.7753    8.8011    0.0000    1.0000    2.5926    2.6210    0.2379   57.0000 
2320.5000 2320.5000    5.4491   92.6245    8.8051    0.0000    1.0000    2.5786    2.6199    0.2415   57.0000 
2320.6000 2320.6000    5.4453   91.5648    8.8107    0.0000    1.0000    2.5306    2.6213    0.2406   57.0000 
2320.7000 2320.7000    5.1309   90.2853    8.7965    0.0000    1.0000    2.3582    2.6160    0.2343   57.0000 
2320.8000 2320.8000    5.1926   92.3733    8.7975    0.0000    1.0000    2.2649    2.6177    0.2352   57.0000 
2320.9000 2320.9000    5.3115   94.5162    8.7642    0.0000    1.0000    2.1842    2.6146    0.2406   57.0000 
2321.0000 2321.0000    5.5396   95.9370    8.7728    0.0000    1.0000    2.0720    2.6071    0.2519   57.0000 
2321.1000 2321.1000    5.6720   96.9731    8.7761    0.0000    1.0000    2.0393    2.5982    0.2612   57.0000 
2321.2000 2321.2000    5.5344   97.2636    8.7847    0.0000    1.0000    2.0238    2.5908    0.2616   57.0000 
2321.3000 2321.3000    5.2475   97.6247    8.7988    0.0000    1.0000    2.0551    2.5804    0.2592   57.0000 
2321.4000 2321.4000    4.9019   98.1349    8.7795    0.0000    1.0000    2.0969    2.5759    0.2515   57.0000 
2321.5000 2321.5000    4.6479  100.0580    8.7763    0.0000    1.0000    2.1485    2.5695    0.2477   57.0000 
2321.6000 2321.6000    4.6906  100.5290    8.7343    0.0000    1.0000    2.2437    2.5622    0.2534   57.0000 
2321.7000 2321.7000    4.3047   97.3970    8.7487    0.0000    1.0000    2.2444    2.5598    0.2433   57.0000 
2321.8000 2321.8000    4.4479   93.6606    8.7547    0.0000    1.0000    2.1962    2.5618    0.2464   57.0000 
2321.9000 2321.9000    3.9089   94.5869    8.7797    0.0000    1.0000    2.0447    2.5539    0.2349   57.0000 
2322.0000 2322.0000    3.9713   98.2369    8.8044    0.0000    1.0000    1.9878    2.5514    0.2383   57.0000 
2322.1000 2322.1000    4.1836  101.3296    8.7903    0.0000    1.0000    1.9582    2.5478    0.2468   57.0000 
2322.2000 2322.2000    4.3278  102.3265    8.7777    0.0000    1.0000    1.9566    2.5502    0.2497   57.0000 
2322.3000 2322.3000    4.4105   96.8868    8.7399    0.0000    1.0000    2.0117    2.5533    0.2503   57.0000 
2322.4000 2322.4000    4.3411   95.2776    8.7427    0.0000    1.0000    2.0521    2.5566    0.2463   57.0000 
2322.5000 2322.5000    4.5482   96.7769    8.7483    0.0000    1.0000    2.0941    2.5580    0.2516   57.0000 
2322.6000 2322.6000    4.5089  102.6955    8.7516    0.0000    1.0000    2.1832    2.5561    0.2516   57.0000 
2322.7000 2322.7000    4.2059  103.9121    8.7647    0.0000    1.0000    2.2213    2.5540    0.2438   57.0000 
2322.8000 2322.8000    4.1352  102.4678    8.7562    0.0000    1.0000    2.2379    2.5508    0.2436   57.0000 
2322.9000 2322.9000    4.2154  101.5887    8.7568    0.0000    1.0000    2.2037    2.5481    0.2476   57.0000 
2323.0000 2323.0000    4.0924  101.9968    8.7572    0.0000    1.0000    2.1809    2.5423    0.2474   57.0000 
2323.1000 2323.1000    4.3595  103.3941    8.7595    0.0000    1.0000    2.1690    2.5408    0.2563   57.0000 
2323.2000 2323.2000    4.2343  101.7221    8.7707    0.0000    1.0000    2.1760    2.5411    0.2524   57.0000 
2323.3000 2323.3000    4.0378  101.9026    8.7821    0.0000    1.0000    2.1829    2.5488    0.2419   57.0000 
2323.4000 2323.4000    3.9681  102.4521    8.7564    0.0000    1.0000    2.1871    2.5554    0.2358   57.0000 
2323.5000 2323.5000    4.6397  101.1883    8.7628    0.0000    1.0000    2.1847    2.5745    0.2445   57.0000 
2323.6000 2323.6000    4.8669   98.7236    8.7642    0.0000    1.0000    2.1828    2.5845    0.2453   57.0000 
2323.7000 2323.7000    4.8332   96.1332    8.7728    0.0000    1.0000    2.1889    2.5917    0.2400   57.0000 
2323.8000 2323.8000    5.0446   93.9275    8.7665    0.0000    1.0000    2.2096    2.5947    0.2445   57.0000 
2323.9000 2323.9000    5.0104   91.0389    8.7560    0.0000    1.0000    2.2819    2.5855    0.2490   57.0000 
2324.0000 2324.0000    4.9890   91.8239    8.7474    0.0000    1.0000    2.3056    2.5794    0.2520   57.0000 
2324.1000 2324.1000    5.4402   95.3012    8.7333    0.0000    1.0000    2.3080    2.5766    0.2672   57.0000 
2324.2000 2324.2000    5.1857  104.5950    8.7592    0.0000    1.0000    2.2764    2.5843    0.2550   57.0000 
2324.3000 2324.3000    5.1113  106.5025    8.7513    0.0000    1.0000    2.2656    2.5912    0.2486   57.0000 
2324.4000 2324.4000    5.4367  105.6469    8.7607    0.0000    1.0000    2.2619    2.5950    0.2561   57.0000 
2324.5000 2324.5000    5.5715  101.1098    8.7415    0.0000    1.0000    2.2508    2.5988    0.2579   57.0000 
2324.6000 2324.6000    5.3971   98.8413    8.7313    0.0000    1.0000    2.2296    2.5947    0.2551   57.0000 
2324.7000 2324.7000    5.2639   96.2196    8.7499    0.0000    1.0000    2.1948    2.5908    0.2534   57.0000 
2324.8000 2324.8000    4.9092   95.5288    8.7633    0.0000    1.0000    2.1175    2.5723    0.2539   57.0000 
2324.9000 2324.9000    4.6124   97.6168    8.7746    0.0000    1.0000    2.0898    2.5658    0.2489   57.0000 
2325.0000 2325.0000    4.3936  101.0313    8.7712    0.0000    1.0000    2.0657    2.5613    0.2450   57.0000 
2325.1000 2325.1000    4.3221  103.2292    8.7721    0.0000    1.0000    2.0141    2.5728    0.2360   57.0000 
2325.2000 2325.2000    4.8837  105.1602    8.7731    0.0000    1.0000    1.9897    2.5823    0.2471   57.0000 
2325.3000 2325.3000    5.2375  106.4868    8.8395    0.0000    1.0000    1.9667    2.5920    0.2519   57.0000 
2325.4000 2325.4000    5.6094  108.2529    8.8091    0.0000    1.0000    1.9440    2.5966    0.2603   57.0000 
2325.5000 2325.5000    5.4077  109.5089    8.7643    0.0000    1.0000    1.8984    2.5893    0.2587   57.0000 
2325.6000 2325.6000    5.2709  107.4601    8.7658    0.0000    1.0000    1.8796    2.5815    0.2592   57.0000 
2325.7000 2325.7000    4.8669  106.1257    8.7709    0.0000    1.0000    1.8663    2.5737    0.2518   57.0000 
2325.8000 2325.8000    5.3091  105.1995    8.7627    0.0000    1.0000    1.8521    2.5705    0.2670   57.0000 
2325.9000 2325.9000    5.5084  105.6469    8.7524    0.0000    1.0000    1.8420    2.5708    0.2728   57.0000 
2326.0000 2326.0000    4.8844  105.1445    8.7392    0.0000    1.0000    1.8200    2.5706    0.2542   57.0000 
2326.1000 2326.1000    4.2148  104.5322    8.7210    0.0000    1.0000    1.7749    2.5628    0.2388   57.0000 
2326.2000 2326.2000    4.4972  104.0691    8.7154    0.0000    1.0000    1.7832    2.5622    0.2476   57.0000 
2326.3000 2326.3000    4.6463  104.7049    8.7118    0.0000    1.0000    1.8178    2.5617    0.2524   57.0000 
