~VERSION INFORMATION
 VERS.                 2.0:   CWLS LOG ASCII STANDARD - VERSION 2.0
 WRAP.                  NO:   SINGLE LINE PER DEPTH STEP
 CREA.                 28/08/2020 11:52:07
#CREATED USING IP VERSION 4.5.2019.2902 BY CANDIDO ON 28/08/2020 11:52:07
~WELL INFORMATION
#MNEM.UNIT       DATA                          DESCRIPTION MNEMONIC
#---------      ---------------------------   --------------------------
 STRT    .M         639.0000                  : START DEPTH
 STOP    .M         3007.1000                 : STOP DEPTH
 STEP    .M         0.1000                    : STEP VALUE
 NULL    .      -999.0000                     : NULL VALUE
 DATE    .      28/08/2020                    : LAS file Creation Date
 WELL   .      7-MP-55D-BA     : Well Name
 COMP   .      PETROBRAS       : Company
 FLD    .      MASSAPE         : Field
 STATE  .      BAHIA           : State
 COUNT  .      -999.25         : Country
 API    .      20240028408     : API Number
 UWI    .                      : Unique Well Identifier (UWI)
 LOC    .      -999.25         : Location
 TOWN   .      -999.25         : Township
 SCT    .      -999.25         : Section
 RANG   .      -999.25         : Range
 PDAT   .      NM              : Permanent Datum
 EPDAT  .      0.00            : Elevation of Permanent Datum
 LGMEA  .      MR              : Log Measured from
 DRMEA  .      MR              : Drill Measured From
 APDAT  .      65.67           : Elevation Above Permanent Datum
 KB     .      65.97           : KB Elevation
 DF     .      65.67           : DF Elevation
 GL     .      56.27           : GL Elevation
 RWS    .      -999            : Def_Rw
 WST    .      -999            : Def_Rwt
 PROV   .                      : Province
 SRVC   .                      : Contractor
 GDAT   .      WGS 84          : Geodatum
 LONG   .      -38.435231944455: Longitude
 LATI   .      0               : Latitude
 COORDIN.                      : Grid System
 XCOORD .                      : X or East-West Coordinate
 YCOORD .                      : Y or North-South Coordinate
~CURVE INFORMATION
#MNEM                UNIT       API CODE   Curve Type Comments
#----------    --------------- ----------  ---------- -----------
 DEPTH        .M                         : Depth       
 TVD          .M                         : Depth       
 TVDSS        .M                         : Depth       
 GR           .api                       : GammaRay    
 CAL          .in                        : Caliper     
 BS           .in                        : BitSize     
 Lith_new     .                          :             
 RT           .ohmm                      : DeepRes     
 NPHI         .decp                      : Neutron     
 RHOB         .g/cc                      : Density     
 Res          .                          :             
 N_Res        .                          :             
 VCLGR        .Dec                       : Vcl         
 Phi_Gaymard  .                          :             
 Phie_Gaymard .                          :             
 SwArch       .Dec                       :             
 SwSim        .Dec                       :             
~A  DEPTH    TVD      TVDSS       GR       CAL        BS     Lith_new     RT       NPHI      RHOB      Res      N_Res     VCLGR   Phi_Gaym~ Phie_Gay~   SwArch    SwSim   
# ...
2401.5000 2388.5784 -2322.9084   96.2336    8.6182    8.5000   57.0000    8.6840    0.1530    2.6243    0.0000    1.0000    0.6449    0.1089    0.0387    1.3000    0.5890 
2401.6000 2388.6779 -2323.0079   96.9817    8.6418    8.5000   57.0000    8.6200    0.1603    2.6191    0.0000    1.0000    0.6570    0.1143    0.0392    1.3000    0.5633 
2401.7000 2388.7775 -2323.1075   99.1648    8.6417    8.5000   57.0000    8.6965    0.1592    2.6208    0.0000    1.0000    0.6934    0.1134    0.0348    1.3000    0.5534 
2401.8000 2388.8770 -2323.2070  107.5233    8.6859    8.5000   57.0000    9.3262    0.1659    2.6358    0.0000    1.0000    0.8452    0.1175    0.0182    1.3000    0.4490 
2401.9000 2388.9765 -2323.3065  109.7217    8.6798    8.5000   57.0000    9.8464    0.1643    2.6398    0.0000    1.0000    0.8888    0.1163    0.0129    1.3000    0.4045 
2402.0000 2389.0760 -2323.4060  106.2638    8.6871    8.5000   57.0000   10.3839    0.1646    2.6371    0.0000    1.0000    0.8210    0.1165    0.0209    1.3000    0.4152 
2402.1000 2389.1755 -2323.5055   96.9511    8.6782    8.5000   57.0000   11.1921    0.1578    2.6036    0.0000    1.0000    0.6565    0.1137    0.0390    1.1959    0.4218 
2402.2000 2389.2750 -2323.6050   95.8977    8.6494    8.5000   57.0000   11.5163    0.1457    2.5893    0.0000    1.0000    0.6395    0.1069    0.0385    1.0465    0.4077 
2402.3000 2389.3746 -2323.7046   94.9436    8.6887    8.5000   57.0000   12.0484    0.1257    2.5810    0.0000    1.0000    0.6243    0.0946    0.0355    1.1428    0.4101 
2402.4000 2389.4741 -2323.8041   91.7910    8.7632    8.5000   57.0000   15.0560    0.1207    2.5909    0.0000    1.0000    0.5757    0.0897    0.0381    1.1502    0.3668 
2402.5000 2389.5736 -2323.9036   85.9820    8.7410    8.5000   57.0000   18.2748    0.1140    2.5894    0.0000    1.0000    0.4926    0.0855    0.0434    0.8384    0.3317 
2402.6000 2389.6731 -2324.0031   78.5166    8.8012    8.5000   54.0000   22.8811    0.0972    2.5798    0.0000    1.0000    0.3969    0.0762    0.0460    0.6200    0.2991 
2402.7000 2389.7726 -2324.1026   66.9139    8.8490    8.5000   25.0000   28.2418    0.0930    2.5663    0.0000    1.0000    0.2696    0.0766    0.0559    0.3336    0.2348 
2402.8000 2389.8722 -2324.2022   48.9068    8.7932    8.5000   49.0000   32.9802    0.0877    2.5221    1.0000    0.0000    0.1146    0.0862    0.0763    0.1853    0.1679 
2402.9000 2389.9717 -2324.3017   46.7619    8.7390    8.5000   49.0000   30.3591    0.0883    2.5073    1.0000    0.0000    0.0990    0.0915    0.0824    0.1771    0.1643 
2403.0000 2390.0712 -2324.4012   50.3343    8.7567    8.5000   49.0000   26.0191    0.0987    2.4907    1.0000    0.0000    0.1253    0.1022    0.0894    0.1777    0.1637 
2403.1000 2390.1707 -2324.5007   62.2728    8.8623    8.5000   49.0000   17.3796    0.1098    2.4828    1.0000    0.0000    0.2252    0.1103    0.0854    0.2297    0.2024 
2403.2000 2390.2703 -2324.6003   67.4406    8.9047    8.5000   25.0000   14.3969    0.1379    2.4830    0.0000    1.0000    0.2749    0.1250    0.0906    0.2330    0.2046 
2403.3000 2390.3698 -2324.6998   70.8146    8.8982    8.5000   25.0000   12.4680    0.1454    2.4903    0.0000    1.0000    0.3097    0.1271    0.0878    0.2591    0.2250 
2403.4000 2390.4693 -2324.7993   78.4632    8.9461    8.5000   54.0000   11.3112    0.1524    2.5043    0.0000    1.0000    0.3962    0.1275    0.0770    0.3110    0.2557 
2403.5000 2390.5688 -2324.8988   81.6615    9.0303    8.5000   57.0000   11.9541    0.1613    2.5076    0.0000    1.0000    0.4358    0.1321    0.0745    0.3082    0.2462 
2403.6000 2390.6683 -2324.9984   82.0508    8.9687    8.5000   57.0000   13.5226    0.1601    2.5136    0.0000    1.0000    0.4407    0.1300    0.0727    0.3017    0.2347 
2403.7000 2390.7679 -2325.0979   70.8222    9.0380    8.5000   57.0000   20.3326    0.1517    2.5210    0.0000    1.0000    0.3098    0.1231    0.0850    0.2221    0.1825 
2403.8000 2390.8674 -2325.1974   64.6010    8.9085    8.5000   57.0000   25.7669    0.1502    2.5319    0.0000    1.0000    0.2470    0.1197    0.0902    0.1877    0.1587 
2403.9000 2390.9669 -2325.2969   62.0896    8.8640    8.5000   54.0000   31.7527    0.1252    2.5399    0.0000    1.0000    0.2235    0.1024    0.0796    0.1914    0.1581 
2404.0000 2391.0665 -2325.3965   72.6924    8.8650    8.5000   57.0000   37.5484    0.1154    2.5764    0.0000    1.0000    0.3300    0.0886    0.0594    0.2859    0.1766 
2404.1000 2391.1660 -2325.4960   79.7761    8.9184    8.5000   57.0000   35.3210    0.1187    2.5944    0.0000    1.0000    0.4122    0.0879    0.0517    0.4228    0.1927 
2404.2000 2391.2655 -2325.5955   84.0355    8.9432    8.5000   57.0000   31.2701    0.1314    2.6070    0.0000    1.0000    0.4665    0.0951    0.0507    0.5257    0.2056 
2404.3000 2391.3650 -2325.6950   83.4859    8.9683    8.5000   57.0000   27.1203    0.1397    2.6072    0.0000    1.0000    0.4593    0.1008    0.0545    0.4889    0.2244 
2404.4000 2391.4646 -2325.7946   80.4860    9.0361    8.5000   57.0000   21.4201    0.1430    2.5984    0.0000    1.0000    0.4210    0.1040    0.0602    0.4337    0.2559 
2404.5000 2391.5641 -2325.8941   79.5471    8.9778    8.5000   57.0000   19.8642    0.1228    2.5959    0.0000    1.0000    0.4094    0.0905    0.0534    0.5397    0.3004 
2404.6000 2391.6636 -2325.9936   79.8066    9.0027    8.5000   57.0000   18.8336    0.1128    2.5964    0.0000    1.0000    0.4126    0.0836    0.0491    0.6663    0.3382 
2404.7000 2391.7632 -2326.0932   77.7991    9.0122    8.5000   57.0000   17.4044    0.1056    2.5960    0.0000    1.0000    0.3883    0.0788    0.0482    0.7048    0.3753 
2404.8000 2391.8627 -2326.1927   78.4632    9.0944    8.5000   54.0000   16.6486    0.0971    2.5970    0.0000    1.0000    0.3962    0.0730    0.0441    0.8800    0.4165 
2404.9000 2391.9622 -2326.2922   79.1273    9.1034    8.5000   54.0000   15.7412    0.0954    2.6000    0.0000    1.0000    0.4043    0.0714    0.0425    1.0134    0.4477 
2405.0000 2392.0618 -2326.3918   80.7303    8.9431    8.5000   57.0000   13.7306    0.0964    2.6056    0.0000    1.0000    0.4240    0.0713    0.0410    1.2804    0.5111 
2405.1000 2392.1613 -2326.4913   78.4784    8.8674    8.5000   57.0000   12.8987    0.0996    2.6036    0.0000    1.0000    0.3964    0.0737    0.0445    1.0350    0.5185 
2405.2000 2392.2608 -2326.5908   77.2571    8.8672    8.5000   57.0000   12.3301    0.1082    2.5994    0.0000    1.0000    0.3819    0.0801    0.0495    0.8021    0.4812 
2405.3000 2392.3604 -2326.6904   75.6236    8.8353    8.5000   57.0000   11.9156    0.1122    2.5940    0.0000    1.0000    0.3628    0.0836    0.0532    0.6742    0.4515 
2405.4000 2392.4599 -2326.7899   73.9213    8.8346    8.5000   57.0000   11.9259    0.1150    2.5933    0.0000    1.0000    0.3435    0.0855    0.0562    0.6039    0.4287 
2405.5000 2392.5594 -2326.8894   70.0665    8.8466    8.5000   57.0000   11.9881    0.1105    2.5893    0.0000    1.0000    0.3018    0.0831    0.0580    0.5429    0.4128 
2405.6000 2392.6590 -2326.9890   62.4255    8.8322    8.5000   54.0000   12.1364    0.1059    2.5747    0.0000    1.0000    0.2266    0.0828    0.0640    0.4265    0.3616 
2405.7000 2392.7585 -2327.0885   61.4255    8.8288    8.5000   54.0000   12.2580    0.1026    2.5673    0.0000    1.0000    0.2174    0.0822    0.0644    0.4118    0.3529 
2405.8000 2392.8580 -2327.1880   60.2805    8.8270    8.5000   25.0000   12.4893    0.0968    2.5661    0.0000    1.0000    0.2071    0.0789    0.0626    0.4163    0.3577 
2405.9000 2392.9576 -2327.2876   59.7309    8.8276    8.5000   25.0000   12.8862    0.0935    2.5657    0.0000    1.0000    0.2022    0.0770    0.0614    0.4165    0.3575 
2406.0000 2393.0571 -2327.3871   57.9905    8.7537    8.5000   25.0000   14.1899    0.0934    2.5694    0.0000    1.0000    0.1871    0.0761    0.0618    0.3905    0.3375 
2406.1000 2393.1566 -2327.4866   57.2501    8.7554    8.5000   25.0000   14.9627    0.0895    2.5656    0.0000    1.0000    0.1807    0.0746    0.0611    0.3772    0.3267 
