~VERSION INFORMATION
 VERS.                 2.0:   CWLS LOG ASCII STANDARD - VERSION 2.0
 WRAP.                  NO:   SINGLE LINE PER DEPTH STEP
 CREA.                 06/02/2020 16:08:49
#CREATED USING IP VERSION 4.5.2019.2902 BY RMOTA ON 06/02/2020 16:08:49
~WELL INFORMATION
#MNEM.UNIT       DATA                          DESCRIPTION MNEMONIC
#---------      ---------------------------   --------------------------
 STRT    .M         -0.4572                   : START DEPTH
 STOP    .M         3564.6360                 : STOP DEPTH
 STEP    .M         0.1524                    : STEP VALUE
 NULL    .      -999.0000                     : NULL VALUE
 DATE    .      06/02/2020                    : LAS file Creation Date
 WELL   .      7-MP-28D-BA        : Well Name
 COMP   .      PETROBRAS          : Company
 FLD    .      MASSAPE            : Field
 STATE  .      BAHIA              : State
 COUNT  .      BRASIL             : Country
 API    .      20240021354        : API Number
 UWI    .                         : Unique Well Identifier (UWI)
 LOC    .      N= 8.609.866,070 m : Location
 TOWN   .      CATU               : Township
 SCT    .      OH WIRELINE        : Section
 RANG   .      SCHLUMBERGER       : Range
 PDAT   .      NM                 : Permanent Datum
 EPDAT  .      0                  : Elevation of Permanent Datum
 LGMEA  .      MR                 : Log Measured from
 DRMEA  .      MR                 : Drill Measured From
 APDAT  .      105.72             : Elevation Above Permanent Datum
 KB     .      106.02             : KB Elevation
 DF     .      105.72             : DF Elevation
 GL     .      96.31999           : GL Elevation
 RWS    .      -999               : Def_Rw
 WST    .      -999               : Def_Rwt
 BHS    .      OPEN               : Completion Status
 PROV   .                         : Province
 SRVC   .                         : Contractor
 GDAT   .      WGS 84             : Geodatum
 LONG   .      -38.4270011107127  : Longitude
 LATI   .      -12.5743130556742  : Latitude
 COORDIN.                         : Grid System
 XCOORD .                         : X or East-West Coordinate
 YCOORD .                         : Y or North-South Coordinate
~CURVE INFORMATION
#MNEM              UNIT       API CODE   Curve Type Comments
#----------  --------------- ----------  ---------- -----------
 DEPTH      .M                         : Depth       
 BS         .in                        : BitSize     
 GR         .gAPI                      : GammaRay    
 CAL        .in                        : Caliper     
 RT         .ohm.m                     : DeepRes     
 NPHI       .m3/m3                     : Neutron     
 RHOB       .g/cm3                     :             
 DT         .us/ft                     : Sonic       
 SP         .mV                        : SP          Loaded from DLIS: 7-mp-28d-ba_raw-2p.dlis
 DRDN       .                          :             
 Lith_new   .                          :             
~A  DEPTH     BS        GR       CAL        RT       NPHI      RHOB       DT        SP       DRDN    Lith_new 
# ...
2469.3372    8.5000   90.8194    8.3432    2.4998    0.3183    2.5541   87.2493 -999.0000    6.7650   57.0000 
2469.4896    8.5000   85.8302    8.3772    2.6210    0.2788    2.5698   90.0815 -999.0000    5.7895   57.0000 
2469.6420    8.5000   83.6114    8.3999    2.7676    0.2611    2.5745   92.9632 -999.0000    5.1293   57.0000 
2469.7944    8.5000   88.4488    8.3886    2.4512    0.2826    2.5603   98.6392 -999.0000    5.5211   57.0000 
2469.9468    8.5000   98.0774    8.3659    2.1839    0.3112    2.5466  101.4578 -999.0000    6.2324   57.0000 
2470.0992    8.5000   98.4808    8.3432    1.9453    0.3191    2.5449  101.0526 -999.0000    6.6079   57.0000 
2470.2516    8.5000   98.6956    8.2409    1.8136    0.3173    2.5598   99.5069 -999.0000    6.8653   57.0000 
2470.4040    8.5000   88.5613    8.2523    1.8168    0.3171    2.5674   98.5095 -999.0000    6.9597   57.0000 
2470.5564    8.5000   97.2350    8.2750    1.8745    0.3100    2.5727   97.9908 -999.0000    6.7875   57.0000 
2470.7088    8.5000   95.8204    8.2750    1.9192    0.3331    2.5689   97.6180 -999.0000    7.4470   57.0000 
2470.8612    8.5000  102.1867    8.2636    1.9049    0.3344    2.5658   97.9844 -999.0000    7.4476   57.0000 
2471.0136    8.5000   99.9156    8.2750    1.8795    0.3447    2.5673   97.8076 -999.0000    7.8847   57.0000 
2471.1660    8.5000  104.7658    8.2750    1.8868    0.3272    2.5771   97.9531 -999.0000    7.5300   57.0000 
2471.3184    8.5000  102.0789    8.2523    1.8834    0.3426    2.5873   97.4431 -999.0000    8.2003   57.0000 
2471.4708    8.5000  101.7278    8.2750    1.8818    0.3491    2.5883   97.1354 -999.0000    8.4122   57.0000 
2471.6232    8.5000   96.4734    8.2409    1.8542    0.3275    2.5967   91.2746 -999.0000    7.9241   57.0000 
2471.7756    8.5000   91.1337    8.3204    2.0161    0.2896    2.6079   87.8741 -999.0000    6.8984   57.0000 
2471.9280    8.5000   86.5521    8.3886    2.5752    0.2605    2.6191   82.5488 -999.0000    6.0827   57.0000 
2472.0804    8.5000   80.6915    8.2296    3.2111    0.2519    2.6096   81.1824 -999.0000    5.4735   57.0000 
2472.2328    8.5000   84.8209    8.2977    2.9799    0.2669    2.5928   84.3295 -999.0000    5.6454   57.0000 
2472.3852    8.5000   86.3768    8.4340    2.5260    0.2774    2.5789   86.4567 -999.0000    5.7451   57.0000 
2472.5376    8.5000   94.6120    8.4794    2.2162    0.3179    2.5654   92.2812 -999.0000    6.8215   57.0000 
2472.6900    8.5000   99.2514    8.5703    2.0333    0.3331    2.5585   86.2563 -999.0000    7.2868   57.0000 
2472.8424    8.5000   93.6034    8.5703    2.0508    0.3259    2.5674   93.0104 -999.0000    7.3370   57.0000 
2472.9948    8.5000   92.2393    8.5249    2.2086    0.2841    2.5986   93.8865 -999.0000    6.7408   57.0000 
2473.1472    8.5000   85.6364    8.5930    2.3868    0.2594    2.6387   87.6175 -999.0000    6.5636   57.0000 
2473.2996    8.5000   89.2833    8.7407    2.2353    0.2686    2.6356   94.8524 -999.0000    6.4815   57.0000 
2473.4520    8.5000   94.5377    8.7975    2.0900    0.2937    2.6017  101.8963 -999.0000    6.5504   57.0000 
2473.6044    8.5000  100.9389    8.6612    2.2416    0.3213    2.5604  104.6664 -999.0000    6.6962   57.0000 
2473.7568    8.5000   99.3091    8.6839    2.3892    0.3227    2.5464  107.1741 -999.0000    6.7224   57.0000 
2473.9092    8.5000   94.6610    8.6839    2.4489    0.3365    2.5547  102.5994 -999.0000    7.3930   57.0000 
2474.0616    8.5000   89.0682    8.6157    2.4840    0.2943    2.5735   99.5740 -999.0000    6.4375   57.0000 
2474.2140    8.5000   86.2164    8.6839    2.7992    0.2659    2.5952   85.6356 -999.0000    5.9013   57.0000 
2474.3664    8.5000   85.0039    8.5703    3.2338    0.2664    2.6052   84.5842 -999.0000    5.9337   57.0000 
2474.5188    8.5000   91.8070    8.3999    3.0580    0.2926    2.5895   89.1160 -999.0000    6.4142   57.0000 
2474.6712    8.5000  100.3067    8.3432    2.4711    0.3372    2.5717   82.1602 -999.0000    7.5768   57.0000 
2474.8236    8.5000   99.3993    8.3204    2.2821    0.3088    2.5663   83.9516 -999.0000    6.6469   57.0000 
2474.9760    8.5000   92.9445    8.3886    2.4527    0.3023    2.5688   81.3629 -999.0000    6.4620   57.0000 
2475.1284    8.5000   89.1120    8.4340    2.5301    0.2747    2.5706   59.1176 -999.0000    5.5697   57.0000 
2475.2808    8.5000   91.0298    8.6612    2.4716    0.2988    2.5661   90.2495 -999.0000    6.2300   57.0000 
2475.4332    8.5000   92.3681    8.3659    2.3729    0.3040    2.5565   94.2039 -999.0000    6.1625   57.0000 
2475.5856    8.5000   91.2130    8.2750    2.5298    0.3323    2.5362   97.2598 -999.0000    6.6412   57.0000 
2475.7380    8.5000   90.4046    8.2069    2.6574    0.3208    2.5176   97.5419 -999.0000    5.9847   57.0000 
2475.8904    8.5000   88.8646    8.3432    2.7082    0.3515    2.5128   98.0819 -999.0000    6.9591   57.0000 
2476.0428    8.5000   89.7052    8.3318    2.7131    0.3540    2.5158   96.5006 -999.0000    7.1937   57.0000 
2476.1952    8.5000   90.4566    8.2182    2.7758    0.3644    2.5274   89.8665 -999.0000    7.7370   57.0000 
2476.3476    8.5000   90.2548    8.2296    2.8534    0.3614    2.5280   92.6939 -999.0000    7.5808   57.0000 
2476.5000    8.5000   92.2435    8.3204    2.9162    0.3544    2.5285   92.6593 -999.0000    7.4365   57.0000 
2476.6524    8.5000   94.7256    8.3091    3.0398    0.3450    2.5383   88.1544 -999.0000    7.3369   57.0000 
2476.8048    8.5000   95.7342    8.2750    3.3159    0.2787    2.5606   88.0999 -999.0000    5.7753   57.0000 
2476.9572    8.5000   90.2275    8.3432    3.4881    0.2414    2.5979   79.5679 -999.0000    5.1627   57.0000 
2477.1096    8.5000   85.9836    8.3204    3.7935    0.2090    2.6267   76.4124 -999.0000    4.7706   57.0000 
2477.2620    8.5000   84.4343    8.4113    3.9559    0.2230    2.6563   78.7121 -999.0000    5.6127   57.0000 
2477.4144    8.5000   86.8549    8.4113    4.3190    0.2191    2.6575   74.8656 -999.0000    5.4263   57.0000 
2477.5668    8.5000   93.1197    8.4454    4.2783    0.2251    2.6402   77.2412 -999.0000    5.0913   57.0000 
2477.7192    8.5000   93.9176    8.4454    3.7885    0.2391    2.6155   79.4371 -999.0000    5.1965   57.0000 
2477.8716    8.5000   94.6062    8.4567    3.4403    0.2578    2.6068   83.0567 -999.0000    5.7218   57.0000 
2478.0240    8.5000   92.5853    8.5249    3.1748    0.2750    2.6079   85.1533 -999.0000    6.3245   57.0000 
2478.1764    8.5000   97.9760    8.5930    2.8413    0.2726    2.6090   87.2096 -999.0000    6.2997   57.0000 
2478.3288    8.5000   98.0943    8.6498    2.5933    0.2777    2.6131   86.8761 -999.0000    6.5276   57.0000 
2478.4812    8.5000   98.7315    8.7066    2.6722    0.2638    2.6196   85.5699 -999.0000    6.2804   57.0000 
2478.6336    8.5000   93.4869    8.6157    2.9177    0.2625    2.6279   83.0871 -999.0000    6.2949   57.0000 
2478.7860    8.5000   97.5851    8.6384    3.2349    0.2478    2.6224   84.3536 -999.0000    5.6705   57.0000 
2478.9384    8.5000   92.2998    8.6498    3.3759    0.2779    2.6139   86.7099 -999.0000    6.4412   57.0000 
2479.0908    8.5000   99.1580    8.7520    3.0105    0.2907    2.5993   88.0956 -999.0000    6.6252   57.0000 
2479.2432    8.5000   95.6650    8.8202    2.6167    0.2961    2.5998   89.1384 -999.0000    6.9017   57.0000 
2479.3956    8.5000  102.2653    8.8429    2.4920    0.2811    2.6028   88.1819 -999.0000    6.4470   57.0000 
2479.5480    8.5000   97.6259    8.9337    2.5318    0.2721    2.6052   86.8874 -999.0000    6.1697   57.0000 
2479.7004    8.5000   99.6431    8.9337    2.6012    0.2742    2.6047   86.2298 -999.0000    6.2362   57.0000 
2479.8528    8.5000   98.7013    8.9792    2.6622    0.2892    2.6062   87.5085 -999.0000    6.7733   57.0000 
2480.0052    8.5000   96.6842    8.9792    2.6701    0.2853    2.6085   87.5319 -999.0000    6.6838   57.0000 
2480.1576    8.5000   91.1205    8.9110    2.7093    0.2871    2.6022   88.3197 -999.0000    6.5229   57.0000 
2480.3100    8.5000   88.8975    8.8656    2.7422    0.2681    2.5933   88.5171 -999.0000    5.7665   57.0000 
