~VERSION INFORMATION
 VERS.                 2.0:   CWLS LOG ASCII STANDARD - VERSION 2.0
 WRAP.                  NO:   SINGLE LINE PER DEPTH STEP
 CREA.                 30/01/2020 17:28:45
#CREATED USING IP VERSION 4.5.2019.2902 BY RMOTA ON 30/01/2020 17:28:45
~WELL INFORMATION
#MNEM.UNIT       DATA                          DESCRIPTION MNEMONIC
#---------      ---------------------------   --------------------------
 STRT    .M         5.0000                    : START DEPTH
 STOP    .M         2977.0000                 : STOP DEPTH
 STEP    .M         0.1000                    : STEP VALUE
 NULL    .      -999.0000                     : NULL VALUE
 DATE    .      30/01/2020                    : LAS file Creation Date
 WELL   .      7-MP-53D-BA      : Well Name
 COMP   .      PETROBRAS        : Company
 FLD    .      MASSAPE          : Field
 STATE  .      BAHIA            : State
 API    .      20240027945      : API Number
 UWI    .                       : Unique Well Identifier (UWI)
 LOC    .                       : Location
 TOWN   .      -999.25          : Township
 SCT    .      -999.25          : Section
 RANG   .      -999.25          : Range
 PDAT   .      NM               : Permanent Datum
 EPDAT  .      0.00             : Elevation of Permanent Datum
 LGMEA  .      MR               : Log Measured from
 DRMEA  .      MR               : Drill Measured From
 APDAT  .      64.90            : Elevation Above Permanent Datum
 KB     .      -999.25          : KB Elevation
 DF     .      64.90            : DF Elevation
 GL     .      56.80            : GL Elevation
 RWS    .      -999             : Def_Rw
 WST    .      -999             : Def_Rwt
 PROV   .                       : Province
 SRVC   .                       : Contractor
 GDAT   .      WGS 84           : Geodatum
 LONG   .      -38.4325436115265: Longitude
 LATI   .      0                : Latitude
 COORDIN.                       : Grid System
 XCOORD .                       : X or East-West Coordinate
 YCOORD .                       : Y or North-South Coordinate
~CURVE INFORMATION
#MNEM              UNIT       API CODE   Curve Type Comments
#----------  --------------- ----------  ---------- -----------
 DEPTH      .M                         : Depth       
 DEPTH      .M                         : Depth       
 DRDN       .                          :             
 GR         .api                       : GammaRay    
 CAL        .in                        : Caliper     
 Res        .                          :             
 N_Res      .                          :             
 ILD        .ohmm                      : DeepRes     
 RHOB       .g/cc                      : Density     Loaded from DLIS: 7-mp-53d-ba_raw-3.dlis
 NPHI       .dec                       : Neutron     Loaded from DLIS: 7-mp-53d-ba_raw-3.dlis
 Lith_new   .                          :             
~A  DEPTH   DEPTH      DRDN       GR       CAL       Res      N_Res      ILD       RHOB      NPHI    Lith_new 
# ...
2749.8000 2749.8000   -2.8205   54.1696    8.5369    1.0000    0.0000   21.4368    2.4400    0.1014   49.0000 
2749.9000 2749.9000   -2.8186   52.4427    8.5201    1.0000    0.0000   22.0167    2.4423    0.1001   49.0000 
2750.0000 2750.0000   -2.9682   53.0393    8.5302    1.0000    0.0000   21.8529    2.4313    0.1022   49.0000 
2750.1000 2750.1000   -3.0420   55.5826    8.5519    1.0000    0.0000   21.1613    2.4227    0.1051   49.0000 
2750.2000 2750.2000   -2.9590   57.6234    8.5677    1.0000    0.0000   20.2435    2.4141    0.1128   49.0000 
2750.3000 2750.3000   -2.8152   59.2169    8.5919    1.0000    0.0000   18.3848    2.4037    0.1233   49.0000 
2750.4000 2750.4000   -2.7265   58.5104    8.6143    1.0000    0.0000   17.7025    2.4035    0.1261   49.0000 
2750.5000 2750.5000   -2.9177   57.8354    8.5803    1.0000    0.0000   17.2417    2.3992    0.1229   49.0000 
2750.6000 2750.6000   -2.9606   57.8118    8.5839    1.0000    0.0000   16.9729    2.3966    0.1232   49.0000 
2750.7000 2750.7000   -2.9584   60.8888    8.5906    1.0000    0.0000   16.8120    2.4018    0.1202   49.0000 
2750.8000 2750.8000   -2.8308   61.9485    8.5975    1.0000    0.0000   16.7922    2.4132    0.1172   49.0000 
2750.9000 2750.9000   -2.6578   62.2704    8.5999    1.0000    0.0000   16.7113    2.4231    0.1164   49.0000 
2751.0000 2751.0000   -2.4112   61.6895    8.6077    1.0000    0.0000   16.0767    2.4405    0.1134   49.0000 
2751.1000 2751.1000   -2.2734   62.9454    8.6132    1.0000    0.0000   15.4633    2.4475    0.1133   49.0000 
2751.2000 2751.2000   -2.0470   65.3003    8.6104    1.0000    0.0000   14.6911    2.4566    0.1146   49.0000 
2751.3000 2751.3000   -1.7300   70.7086    8.5976    1.0000    0.0000   12.9814    2.4718    0.1150   49.0000 
2751.4000 2751.4000   -1.6384   73.0556    8.6085    1.0000    0.0000   12.1925    2.4776    0.1143   49.0000 
2751.5000 2751.5000   -1.3943   74.3272    8.6008    1.0000    0.0000   11.5298    2.4803    0.1200   49.0000 
2751.6000 2751.6000   -1.1792   77.5141    8.5874    1.0000    0.0000   10.6459    2.4818    0.1255   49.0000 
2751.7000 2751.7000   -1.2587   78.4718    8.5971    1.0000    0.0000   10.4018    2.4851    0.1212   49.0000 
2751.8000 2751.8000   -1.2495   79.1076    8.5955    1.0000    0.0000   10.2570    2.4888    0.1192   49.0000 
2751.9000 2751.9000   -1.0248   75.4105    8.6095    1.0000    0.0000   10.1476    2.4998    0.1194   49.0000 
2752.0000 2752.0000   -0.7791   74.2095    8.6028    0.0000    1.0000   10.1332    2.5010    0.1260   25.0000 
2752.1000 2752.1000   -0.8369   73.5423    8.5964    0.0000    1.0000   10.1163    2.5022    0.1236   25.0000 
2752.2000 2752.2000   -0.7064   75.3712    8.6024    0.0000    1.0000   10.0796    2.5031    0.1269   25.0000 
2752.3000 2752.3000   -0.4468   81.8314    8.6025    0.0000    1.0000    9.9061    2.5128    0.1289   25.0000 
2752.4000 2752.4000   -0.1882   85.0654    8.6007    0.0000    1.0000    9.7535    2.5248    0.1295   54.0000 
2752.5000 2752.5000    0.2699   87.0513    8.5959    0.0000    1.0000    9.5460    2.5418    0.1330   54.0000 
2752.6000 2752.6000    1.3116   96.7848    8.5940    0.0000    1.0000    9.0026    2.5759    0.1438   57.0000 
2752.7000 2752.7000    1.8080  102.7033    8.5996    0.0000    1.0000    8.7451    2.5919    0.1491   57.0000 
2752.8000 2752.8000    2.0056  108.3157    8.6127    0.0000    1.0000    8.5658    2.6025    0.1487   57.0000 
2752.9000 2752.9000    2.3719  113.7868    8.6017    0.0000    1.0000    8.5465    2.6079    0.1564   57.0000 
2753.0000 2753.0000    2.5505  116.5106    8.5949    0.0000    1.0000    8.7067    2.6008    0.1660   57.0000 
2753.1000 2753.1000    2.5015  120.5217    8.5943    0.0000    1.0000    8.9543    2.5968    0.1670   57.0000 
2753.2000 2753.2000    2.3955  122.7589    8.5829    0.0000    1.0000    9.6027    2.5912    0.1671   57.0000 
2753.3000 2753.3000    2.1476  120.4511    8.5922    0.0000    1.0000    9.9490    2.5865    0.1625   57.0000 
2753.4000 2753.4000    1.8579  115.8120    8.5941    0.0000    1.0000   10.2689    2.5746    0.1610   57.0000 
2753.5000 2753.5000    0.7526  104.3360    8.5912    0.0000    1.0000   10.7365    2.5384    0.1495   57.0000 
2753.6000 2753.6000    0.3416   97.6561    8.5991    0.0000    1.0000   10.8661    2.5215    0.1473   57.0000 
2753.7000 2753.7000   -0.2530   92.0593    8.6018    0.0000    1.0000   10.9357    2.4987    0.1432   54.0000 
2753.8000 2753.8000   -0.5101   86.7216    8.5992    0.0000    1.0000   10.9631    2.4824    0.1453   25.0000 
2753.9000 2753.9000   -1.2228   80.3714    8.6019    1.0000    0.0000   10.9704    2.4606    0.1370   49.0000 
2754.0000 2754.0000   -1.2700   78.6131    8.6049    1.0000    0.0000   10.9848    2.4627    0.1343   49.0000 
2754.1000 2754.1000   -1.1642   78.8643    8.6037    1.0000    0.0000   11.0167    2.4616    0.1381   49.0000 
2754.2000 2754.2000   -1.0050   78.7779    8.6016    1.0000    0.0000   11.1127    2.4574    0.1454   49.0000 
2754.3000 2754.3000   -1.1956   78.6209    8.5991    1.0000    0.0000   11.1659    2.4544    0.1415   49.0000 
2754.4000 2754.4000   -1.2590   77.0196    8.6024    1.0000    0.0000   11.2308    2.4559    0.1387   49.0000 
2754.5000 2754.5000   -1.0236   74.6334    8.6035    1.0000    0.0000   11.4626    2.4622    0.1420   49.0000 
2754.6000 2754.6000   -0.9536   74.6805    8.5984    0.0000    1.0000   11.6664    2.4661    0.1417   25.0000 
2754.7000 2754.7000   -0.8343   75.8029    8.6091    0.0000    1.0000   11.9492    2.4695    0.1433   25.0000 
2754.8000 2754.8000   -0.9363   75.0808    8.6045    0.0000    1.0000   12.7557    2.4761    0.1362   25.0000 
2754.9000 2754.9000   -0.9343   73.4402    8.6133    0.0000    1.0000   13.2495    2.4785    0.1349   25.0000 
2755.0000 2755.0000   -0.9562   71.0461    8.6183    0.0000    1.0000   13.7659    2.4771    0.1351   25.0000 
2755.1000 2755.1000   -1.3960   65.4730    8.5973    1.0000    0.0000   14.7507    2.4606    0.1318   49.0000 
2755.2000 2755.2000   -1.8894   64.3426    8.6034    1.0000    0.0000   15.2097    2.4465    0.1254   49.0000 
2755.3000 2755.3000   -2.0951   64.8058    8.6072    1.0000    0.0000   15.6807    2.4349    0.1262   49.0000 
2755.4000 2755.4000   -2.3230   67.0821    8.6103    1.0000    0.0000   16.2118    2.4283    0.1233   49.0000 
2755.5000 2755.5000   -2.3611   69.3035    8.6044    1.0000    0.0000   17.6620    2.4310    0.1206   49.0000 
2755.6000 2755.6000   -2.2959   67.5923    8.6103    1.0000    0.0000   18.6336    2.4347    0.1203   49.0000 
2755.7000 2755.7000   -2.2958   65.3238    8.6079    1.0000    0.0000   19.7202    2.4350    0.1201   49.0000 
2755.8000 2755.8000   -2.5769   64.9313    8.5994    1.0000    0.0000   21.8677    2.4230    0.1189   49.0000 
2755.9000 2755.9000   -2.7309   64.5389    8.5963    1.0000    0.0000   22.7548    2.4157    0.1187   49.0000 
2756.0000 2756.0000   -2.9088   62.5843    8.5872    1.0000    0.0000   23.4515    2.4116    0.1158   49.0000 
2756.1000 2756.1000   -2.9184   54.9546    8.5672    1.0000    0.0000   24.2552    2.4204    0.1102   49.0000 
2756.2000 2756.2000   -2.7711   52.9059    8.5658    1.0000    0.0000   24.3674    2.4293    0.1093   49.0000 
2756.3000 2756.3000   -2.5640   52.5683    8.5658    1.0000    0.0000   24.2873    2.4392    0.1096   49.0000 
2756.4000 2756.4000   -2.6070   53.9106    8.5545    1.0000    0.0000   23.6150    2.4500    0.1018   49.0000 
2756.5000 2756.5000   -2.6672   54.1932    8.5518    1.0000    0.0000   23.0828    2.4505    0.0997   49.0000 
2756.6000 2756.6000   -2.6896   53.7144    8.5510    1.0000    0.0000   22.4455    2.4483    0.1003   49.0000 
2756.7000 2756.7000   -2.6496   52.5683    8.5539    1.0000    0.0000   20.8465    2.4429    0.1048   49.0000 
2756.8000 2756.8000   -2.6995   51.7284    8.5593    1.0000    0.0000   19.9143    2.4407    0.1046   49.0000 
2756.9000 2756.9000   -2.6474   52.9137    8.5866    1.0000    0.0000   18.9864    2.4377    0.1080   49.0000 
2757.0000 2757.0000   -2.6844   55.6375    8.5992    1.0000    0.0000   18.1626    2.4415    0.1046   49.0000 
