~VERSION INFORMATION
 VERS.                 2.0:   CWLS LOG ASCII STANDARD - VERSION 2.0
 WRAP.                  NO:   SINGLE LINE PER DEPTH STEP
 CREA.                 06/02/2020 16:08:49
#CREATED USING IP VERSION 4.5.2019.2902 BY RMOTA ON 06/02/2020 16:08:49
~WELL INFORMATION
#MNEM.UNIT       DATA                          DESCRIPTION MNEMONIC
#---------      ---------------------------   --------------------------
 STRT    .M         -0.4572                   : START DEPTH
 STOP    .M         3564.6360                 : STOP DEPTH
 STEP    .M         0.1524                    : STEP VALUE
 NULL    .      -999.0000                     : NULL VALUE
 DATE    .      06/02/2020                    : LAS file Creation Date
 WELL   .      7-MP-28D-BA        : Well Name
 COMP   .      PETROBRAS          : Company
 FLD    .      MASSAPE            : Field
 STATE  .      BAHIA              : State
 COUNT  .      BRASIL             : Country
 API    .      20240021354        : API Number
 UWI    .                         : Unique Well Identifier (UWI)
 LOC    .      N= 8.609.866,070 m : Location
 TOWN   .      CATU               : Township
 SCT    .      OH WIRELINE        : Section
 RANG   .      SCHLUMBERGER       : Range
 PDAT   .      NM                 : Permanent Datum
 EPDAT  .      0                  : Elevation of Permanent Datum
 LGMEA  .      MR                 : Log Measured from
 DRMEA  .      MR                 : Drill Measured From
 APDAT  .      105.72             : Elevation Above Permanent Datum
 KB     .      106.02             : KB Elevation
 DF     .      105.72             : DF Elevation
 GL     .      96.31999           : GL Elevation
 RWS    .      -999               : Def_Rw
 WST    .      -999               : Def_Rwt
 BHS    .      OPEN               : Completion Status
 PROV   .                         : Province
 SRVC   .                         : Contractor
 GDAT   .      WGS 84             : Geodatum
 LONG   .      -38.4270011107127  : Longitude
 LATI   .      -12.5743130556742  : Latitude
 COORDIN.                         : Grid System
 XCOORD .                         : X or East-West Coordinate
 YCOORD .                         : Y or North-South Coordinate
~CURVE INFORMATION
#MNEM              UNIT       API CODE   Curve Type Comments
#----------  --------------- ----------  ---------- -----------
 DEPTH      .M                         : Depth       
 BS         .in                        : BitSize     
 GR         .gAPI                      : GammaRay    
 CAL        .in                        : Caliper     
 RT         .ohm.m                     : DeepRes     
 NPHI       .m3/m3                     : Neutron     
 RHOB       .g/cm3                     :             
 DT         .us/ft                     : Sonic       
 SP         .mV                        : SP          Loaded from DLIS: 7-mp-28d-ba_raw-2p.dlis
 DRDN       .                          :             
 Lith_new   .                          :             
~A  DEPTH     BS        GR       CAL        RT       NPHI      RHOB       DT        SP       DRDN    Lith_new 
# ...
 311.0484   12.2500   71.8500 -999.0000    4.4866    0.5138    2.6814  138.2816 -104.0625   16.0552   57.0000 
 311.2008   12.2500   74.2753 -999.0000    4.4866    0.4055    2.7118  140.9023 -103.5000   12.6882   57.0000 
 311.3532   12.2500   71.8489 -999.0000    4.4866    0.2971    2.6691  140.8750 -102.5000    7.8905   57.0000 
 311.5056   12.2500   74.3689 -999.0000    4.4866    0.1888    2.6121  -44.8813 -102.8125    3.0842   57.0000 
 311.6580   12.2500   74.5864 -999.0000    4.4866    0.0804    2.5329  -43.9306 -102.5625   -2.1370   49.0000 
 311.8104   12.2500   75.7236 -999.0000    4.4866   -0.0279    2.4994  -45.6343 -102.0625   -5.9043   49.0000 
 311.9628   12.2500   73.1944 -999.0000    4.4866   -0.0443    2.5124  -46.7009 -102.1250   -6.1090   49.0000 
 312.1152   12.2500   76.0809 -999.0000    4.4866   -0.0368    2.5274 -233.2856 -101.3750   -5.6009   49.0000 
 312.2676   12.2500   78.6207 -999.0000    4.4866   -0.0282    2.5366 -233.0845 -101.3750   -5.1740   49.0000 
 312.4200   12.2500   84.4838 -999.0000    4.4866    0.0034    2.5366 -231.2532 -100.8750   -4.1886   49.0000 
 312.5724   12.2500   80.3334 -999.0000    4.4866    0.0764    2.5347 -232.6997 -100.4375   -1.7504   49.0000 
 312.7248   12.2500   75.5771 -999.0000    4.4866    0.0415    2.5398 -232.5529  -99.9375   -2.7602   49.0000 
 312.8772   12.2500   72.2432 -999.0000    4.4866    0.0367    2.5511 -231.8531  -99.9375   -2.6681   49.0000 
 313.0296   12.2500   75.8053 -999.0000    4.4866    0.0319    2.5658 -231.6138  -99.8125   -2.5328   49.0000 
 313.1820   12.2500   81.7252 -999.0000    4.4866    0.0270    2.5742 -232.3400  -99.6250   -2.5647   49.0000 
 313.3344   12.2500   80.6905 -999.0000    4.4866    0.0222    2.5875 -233.5860  -99.2500   -2.3861   49.0000 
 313.4868   12.2500   77.5881 -999.0000    4.4866    0.0173    2.6032 -234.7447  -98.6875   -2.2560   49.0000 
 313.6392   12.2500   75.1738 -999.0000    4.4866    0.0125    2.6244 -233.7753  -98.4375   -1.9418   49.0000 
 313.7916   12.2500   76.8854 -999.0000    4.4866    0.0754    2.6417 -232.3013  -98.3750    0.4199   57.0000 
 313.9440   12.2500   80.4606 -999.0000    4.4866    0.1383    2.6546 -232.8589  -98.3750    2.8179   57.0000 
 314.0964   12.2500   79.3110 -999.0000    4.4866    0.1659    2.6761 -234.4783  -98.6250    4.2366   57.0000 
 314.2488   12.2500   81.8389 -999.0000    4.4866   -0.0677    2.7013  -48.6220  -97.5625   -3.1166   49.0000 
 314.4012   12.2500   82.1844 -999.0000    4.4866   -0.0723    2.7118  -47.2170  -97.3750   -3.1578   49.0000 
 314.5536   12.2500   83.5640 -999.0000    4.4866   -0.0769    2.7066  -47.6053  -96.6250   -3.5069   49.0000 
 314.7060   12.2500   81.0361 -999.0000    4.4866   -0.0814    2.6997  -47.5583  -96.6875   -3.7179   49.0000 
 314.8584   12.2500   77.4890 -999.0000    4.4866   -0.0860    2.6997  -47.8087  -96.6250   -3.8704   49.0000 
 315.0108   12.2500   77.6040 -999.0000    4.4866   -0.0906    2.6990  -48.0040  -96.1875   -4.0874   49.0000 
 315.1632   12.2500   80.7064 -999.0000    4.4866   -0.0952    2.6961  -51.2102  -95.8750   -4.1929   49.0000 
 315.3156   12.2500   82.6440 -999.0000    4.4866   -0.0997    2.7147   93.6501  -96.1250   -3.8636   49.0000 
 315.4680   12.2500   82.2857 -999.0000    4.4866   -0.1043    2.7358   93.0027  -95.2500   -3.6542   49.0000 
 315.6204   12.2500   81.4954 -999.0000    4.4866   -0.1089    2.7372   92.6208  -94.8750   -4.0078   49.0000 
 315.7728   12.2500   86.3083 -999.0000    4.4866   -0.1135    2.7154  129.7172  -94.7500   -4.6217   49.0000 
 315.9252   12.2500   86.7710 -999.0000    4.4866   -0.1180    2.7010  129.4950  -94.5625   -4.9225   49.0000 
 316.0776   12.2500   85.0333 -999.0000    4.4866   -0.1226    2.7103  122.2288  -94.5000   -4.7550   49.0000 
 316.2300   12.2500   79.1858 -999.0000    4.4866   -0.1272    2.7247  114.9779  -94.1875   -4.6989   49.0000 
 316.3824   12.2500   78.2635 -999.0000    4.4866   -0.1318    2.7262  113.8006  -93.8750   -4.9178   49.0000 
 316.5348   12.2500   82.9902 -999.0000    4.4866   -0.1363    2.7123  116.7651  -93.9375   -5.4536   49.0000 
 316.6872   12.2500   83.5520 -999.0000    4.4866   -0.1409    2.6922  119.3250  -94.0625   -5.9238   49.0000 
 316.8396   12.2500   81.5847 -999.0000    4.4866   -0.1455    2.6816  121.1752  -93.7500   -6.3116   49.0000 
 316.9920   12.2500   82.1595 -999.0000    4.4866   -0.1501    2.6670  120.7385  -93.0000   -6.7376   49.0000 
 317.1444   12.2500   84.2278 -999.0000    4.4866   -0.1546    2.6546  119.0446  -92.0625   -7.1822   49.0000 
 317.2968   12.2500   86.2083 -999.0000    4.4866   -0.1592    2.6371  110.6059  -92.8750   -7.6398   49.0000 
 317.4492   12.2500   74.3572 -999.0000    4.4866   -0.1638    2.6278  104.9145  -91.6875   -7.9739   49.0000 
 317.6016   12.2500   65.9789 -999.0000    4.4866   -0.1684    2.6138  102.9420  -91.6250   -8.4529   49.0000 
 317.7540   12.2500   61.0355 -999.0000    4.4866   -0.1729    2.5969  104.4771  -91.3750   -8.9454   49.0000 
 317.9064   12.2500   64.3677 -999.0000    4.4866   -0.1669    2.5778  111.6919  -91.1250   -9.1323   49.0000 
 318.0588   12.2500   70.9206 -999.0000    4.4866    0.0065    2.5636  116.9896  -90.9375   -3.5960   49.0000 
 318.2112   12.2500   71.8292 -999.0000    4.4866    0.0019    2.5446  121.2569  -90.7500   -4.2120   49.0000 
 318.3636   12.2500   74.5999 -999.0000    4.4866   -0.0027    2.5272  124.2691  -90.3125   -4.5922   49.0000 
 318.5160   12.2500   72.7483 -999.0000    4.4866   -0.0073    2.5185  124.7074  -89.9375   -4.9554   49.0000 
 318.6684   12.2500   74.8288 -999.0000    4.4866   -0.0120    2.5079  125.2793  -89.3750   -5.2913   49.0000 
 318.8208   12.2500   72.7476 -999.0000    4.4866   -0.0166    2.4983  126.9492  -89.0000   -5.6784   49.0000 
 318.9732   12.2500   71.3399 -999.0000    4.4866   -0.0212    2.4882  128.0003  -88.6250   -5.9692   49.0000 
 319.1256   12.2500   71.9147 -999.0000    4.4866   -0.0258    2.4827  128.6714  -88.1875   -6.2804   49.0000 
 319.2780   12.2500   69.1570 -999.0000    4.4866   -0.0585    2.4701  128.8414  -87.2500   -7.6157   49.0000 
 319.4304   12.2500   71.7264 -999.0000    4.4866   -0.0640    2.4564  128.3121  -86.9375   -8.1092   49.0000 
 319.5828   12.2500   70.3350 -999.0000    4.4866   -0.0695    2.4556  122.5372  -86.9375   -8.0821   49.0000 
 319.7352   12.2500   71.9293 -999.0000    4.4866   -0.0444    2.4785  118.6483  -86.1250   -6.7473   49.0000 
 319.8876   12.2500   65.4913 -999.0000    4.4866   -0.0279    2.5035  111.5864  -86.2500   -5.7063   49.0000 
 320.0400   12.2500   62.5038 -999.0000    4.4866   -0.0233    2.5165  103.0208  -86.6250   -5.4170   49.0000 
 320.1924   12.2500   60.5752 -999.0000    4.4866   -0.0337    2.5208  103.0852  -86.1875   -5.6848   49.0000 
 320.3448   12.2500   61.7248 -999.0000    4.4866   -0.0336    2.5279  107.4980  -86.1250   -5.4676   49.0000 
 320.4972   12.2500   61.1503 -999.0000    4.4866   -0.0375    2.5489  112.8015  -84.5000   -5.0921   49.0000 
 320.6496   12.2500   65.9788 -999.0000    4.4866   -0.0267    2.5765  120.9941  -84.1875   -4.1646   49.0000 
 320.8020   12.2500   66.7730 -999.0000    4.4866   -0.0241    2.6103  125.9964  -83.8750   -3.3470   49.0000 
 320.9544   12.2500   70.3469 -999.0000    4.4866   -0.0267    2.6469  126.9277  -84.2500   -2.7001   49.0000 
 321.1068   12.2500   67.8062 -999.0000    4.4866   -0.0234    2.6865  126.1586  -84.4375   -1.7812   49.0000 
 321.2592   12.2500   71.8860 -999.0000    4.4866   -0.0202    2.7314  123.1749  -84.6250   -0.7013   25.0000 
 321.4116   12.2500   72.9207 -999.0000    4.4866   -0.0170    2.7797  118.0505  -83.0625    0.3289   57.0000 
 321.5640   12.2500   72.0014 -999.0000    4.4866   -0.0137    2.8239  116.4192  -82.3125    1.2876   57.0000 
 321.7164   12.2500   71.1511 -999.0000    4.4866   -0.0009    2.8481  113.2492  -82.1875    1.9699   57.0000 
 321.8688   12.2500   68.9555 -999.0000    4.4866    0.0313    2.8506  112.4640  -81.5000    3.0597   57.0000 
 322.0212   12.2500   69.3115 -999.0000    4.4866   -0.0673    2.8528  112.7656  -81.5000   -0.1417   54.0000 
