~VERSION INFORMATION
 VERS.                 2.0:   CWLS LOG ASCII STANDARD - VERSION 2.0
 WRAP.                  NO:   SINGLE LINE PER DEPTH STEP
 CREA.                 06/02/2020 16:35:30
#CREATED USING IP VERSION 4.5.2019.2902 BY RMOTA ON 06/02/2020 16:35:30
~WELL INFORMATION
#MNEM.UNIT       DATA                          DESCRIPTION MNEMONIC
#---------      ---------------------------   --------------------------
 STRT    .M         15.6972                   : START DEPTH
 STOP    .M         2951.2260                 : STOP DEPTH
 STEP    .M         0.1524                    : STEP VALUE
 NULL    .      -999.0000                     : NULL VALUE
 DATE    .      06/02/2020                    : LAS file Creation Date
 WELL   .      7-MP-36D-BA       : Well Name
 COMP   .      PETROBRAS         : Company
 FLD    .      MASSAPE           : Field
 STATE  .      20240022534       : State
 COUNT  .      BRASIL            : Country
 API    .      20240022534       : API Number
 UWI    .                        : Unique Well Identifier (UWI)
 LOC    .      N= 8607444.13 M   : Location
 PDAT   .      NM                : Permanent Datum
 EPDAT  .      0                 : Elevation of Permanent Datum
 LGMEA  .      MR                : Log Measured from
 DRMEA  .      MR                : Drill Measured From
 APDAT  .      65.81             : Elevation Above Permanent Datum
 KB     .      66.11             : KB Elevation
 DF     .      65.81             : DF Elevation
 GL     .      56.41             : GL Elevation
 RWS    .      -999              : Def_Rw
 WST    .      -999              : Def_Rwt
 BHS    .      OPEN              : Completion Status
 PROV   .                        : Province
 SRVC   .                        : Contractor
 GDAT   .      WGS 84            : Geodatum
 LONG   .      -38.4351329444514 : Longitude
 LATI   .      -12.5962309720781 : Latitude
 COORDIN.                        : Grid System
 XCOORD .                        : X or East-West Coordinate
 YCOORD .                        : Y or North-South Coordinate
~CURVE INFORMATION
#MNEM              UNIT       API CODE   Curve Type Comments
#----------  --------------- ----------  ---------- -----------
 DEPTH      .M                         : Depth       
 BS         .in                        : BitSize     Loaded from DLIS: 7-mp-36d-ba_raw-1.dlis
 DCAL       .in                        :             Loaded from DLIS: 7-mp-36d-ba_raw-1.dlis
 GR         .gAPI                      : GammaRay    Loaded from DLIS: 7-mp-36d-ba_raw-1.dlis
 RT         .ohm.m                     : DeepRes     Loaded from DLIS: 7-mp-36d-ba_raw-1.dlis
 NPHI       .m3/m3                     : Neutron     Loaded from DLIS: 7-mp-36d-ba_raw-1.dlis
 RHOB       .g/cm3                     : Density     Loaded from DLIS: 7-mp-36d-ba_raw-1.dlis
 DT         .us/ft                     : Sonic       Loaded from DLIS: 7-mp-36d-ba_raw-1.dlis
 SP         .mV                        : SP          Loaded from DLIS: 7-mp-36d-ba_raw-1.dlis
 DRDN       .                          :             
 Lith_new   .                          :             
~A  DEPTH     BS       DCAL       GR        RT       NPHI      RHOB       DT        SP       DRDN    Lith_new 
# ...
2162.8608    8.5000    0.1585   71.1000    7.0729    0.1528    2.6431   68.3930  267.3750    2.9255   57.0000 
2163.0132    8.5000    0.1466   72.6174    7.9122    0.1683    2.6381   69.7264  267.3750    3.3385   57.0000 
2163.1656    8.5000    0.0871   75.6442    8.0848    0.1902    2.6350   70.3909  267.4375    4.0344   57.0000 
2163.3180    8.5000    0.0871   81.6952    7.0116    0.2125    2.6280   71.2074  268.0625    4.5623   57.0000 
2163.4704    8.5000    0.0752   91.6318    5.7977    0.2302    2.6199   73.9858  267.6875    5.0437   57.0000 
2163.6228    8.5000    0.0871  100.4699    4.7495    0.2596    2.6207   75.7537  267.4375    6.1141   57.0000 
2163.7752    8.5000    0.0395  100.2365    3.8001    0.2618    2.6323   79.1034  268.5000    6.4823   57.0000 
2163.9276    8.5000   -0.0081  100.3331    3.2310    0.2551    2.6481   80.2673  269.7500    6.5630   57.0000 
2164.0800    8.5000   -0.0081   90.2831    3.3807    0.2180    2.6595   79.4113  269.8750    5.5230   57.0000 
2164.2324    8.5000   -0.0438   90.1566    4.2971    0.1832    2.6738   73.7717  269.5000    4.6970   57.0000 
2164.3848    8.5000   -0.1033   76.6990    5.7160    0.1464    2.6874   68.1828  269.3750    3.6842   57.0000 
2164.5372    8.5000   -0.1033   73.5693    8.2333    0.1366    2.6910   67.0415  269.0000    3.3205   57.0000 
2164.6896    8.5000   -0.1033   74.8586    9.1302    0.1693    2.6719   67.6464  268.6875    3.9172   57.0000 
2164.8420    8.5000   -0.0557   85.9533    6.5725    0.2113    2.6577   70.7751  269.0000    5.1677   57.0000 
2164.9944    8.5000   -0.0557   94.3314    5.1775    0.2265    2.6509   75.8850  270.2500    5.5293   57.0000 
2165.1468    8.5000   -0.0557   89.6479    4.5194    0.2448    2.6506   78.5277  270.8750    6.1760   57.0000 
2165.2992    8.5000   -0.0557   88.3081    3.9501    0.2390    2.6446   79.9371  271.3750    5.7922   57.0000 
2165.4516    8.5000   -0.0557   90.9535    3.5706    0.2552    2.6411   80.3159  271.5625    6.3394   57.0000 
2165.6040    8.5000   -0.0557  100.8415    3.3088    0.2504    2.6388   81.3364  271.4375    6.0893   57.0000 
2165.7564    8.5000   -0.0795  101.9726    3.1077    0.2647    2.6356   83.0067  271.2500    6.5282   57.0000 
2165.9088    8.5000   -0.0676  104.7177    2.8630    0.2577    2.6320   81.3316  271.1250    6.1716   57.0000 
2166.0612    8.5000   -0.0914   95.5667    2.8263    0.2418    2.6269   80.8720  271.2500    5.6205   57.0000 
2166.2136    8.5000   -0.0557   95.0005    3.3523    0.2242    2.6330   76.9091  271.5625    5.1707   57.0000 
2166.3660    8.5000   -0.0795   84.1607    3.9403    0.2063    2.6373   68.9970  271.4375    4.6777   57.0000 
2166.5184    8.5000   -0.1033   84.7174    4.1372    0.2179    2.6480   70.3988  271.4375    5.2611   57.0000 
2166.6708    8.5000    0.0395   85.9726    3.7479    0.2180    2.6460   70.4733  271.3750    5.1404   57.0000 
2166.8232    8.5000    0.0038   91.5550    3.5692    0.2403    2.6382   73.6321  271.8125    5.7282   57.0000 
2166.9756    8.5000   -0.0319   97.6301    3.6268    0.2476    2.6315   80.5835  271.7500    5.8140   57.0000 
2167.1280    8.5000    0.0157  101.2720    3.5195    0.2676    2.6194   81.1447  271.7500    6.2495   57.0000 
2167.2804    8.5000    0.1347  100.7672    3.2340    0.2862    2.6199   79.3797  271.5625    6.9968   57.0000 
2167.4328    8.5000    0.0633   98.2009    3.8539    0.2639    2.6343   76.6381  272.0625    6.6545   57.0000 
2167.5852    8.5000   -0.0795   86.0362    5.0778    0.2175    2.6675   73.7858  271.9375    5.8336   57.0000 
2167.7376    8.5000   -0.0319   76.3159    7.0827    0.1542    2.6963   68.2938  271.3750    4.1935   57.0000 
2167.8900    8.5000    0.0038   68.5900    9.9192    0.1089    2.7021   64.0673  271.1875    2.6139   57.0000 
2168.0424    8.5000   -0.0319   65.7603   13.2386    0.0948    2.6927   61.2287  271.6250    1.9369   57.0000 
2168.1948    8.5000   -0.0438   66.3867   11.6761    0.1177    2.6756   61.3712  272.1250    2.2773   57.0000 
2168.3472    8.5000   -0.0795   73.9935    8.0333    0.1759    2.6537   68.4884  271.6250    3.8098   57.0000 
2168.4996    8.5000   -0.1033   79.6456    6.0816    0.1934    2.6377   71.6883  272.0625    4.1479   57.0000 
2168.6520    8.5000   -0.1033   85.4401    5.1934    0.1702    2.6415   71.2864  271.8750    3.6285   57.0000 
2168.8044    8.5000   -0.0557   81.8648    5.9863    0.1466    2.6649   68.8757  272.0625    3.3490   57.0000 
2168.9568    8.5000   -0.0676   79.4064    8.0826    0.1556    2.6782   67.3376  271.8750    3.7162   57.0000 
2169.1092    8.5000   -0.0795   83.8436    7.1333    0.1830    2.6631   69.6866  271.9375    4.2324   57.0000 
2169.2616    8.5000   -0.0557   87.0471    5.8029    0.1898    2.6481   72.9495  271.8750    4.2414   57.0000 
2169.4140    8.5000   -0.0319   94.0230    5.0274    0.1979    2.6412   76.0412  271.8125    4.3914   57.0000 
2169.5664    8.5000   -0.0557   89.8996    4.4972    0.2258    2.6366   80.3917  272.3125    5.1568   57.0000 
2169.7188    8.5000    0.0276   95.2323    3.4537    0.2640    2.6107   84.1762  272.5000    5.8056   57.0000 
2169.8712    8.5000    0.0038   99.3441    2.7380    0.2955    2.5869   87.0793  272.1250    6.4633   57.0000 
2170.0236    8.5000    0.0395  108.4636    2.5245    0.2919    2.5753   88.2455  271.6250    6.2752   57.0000 
2170.1760    8.5000   -0.0200  105.0834    2.7902    0.2772    2.5976   82.9009  271.7500    6.3963   57.0000 
2170.3284    8.5000    0.0871   98.6090    3.1290    0.2512    2.6293   78.9031  272.3125    6.1985   57.0000 
2170.4808    8.5000   -0.0557   94.0305    3.7234    0.2669    2.6552   80.2788  272.7500    7.0405   57.0000 
2170.6332    8.5000   -0.0557   97.4684    3.3567    0.2654    2.6469   80.6037  272.8125    6.6596   57.0000 
2170.7856    8.5000   -0.0319   95.1048    2.9892    0.2771    2.6299   84.4536  273.1875    6.7324   57.0000 
2170.9380    8.5000   -0.0319   96.5804    3.1798    0.2595    2.6167   84.1805  273.5000    5.9441   57.0000 
2171.0904    8.5000   -0.0081   93.9777    3.3750    0.2615    2.6139   81.8898  273.5000    5.9833   57.0000 
2171.2428    8.5000    0.0395   98.7578    3.1104    0.2577    2.6090   82.9235  273.2500    5.7278   57.0000 
2171.3952    8.5000    0.0871   99.7879    2.9846    0.2676    2.6088   83.9482  273.2500    6.1324   57.0000 
2171.5476    8.5000    0.0871  101.0894    2.9088    0.2775    2.6122   84.7146  273.1875    6.5027   57.0000 
2171.7000    8.5000    0.0871  103.4738    2.8620    0.2915    2.6151   85.2434  272.8750    7.0229   57.0000 
2171.8524    8.5000    0.1109  106.5980    2.7884    0.3012    2.6141   85.4712  272.8750    7.3068   57.0000 
2172.0048    8.5000    0.0871  109.5407    2.6872    0.2886    2.6167   85.2826  272.7500    6.9729   57.0000 
2172.1572    8.5000    0.0514  108.5871    2.7307    0.2763    2.6157   84.5709  273.1250    6.5531   57.0000 
2172.3096    8.5000    0.0633  107.2026    2.8275    0.2784    2.6225   85.0462  274.2500    6.7649   57.0000 
2172.4620    8.5000   -0.0081  106.9879    2.9088    0.2894    2.6310   82.0974  275.3750    7.3881   57.0000 
2172.6144    8.5000   -0.0319   99.3642    3.3134    0.2846    2.6526   79.4516  275.6875    7.6690   57.0000 
2172.7668    8.5000   -0.0319   91.0991    3.7284    0.2328    2.6703   74.7940  275.9375    6.2979   57.0000 
2172.9192    8.5000   -0.0319   81.0630    4.7727    0.1860    2.6893   67.9812  276.3750    5.0956   57.0000 
2173.0716    8.5000   -0.0200   77.0882    6.0902    0.1613    2.7015   67.2846  276.2500    4.4435   57.0000 
2173.2240    8.5000   -0.0557   74.1191    6.1424    0.1666    2.7041   68.9510  276.0000    4.6141   57.0000 
2173.3764    8.5000   -0.0795   77.1520    4.2404    0.2163    2.6909   73.8414  276.0000    5.8659   57.0000 
2173.5288    8.5000   -0.0319   93.8153    3.3607    0.2562    2.6667   81.8473  275.9375    6.7097   57.0000 
2173.6812    8.5000   -0.0081  105.9403    2.9103    0.3009    2.6406   84.4201  275.8750    7.6908   57.0000 
2173.8336    8.5000   -0.0081  112.2550    2.5863    0.2923    2.6272   86.2873  276.3125    7.2453   57.0000 
