~VERSION INFORMATION
 VERS.                 2.0:   CWLS LOG ASCII STANDARD - VERSION 2.0
 WRAP.                  NO:   SINGLE LINE PER DEPTH STEP
 CREA.                 30/01/2020 17:31:38
#CREATED USING IP VERSION 4.5.2019.2902 BY RMOTA ON 30/01/2020 17:31:38
~WELL INFORMATION
#MNEM.UNIT       DATA                          DESCRIPTION MNEMONIC
#---------      ---------------------------   --------------------------
 STRT    .M         5.9400                    : START DEPTH
 STOP    .M         3362.3976                 : STOP DEPTH
 STEP    .M         0.1524                    : STEP VALUE
 NULL    .      -999.0000                     : NULL VALUE
 DATE    .      30/01/2020                    : LAS file Creation Date
 WELL   .      7-MP-31D-BA        : Well Name
 COMP   .      PETROBRAS          : Company
 FLD    .      MASSAPE            : Field
 STATE  .      BAHIA              : State
 COUNT  .      BRASIL             : Country
 API    .      20240021426        : API Number
 UWI    .                         : Unique Well Identifier (UWI)
 LOC    .      N= 8.608.492,720 m : Location
 TOWN   .      CATU               : Township
 SCT    .      OH WIRELINE        : Section
 RANG   .      SCHLUMBERGER       : Range
 PDAT   .      NM                 : Permanent Datum
 EPDAT  .      0                  : Elevation of Permanent Datum
 LGMEA  .      MR                 : Log Measured from
 DRMEA  .      MR                 : Drill Measured From
 APDAT  .      66.4               : Elevation Above Permanent Datum
 KB     .      66.7               : KB Elevation
 DF     .      66.4               : DF Elevation
 GL     .      57                 : GL Elevation
 RWS    .      -999               : Def_Rw
 WST    .      -999               : Def_Rwt
 BHS    .      OPEN               : Completion Status
 PROV   .                         : Province
 SRVC   .                         : Contractor
 GDAT   .      WGS 84             : Geodatum
 LONG   .      -38.4314536115858  : Longitude
 LATI   .      -12.5867413889037  : Latitude
 COORDIN.                         : Grid System
 XCOORD .                         : X or East-West Coordinate
 YCOORD .                         : Y or North-South Coordinate
~CURVE INFORMATION
#MNEM              UNIT       API CODE   Curve Type Comments
#----------  --------------- ----------  ---------- -----------
 DEPTH      .M                         : Depth       
 CALI       .inch                      : Caliper     
 BS         .in                        : BitSize     
 GR         .gAPI                      : GammaRay    
 RT         .ohm.m                     : DeepRes     
 NPHI       .m3/m3                     : Neutron     
 RHOB       .g/cm3                     :             
 DT         .us/ft                     : Sonic       
 SP         .mV                        : SP          
 N_Res      .                          :             
 Res        .                          :             
 DRDN       .                          :             
 Lith_new   .                          :             
 DEPTH      .M                         : Depth       
~A  DEPTH    CALI       BS        GR        RT       NPHI      RHOB       DT        SP      N_Res      Res       DRDN    Lith_new   DEPTH   
# ...
2733.5952    8.7725    8.5000   51.4745   42.5813    0.1354    2.4030  121.2994  721.2037    0.0000    1.0000   -2.4184   49.0000 2733.5952 
2733.7476    8.8817    8.5000   50.6353   42.5256    0.1580    2.3972  121.6265  721.7977    0.0000    1.0000   -1.8669   49.0000 2733.7476 
2733.9000    8.9069    8.5000   46.1948   41.7572    0.1736    2.3854  122.3244  722.2397    0.0000    1.0000   -1.5648   49.0000 2733.9000 
2734.0524    8.7953    8.5000   48.4275   39.7116    0.1869    2.3811  121.6066  721.6398    0.0000    1.0000   -1.1531   49.0000 2734.0524 
2734.2048    8.8038    8.5000   48.6863   39.3233    0.1623    2.3809  120.4633  720.8317    0.0000    1.0000   -1.9514   49.0000 2734.2048 
2734.3572    8.7928    8.5000   47.4759   38.0916    0.1356    2.3878  117.3157  720.9346    0.0000    1.0000   -2.6660   49.0000 2734.3572 
2734.5096    8.7925    8.5000   44.9012   36.2219    0.1212    2.3904  116.7360  720.3273    0.0000    1.0000   -3.1700   49.0000 2734.5096 
2734.6620    8.7925    8.5000   42.8425   34.3910    0.1289    2.3899  117.5971  720.6786    0.0000    1.0000   -2.9079   49.0000 2734.6620 
2734.8144    8.8823    8.5000   48.6681   36.3638    0.1502    2.3850  118.4267  719.9552    0.0000    1.0000   -2.3370   49.0000 2734.8144 
2734.9668    8.7947    8.5000   47.0135   37.4167    0.1570    2.3864  120.8473  719.7545    0.0000    1.0000   -1.9902   49.0000 2734.9668 
2735.1192    8.7701    8.5000   52.8440   38.5175    0.1556    2.3895  121.2223  719.2008    0.0000    1.0000   -2.0125   49.0000 2735.1192 
2735.2716    8.7920    8.5000   47.3147   35.9057    0.1446    2.3922  121.0738  719.9808    0.0000    1.0000   -2.3192   49.0000 2735.2716 
2735.4240    8.6916    8.5000   50.9506   34.1855    0.1239    2.3931  118.2311  721.1594    0.0000    1.0000   -2.9754   49.0000 2735.4240 
2735.5764    8.7789    8.5000   55.2954   33.3085    0.1147    2.4045  120.6841  721.2485    0.0000    1.0000   -2.9976   49.0000 2735.5764 
2735.7288    9.0391    8.5000   66.0884   28.5281    0.1028    2.4157  120.8791  722.3484    0.0000    1.0000   -3.1882   49.0000 2735.7288 
2735.8812    8.8546    8.5000   70.8753   23.0478    0.1177    2.4312  122.3443  723.7175    0.0000    1.0000   -2.3139   49.0000 2735.8812 
2736.0336    8.8836    8.5000   75.5913   22.8694    0.1436    2.4615  122.3666  725.0925    1.0000    0.0000   -0.6625   25.0000 2736.0336 
2736.1860    8.8845    8.5000   87.2265   19.2420    0.1691    2.5219  122.8454  726.4675    1.0000    0.0000    1.5147   57.0000 2736.1860 
2736.3384    8.8620    8.5000  101.2423   17.7036    0.2019    2.5774  124.7815  726.0118    1.0000    0.0000    3.5576   57.0000 2736.3384 
2736.4908    8.8166    8.5000  112.4919   18.3702    0.2278    2.6040  126.3701  726.4272    1.0000    0.0000    4.7134   57.0000 2736.4908 
2736.6432    8.7706    8.5000  106.8931   21.9571    0.2572    2.6000  126.4994  726.8036    1.0000    0.0000    5.4906   57.0000 2736.6432 
2736.7956    8.7696    8.5000   89.5948   26.9510    0.2626    2.5838  125.4081  727.6668    1.0000    0.0000    5.2845   57.0000 2736.7956 
2736.9480    8.8144    8.5000   70.9843   32.8632    0.2277    2.5589  124.4134  728.0536    1.0000    0.0000    3.5453   57.0000 2736.9480 
2737.1004    8.7931    8.5000   56.4212   40.7475    0.1943    2.5099  124.4350  728.0625    1.0000    0.0000    1.2279   57.0000 2737.1004 
2737.2528    8.8486    8.5000   55.1797   46.8148    0.1654    2.4417  124.3008  728.1846    0.0000    1.0000   -1.0679   49.0000 2737.2528 
2737.4052    8.7490    8.5000   51.9232   56.5671    0.1662    2.3919  123.1584  729.1028    0.0000    1.0000   -1.8348   49.0000 2737.4052 
2737.5576    8.7466    8.5000   52.9857   53.5940    0.1573    2.3750  124.2704  730.2844    0.0000    1.0000   -2.2291   49.0000 2737.5576 
2737.7100    8.7915    8.5000   52.5609   46.8335    0.1534    2.3892  122.6253  731.9601    0.0000    1.0000   -1.9836   49.0000 2737.7100 
2737.8624    8.7477    8.5000   52.7850   39.1090    0.1448    2.3947  121.0603  731.6339    0.0000    1.0000   -2.3367   49.0000 2737.8624 
2738.0148    8.7241    8.5000   51.4474   34.5049    0.1318    2.3846  118.6463  731.0148    0.0000    1.0000   -2.9815   49.0000 2738.0148 
2738.1672    8.9255    8.5000   49.8616   31.7158    0.1268    2.3759  118.0730  731.9153    0.0000    1.0000   -3.3065   49.0000 2738.1672 
2738.3196    9.0201    8.5000   46.5833   30.8681    0.1375    2.3687  117.8002  732.4257    0.0000    1.0000   -3.0650   49.0000 2738.3196 
2738.4720    8.7980    8.5000   46.2034   31.8564    0.1614    2.3685  118.3506  733.2308    0.0000    1.0000   -2.2470   49.0000 2738.4720 
2738.6244    8.7252    8.5000   47.5789   33.6704    0.1706    2.3658  120.0042  733.0059    0.0000    1.0000   -2.0152   49.0000 2738.6244 
2738.7768    8.8133    8.5000   51.4608   35.6169    0.1741    2.3701  120.3313  733.2441    0.0000    1.0000   -1.7424   49.0000 2738.7768 
2738.9292    8.8155    8.5000   50.6556   37.8078    0.1667    2.3740  120.6085  732.5787    0.0000    1.0000   -1.9548   49.0000 2738.9292 
2739.0816    8.7931    8.5000   49.0135   38.7478    0.1556    2.3780  121.2084  733.9661    0.0000    1.0000   -2.2253   49.0000 2739.0816 
2739.2340    8.7477    8.5000   45.7054   36.6236    0.1340    2.3819  120.9374  734.6713    0.0000    1.0000   -2.8602   49.0000 2739.2340 
2739.3864    8.7466    8.5000   49.0213   34.2702    0.1351    2.3838  118.7225  735.1757    0.0000    1.0000   -2.8444   49.0000 2739.3864 
2739.5388    8.7466    8.5000   51.5563   32.3208    0.1447    2.3779  117.0842  733.9670    0.0000    1.0000   -2.6565   49.0000 2739.5388 
2739.6912    8.8027    8.5000   51.8178   30.9381    0.1559    2.3760  116.9044  732.9001    0.0000    1.0000   -2.2514   49.0000 2739.6912 
2739.8436    8.8826    8.5000   51.6909   31.3265    0.1629    2.3879  119.3979  731.7766    0.0000    1.0000   -1.7005   49.0000 2739.8436 
2739.9960    8.9518    8.5000   50.2169   31.9817    0.1612    2.4052  120.7276  731.3839    0.0000    1.0000   -1.4044   49.0000 2739.9960 
2740.1484    8.9309    8.5000   53.0117   31.6397    0.1367    2.4232  121.7375  731.8632    0.0000    1.0000   -1.8672   49.0000 2740.1484 
2740.3008    8.7734    8.5000   54.9119   31.2847    0.1111    2.4435  121.9242  732.9124    0.0000    1.0000   -2.2423   49.0000 2740.3008 
2740.4532    8.7920    8.5000   57.1801   30.8770    0.0929    2.4758  121.0846  732.0222    0.0000    1.0000   -2.1604   49.0000 2740.4532 
2740.6056    9.0505    8.5000   62.2882   30.7047    0.1153    2.4977  119.9391  731.5728    0.0000    1.0000   -1.1984   49.0000 2740.6056 
2740.7580    8.7763    8.5000   62.0185   31.0145    0.1357    2.4801  118.6843  730.4641    0.0000    1.0000   -1.0929   49.0000 2740.7580 
2740.9104    8.7920    8.5000   62.8177   30.7288    0.1654    2.4435  118.1036  729.8273    1.0000    0.0000   -0.8976   25.0000 2740.9104 
2741.0628    8.8150    8.5000   57.4116   30.7266    0.1799    2.4057  118.5183  728.2259    0.0000    1.0000   -1.0404   49.0000 2741.0628 
2741.2152    8.7482    8.5000   56.2079   30.8306    0.1829    2.3952  119.1685  727.8214    0.0000    1.0000   -1.0248   49.0000 2741.2152 
2741.3676    8.7241    8.5000   55.4592   31.1916    0.1628    2.3897  119.1827  726.4089    0.0000    1.0000   -1.7938   49.0000 2741.3676 
2741.5200    8.7685    8.5000   55.4417   31.9821    0.1400    2.3903  117.0526  725.0325    0.0000    1.0000   -2.5278   49.0000 2741.5200 
2741.6724    8.7471    8.5000   52.8893   30.6409    0.1191    2.3903  113.8772  724.0847    0.0000    1.0000   -3.2173   49.0000 2741.6724 
2741.8248    8.7017    8.5000   50.7510   33.8608    0.1176    2.3864  113.8766  723.3912    0.0000    1.0000   -3.4281   49.0000 2741.8248 
2741.9772    8.7343    8.5000   52.7262   35.1955    0.1176    2.3776  112.9619  721.9105    0.0000    1.0000   -3.5467   49.0000 2741.9772 
2742.1296    8.9931    8.5000   52.5956   32.3390    0.1128    2.3709  112.9276  721.2648    0.0000    1.0000   -3.9158   49.0000 2742.1296 
