~VERSION INFORMATION
 VERS.                 2.0:   CWLS LOG ASCII STANDARD - VERSION 2.0
 WRAP.                  NO:   SINGLE LINE PER DEPTH STEP
 CREA.                 30/01/2020 17:31:38
#CREATED USING IP VERSION 4.5.2019.2902 BY RMOTA ON 30/01/2020 17:31:38
~WELL INFORMATION
#MNEM.UNIT       DATA                          DESCRIPTION MNEMONIC
#---------      ---------------------------   --------------------------
 STRT    .M         5.9400                    : START DEPTH
 STOP    .M         3362.3976                 : STOP DEPTH
 STEP    .M         0.1524                    : STEP VALUE
 NULL    .      -999.0000                     : NULL VALUE
 DATE    .      30/01/2020                    : LAS file Creation Date
 WELL   .      7-MP-31D-BA        : Well Name
 COMP   .      PETROBRAS          : Company
 FLD    .      MASSAPE            : Field
 STATE  .      BAHIA              : State
 COUNT  .      BRASIL             : Country
 API    .      20240021426        : API Number
 UWI    .                         : Unique Well Identifier (UWI)
 LOC    .      N= 8.608.492,720 m : Location
 TOWN   .      CATU               : Township
 SCT    .      OH WIRELINE        : Section
 RANG   .      SCHLUMBERGER       : Range
 PDAT   .      NM                 : Permanent Datum
 EPDAT  .      0                  : Elevation of Permanent Datum
 LGMEA  .      MR                 : Log Measured from
 DRMEA  .      MR                 : Drill Measured From
 APDAT  .      66.4               : Elevation Above Permanent Datum
 KB     .      66.7               : KB Elevation
 DF     .      66.4               : DF Elevation
 GL     .      57                 : GL Elevation
 RWS    .      -999               : Def_Rw
 WST    .      -999               : Def_Rwt
 BHS    .      OPEN               : Completion Status
 PROV   .                         : Province
 SRVC   .                         : Contractor
 GDAT   .      WGS 84             : Geodatum
 LONG   .      -38.4314536115858  : Longitude
 LATI   .      -12.5867413889037  : Latitude
 COORDIN.                         : Grid System
 XCOORD .                         : X or East-West Coordinate
 YCOORD .                         : Y or North-South Coordinate
~CURVE INFORMATION
#MNEM              UNIT       API CODE   Curve Type Comments
#----------  --------------- ----------  ---------- -----------
 DEPTH      .M                         : Depth       
 CALI       .inch                      : Caliper     
 BS         .in                        : BitSize     
 GR         .gAPI                      : GammaRay    
 RT         .ohm.m                     : DeepRes     
 NPHI       .m3/m3                     : Neutron     
 RHOB       .g/cm3                     :             
 DT         .us/ft                     : Sonic       
 SP         .mV                        : SP          
 N_Res      .                          :             
 Res        .                          :             
 DRDN       .                          :             
 Lith_new   .                          :             
 DEPTH      .M                         : Depth       
~A  DEPTH    CALI       BS        GR        RT       NPHI      RHOB       DT        SP      N_Res      Res       DRDN    Lith_new   DEPTH   
# ...
1500.0696   15.7292   12.2500   44.0584    3.3148    0.3816    2.6421   99.8826  557.7545 -999.0000 -999.0000   10.6064   57.0000 1500.0696 
1500.2220   15.7983   12.2500   48.7310    2.4401    0.3629    2.6080   99.8869  557.3228 -999.0000 -999.0000    8.8051   57.0000 1500.2220 
1500.3744   15.8242   12.2500   53.4662    2.4735    0.3432    2.5350  102.1296  556.7633 -999.0000 -999.0000    6.5456   57.0000 1500.3744 
1500.5268   16.0223   12.2500   56.3158    2.4951    0.3783    2.4264  103.0501  556.0177 -999.0000 -999.0000    5.3990   57.0000 1500.5268 
1500.6792   15.7802   12.2500   55.8864    2.5047    0.4309    2.3506  106.3091  555.3287 -999.0000 -999.0000    6.1020   57.0000 1500.6792 
1500.8316   16.0705   12.2500   52.1766    2.4118    0.4631    2.3166  104.9114  555.3735 -999.0000 -999.0000    6.6273   57.0000 1500.8316 
1500.9840   15.7567   12.2500   51.1627    2.3077    0.4640    2.3060  103.5094  555.0699 -999.0000 -999.0000    6.5689   57.0000 1500.9840 
1501.1364   15.9464   12.2500   52.0928    2.3172    0.4688    2.3092   97.8602  555.1846 -999.0000 -999.0000    6.9060   57.0000 1501.1364 
1501.2888   16.5686   12.2500   55.1203    2.3886    0.4327    2.3257   95.4619  554.3332 -999.0000 -999.0000    6.0238   57.0000 1501.2888 
1501.4412   16.9786   12.2500   57.7428    2.5075    0.4002    2.3426   94.4743  554.0074 -999.0000 -999.0000    5.3952   57.0000 1501.4412 
1501.5936   16.2473   12.2500   55.2226    2.6074    0.4248    2.3830   94.7449  553.6949 -999.0000 -999.0000    7.1367   57.0000 1501.5936 
1501.7460   16.1553   12.2500   58.9020    2.7261    0.4283    2.4357   95.7217  553.6875 -999.0000 -999.0000    8.3978   57.0000 1501.7460 
1501.8984   16.1042   12.2500   55.7494    2.8205    0.4278    2.4987   98.9493  553.6875 -999.0000 -999.0000    9.6413   57.0000 1501.8984 
1502.0508   15.9918   12.2500   58.8749    2.7654    0.3729    2.5579  101.7163  553.8096 -999.0000 -999.0000    8.9838   57.0000 1502.0508 
1502.2032   16.0756   12.2500   58.6772    2.6913    0.3717    2.6131  101.3848  554.0566 -999.0000 -999.0000    9.9769   57.0000 1502.2032 
1502.3556   16.1024   12.2500   57.0874    2.7915    0.3643    2.6527  102.0257  553.5133 -999.0000 -999.0000   10.3509   57.0000 1502.3556 
1502.5080   16.3499   12.2500   58.1280    2.8973    0.3922    2.6612   99.8149  553.5000 -999.0000 -999.0000   11.2598   57.0000 1502.5080 
1502.6604   17.1214   12.2500   53.7630    2.8394    0.4104    2.6540   96.6120  553.3779 -999.0000 -999.0000   11.7323   57.0000 1502.6604 
1502.8128   16.8189   12.2500   55.4710    2.7797    0.4096    2.6553   94.4380  552.9478 -999.0000 -999.0000   11.8179   57.0000 1502.8128 
1502.9652   16.6136   12.2500   51.9610    2.6878    0.3647    2.6635   94.6872  552.2662 -999.0000 -999.0000   10.4531   57.0000 1502.9652 
1503.1176   17.2879   12.2500   55.3487    2.6205    0.3274    2.6633   94.9493  551.5177 -999.0000 -999.0000    9.1436   57.0000 1503.1176 
1503.2700   17.0203   12.2500   54.5083    2.5938    0.3650    2.6546   96.6752  550.5847 -999.0000 -999.0000   10.1952   57.0000 1503.2700 
1503.4224   16.8900   12.2500   55.6059    2.5199    0.3974    2.6550   96.2183  550.0133 -999.0000 -999.0000   11.4519   57.0000 1503.4224 
1503.5748   16.6401   12.2500   55.8992    2.5966    0.4180    2.6711   96.2589  549.3898 -999.0000 -999.0000   12.3908   57.0000 1503.5748 
1503.7272   17.0415   12.2500   57.4145    2.4652    0.3926    2.6680   98.7954  549.1920 -999.0000 -999.0000   11.4046   57.0000 1503.7272 
1503.8796   17.3107   12.2500   62.3044    2.3082    0.4029    2.6675   99.8876  548.8214 -999.0000 -999.0000   11.7874   57.0000 1503.8796 
1504.0320   17.3416   12.2500   58.4509    2.1355    0.3950    2.6668  101.7595  548.7515 -999.0000 -999.0000   11.5186   57.0000 1504.0320 
1504.1844   17.6385   12.2500   57.5774    2.1068    0.3821    2.6676  101.1716  549.0551 -999.0000 -999.0000   11.0029   57.0000 1504.1844 
1504.3368   17.7939   12.2500   53.2509    2.1096    0.3698    2.6338  101.4259  548.8184 -999.0000 -999.0000    9.6608   57.0000 1504.3368 
1504.4892   17.9456   12.2500   51.0667    2.1345    0.3768    2.5906  100.0567  549.3617 -999.0000 -999.0000    9.1687   57.0000 1504.4892 
1504.6416   17.8504   12.2500   50.3215    2.1240    0.3811    2.5663   99.4587  549.0699 -999.0000 -999.0000    8.9184   57.0000 1504.6416 
1504.7940   17.5764   12.2500   50.8442    2.1297    0.3721    2.5533  101.3697  549.1846 -999.0000 -999.0000    8.4136   57.0000 1504.7940 
1504.9464   17.6933   12.2500   53.3995    2.1151    0.3624    2.5546  102.2815  550.1639 -999.0000 -999.0000    8.2624   57.0000 1504.9464 
1505.0988   17.4247   12.2500   56.6600    2.0921    0.3709    2.5771   99.4279  550.6757 -999.0000 -999.0000    9.1357   57.0000 1505.0988 
1505.2512   17.6033   12.2500   53.6057    2.1717    0.3654    2.6119   98.7700  551.4198 -999.0000 -999.0000    9.5755   57.0000 1505.2512 
1505.4036   18.6325   12.2500   53.8055    2.2227    0.3631    2.6228   96.2477  551.8647 -999.0000 -999.0000    9.5678   57.0000 1505.4036 
1505.5560   18.4598   12.2500   48.9587    2.1978    0.3420    2.6168   95.8180  551.7529 -999.0000 -999.0000    8.6308   57.0000 1505.5560 
1505.7084   17.9365   12.2500   47.6521    2.2053    0.3346    2.6060   97.6158  551.2008 -999.0000 -999.0000    8.2861   57.0000 1505.7084 
1505.8608   18.5659   12.2500   47.1236    2.2311    0.3432    2.6074  101.1117  550.3942 -999.0000 -999.0000    8.5449   57.0000 1505.8608 
1506.0132   18.8778   12.2500   50.3472    2.1225    0.3490    2.6016  103.2132  549.4597 -999.0000 -999.0000    8.6786   57.0000 1506.0132 
1506.1656   19.7739   12.2500   52.2743    2.0732    0.3533    2.6091  105.9255  549.5596 -999.0000 -999.0000    9.0158   57.0000 1506.1656 
1506.3180   21.8450   12.2500   53.2366    2.0414    0.3527    2.6070  105.7651  549.6846 -999.0000 -999.0000    8.7832   57.0000 1506.3180 
1506.4704   19.6228   12.2500   52.9260    2.0516    0.3644    2.5813  103.4196  550.2367 -999.0000 -999.0000    8.5606   57.0000 1506.4704 
1506.6228   20.7531   12.2500   54.3046    2.0559    0.3720    2.5523  101.8245  550.7992 -999.0000 -999.0000    8.2743   57.0000 1506.6228 
1506.7752   19.5718   12.2500   53.1826    1.9994    0.3517    2.5373  102.6202  551.2397 -999.0000 -999.0000    7.5088   57.0000 1506.7752 
1506.9276   20.7031   12.2500   53.4875    1.9712    0.3640    2.5582  100.3500  551.5551 -999.0000 -999.0000    8.4845   57.0000 1506.9276 
1507.0800   19.1755   12.2500   50.5719    2.0979    0.3658    2.5789   99.6619  551.9286 -999.0000 -999.0000    8.8939   57.0000 1507.0800 
1507.2324   19.3231   12.2500   54.1990    2.2062    0.3550    2.6033   96.8942  552.6088 -999.0000 -999.0000    9.0491   57.0000 1507.2324 
1507.3848   20.5005   12.2500   54.0574    2.2873    0.3537    2.6200   96.6885  553.9675 -999.0000 -999.0000    9.2835   57.0000 1507.3848 
1507.5372   20.4548   12.2500   56.0870    2.2311    0.3420    2.6348   95.4507  554.9764 -999.0000 -999.0000    9.1797   57.0000 1507.5372 
1507.6896   20.3542   12.2500   52.3670    2.1813    0.3440    2.6352   99.2473  555.8543 -999.0000 -999.0000    9.0725   57.0000 1507.6896 
1507.8420   20.3024   12.2500   52.5069    2.1817    0.3576    2.6134   99.9073  557.0955 -999.0000 -999.0000    8.9781   57.0000 1507.8420 
1507.9944   20.9433   12.2500   48.5474    2.2168    0.4128    2.5695   98.4755  557.0029 -999.0000 -999.0000    9.7645   57.0000 1507.9944 
1508.1468   21.2057   12.2500   50.1130    2.2866    0.4470    2.5178   97.5510  557.1221 -999.0000 -999.0000    9.9963   57.0000 1508.1468 
1508.2992   21.5080   12.2500   48.5354    2.3820    0.4080    2.4936   96.4743  557.7352 -999.0000 -999.0000    8.4609   57.0000 1508.2992 
1508.4516   21.1448   12.2500   51.7319    2.4276    0.3766    2.5172   99.2289  558.2992 -999.0000 -999.0000    8.2202   57.0000 1508.4516 
1508.6040   20.5185   12.2500   49.3765    2.5137    0.3725    2.5680   99.6865  558.4346 -999.0000 -999.0000    9.1262   57.0000 1508.6040 
