~VERSION INFORMATION
 VERS.                 2.0:   CWLS LOG ASCII STANDARD - VERSION 2.0
 WRAP.                  NO:   SINGLE LINE PER DEPTH STEP
 CREA.                 30/01/2020 17:28:45
#CREATED USING IP VERSION 4.5.2019.2902 BY RMOTA ON 30/01/2020 17:28:45
~WELL INFORMATION
#MNEM.UNIT       DATA                          DESCRIPTION MNEMONIC
#---------      ---------------------------   --------------------------
 STRT    .M         5.0000                    : START DEPTH
 STOP    .M         2977.0000                 : STOP DEPTH
 STEP    .M         0.1000                    : STEP VALUE
 NULL    .      -999.0000                     : NULL VALUE
 DATE    .      30/01/2020                    : LAS file Creation Date
 WELL   .      7-MP-53D-BA      : Well Name
 COMP   .      PETROBRAS        : Company
 FLD    .      MASSAPE          : Field
 STATE  .      BAHIA            : State
 API    .      20240027945      : API Number
 UWI    .                       : Unique Well Identifier (UWI)
 LOC    .                       : Location
 TOWN   .      -999.25          : Township
 SCT    .      -999.25          : Section
 RANG   .      -999.25          : Range
 PDAT   .      NM               : Permanent Datum
 EPDAT  .      0.00             : Elevation of Permanent Datum
 LGMEA  .      MR               : Log Measured from
 DRMEA  .      MR               : Drill Measured From
 APDAT  .      64.90            : Elevation Above Permanent Datum
 KB     .      -999.25          : KB Elevation
 DF     .      64.90            : DF Elevation
 GL     .      56.80            : GL Elevation
 RWS    .      -999             : Def_Rw
 WST    .      -999             : Def_Rwt
 PROV   .                       : Province
 SRVC   .                       : Contractor
 GDAT   .      WGS 84           : Geodatum
 LONG   .      -38.4325436115265: Longitude
 LATI   .      0                : Latitude
 COORDIN.                       : Grid System
 XCOORD .                       : X or East-West Coordinate
 YCOORD .                       : Y or North-South Coordinate
~CURVE INFORMATION
#MNEM              UNIT       API CODE   Curve Type Comments
#----------  --------------- ----------  ---------- -----------
 DEPTH      .M                         : Depth       
 DEPTH      .M                         : Depth       
 DRDN       .                          :             
 GR         .api                       : GammaRay    
 CAL        .in                        : Caliper     
 Res        .                          :             
 N_Res      .                          :             
 ILD        .ohmm                      : DeepRes     
 RHOB       .g/cc                      : Density     Loaded from DLIS: 7-mp-53d-ba_raw-3.dlis
 NPHI       .dec                       : Neutron     Loaded from DLIS: 7-mp-53d-ba_raw-3.dlis
 Lith_new   .                          :             
~A  DEPTH   DEPTH      DRDN       GR       CAL       Res      N_Res      ILD       RHOB      NPHI    Lith_new 
# ...
2253.4000 2253.4000    5.4802   92.7972    8.7664 -999.0000 -999.0000    2.3460    2.5524    0.2830   57.0000 
2253.5000 2253.5000    5.1222   91.8317    8.7589 -999.0000 -999.0000    2.3243    2.5484    0.2746   57.0000 
2253.6000 2253.6000    4.6005   92.8914    8.7633 -999.0000 -999.0000    2.3188    2.5422    0.2627   57.0000 
2253.7000 2253.7000    4.4269   95.0814    8.7647 -999.0000 -999.0000    2.3298    2.5322    0.2635   57.0000 
2253.8000 2253.8000    4.6917  100.4348    8.7697 -999.0000 -999.0000    2.3832    2.5189    0.2794   57.0000 
2253.9000 2253.9000    4.2949  100.5368    8.7611 -999.0000 -999.0000    2.4171    2.5186    0.2677   57.0000 
2254.0000 2254.0000    4.5013   99.3987    8.7798 -999.0000 -999.0000    2.4522    2.5237    0.2708   57.0000 
2254.1000 2254.1000    4.1293   95.7643    8.7671 -999.0000 -999.0000    2.5164    2.5306    0.2555   57.0000 
2254.2000 2254.2000    4.1097   94.4613    8.7649 -999.0000 -999.0000    2.5381    2.5317    0.2543   57.0000 
2254.3000 2254.3000    3.9845   94.1081    8.7705 -999.0000 -999.0000    2.5454    2.5322    0.2502   57.0000 
2254.4000 2254.4000    4.2108   96.3138    8.7707 -999.0000 -999.0000    2.4974    2.5406    0.2520   57.0000 
2254.5000 2254.5000    4.5461   98.3547    8.7759 -999.0000 -999.0000    2.4455    2.5430    0.2606   57.0000 
2254.6000 2254.6000    4.9914  101.2668    8.7717 -999.0000 -999.0000    2.3853    2.5437    0.2735   57.0000 
2254.7000 2254.7000    4.9871  101.8634    8.7932 -999.0000 -999.0000    2.2826    2.5347    0.2788   57.0000 
2254.8000 2254.8000    4.6526   99.4144    8.7826 -999.0000 -999.0000    2.2585    2.5292    0.2721   57.0000 
2254.9000 2254.9000    4.3553   95.9841    8.7816 -999.0000 -999.0000    2.2592    2.5250    0.2657   57.0000 
2255.0000 2255.0000    4.4318   94.2729    8.7919 -999.0000 -999.0000    2.3300    2.5287    0.2657   57.0000 
2255.1000 2255.1000    4.6606   96.3609    8.8076 -999.0000 -999.0000    2.3837    2.5347    0.2690   57.0000 
2255.2000 2255.2000    4.4673   99.9795    8.8109 -999.0000 -999.0000    2.4325    2.5428    0.2583   57.0000 
2255.3000 2255.3000    4.0476  101.8399    8.7759 -999.0000 -999.0000    2.4683    2.5446    0.2447   57.0000 
2255.4000 2255.4000    4.1004   96.1725    8.7632 -999.0000 -999.0000    2.5043    2.5488    0.2437   57.0000 
2255.5000 2255.5000    4.4903   91.1723    8.7662 -999.0000 -999.0000    2.5118    2.5486    0.2555   57.0000 
2255.6000 2255.6000    4.0577   88.4799    8.7619 -999.0000 -999.0000    2.5218    2.5532    0.2398   57.0000 
2255.7000 2255.7000    3.8477   89.9792    8.7867 -999.0000 -999.0000    2.5828    2.5655    0.2261   57.0000 
2255.8000 2255.8000    4.1537   90.0028    8.7814 -999.0000 -999.0000    2.6261    2.5769    0.2285   57.0000 
2255.9000 2255.9000    4.2564   89.5553    8.7749 -999.0000 -999.0000    2.6624    2.5863    0.2259   57.0000 
2256.0000 2256.0000    4.0639   88.9745    8.7827 -999.0000 -999.0000    2.6692    2.5956    0.2146   57.0000 
2256.1000 2256.1000    4.2368   90.5993    8.7979 -999.0000 -999.0000    2.6357    2.5906    0.2227   57.0000 
2256.2000 2256.2000    4.2004   92.1928    8.8225 -999.0000 -999.0000    2.5952    2.5852    0.2249   57.0000 
2256.3000 2256.3000    4.5245   95.6937    8.8458 -999.0000 -999.0000    2.5478    2.5684    0.2447   57.0000 
2256.4000 2256.4000    4.4659   96.6670    8.8319 -999.0000 -999.0000    2.5587    2.5592    0.2485   57.0000 
2256.5000 2256.5000    4.1152   97.0673    8.8615 -999.0000 -999.0000    2.6029    2.5476    0.2449   57.0000 
2256.6000 2256.6000    3.7557   97.9700    8.8020 -999.0000 -999.0000    2.7855    2.5276    0.2461   57.0000 
2256.7000 2256.7000    3.2154   98.8021    8.8065 -999.0000 -999.0000    2.9016    2.5230    0.2327   57.0000 
2256.8000 2256.8000    2.8967   98.5352    8.8264 -999.0000 -999.0000    3.0137    2.5269    0.2208   57.0000 
2256.9000 2256.9000    2.8999   95.4817    8.8690 -999.0000 -999.0000    3.1067    2.5378    0.2143   57.0000 
2257.0000 2257.0000    3.4857   88.2445    8.8828 -999.0000 -999.0000    3.1986    2.5590    0.2192   57.0000 
2257.1000 2257.1000    3.5191   89.1079    8.9058 -999.0000 -999.0000    3.2016    2.5627    0.2180   57.0000 
2257.2000 2257.2000    3.4114   91.3607    8.9433 -999.0000 -999.0000    3.1890    2.5622    0.2150   57.0000 
2257.3000 2257.3000    3.4897   98.6215    8.9275 -999.0000 -999.0000    3.1582    2.5645    0.2160   57.0000 
2257.4000 2257.4000    3.7088   99.5399    8.9562 -999.0000 -999.0000    3.1561    2.5682    0.2203   57.0000 
2257.5000 2257.5000    3.6984  100.1130    8.9742 -999.0000 -999.0000    3.1650    2.5684    0.2199   57.0000 
2257.6000 2257.6000    3.6738   95.8821    9.0392 -999.0000 -999.0000    3.1834    2.5614    0.2234   57.0000 
2257.7000 2257.7000    3.5681   95.4268    9.0491 -999.0000 -999.0000    3.1832    2.5574    0.2226   57.0000 
2257.8000 2257.8000    3.3823   95.9762    9.0574 -999.0000 -999.0000    3.1847    2.5559    0.2179   57.0000 
2257.9000 2257.9000    3.7163   96.7612    9.1091 -999.0000 -999.0000    3.2320    2.5621    0.2242   57.0000 
2258.0000 2258.0000    3.5852   93.8569    9.1382 -999.0000 -999.0000    3.2790    2.5666    0.2176   57.0000 
2258.1000 2258.1000    3.4502   90.6307    9.1650 -999.0000 -999.0000    3.3314    2.5754    0.2083   57.0000 
2258.2000 2258.2000    3.4461   88.0718    9.1066 -999.0000 -999.0000    3.4623    2.5830    0.2036   57.0000 
2258.3000 2258.3000    3.5686   88.5427    9.1004 -999.0000 -999.0000    3.5550    2.5818    0.2080   57.0000 
2258.4000 2258.4000    3.4176   87.8520    9.0063 -999.0000 -999.0000    3.6534    2.5734    0.2085   57.0000 
2258.5000 2258.5000    3.0868   87.4360    9.0094 -999.0000 -999.0000    3.7395    2.5622    0.2053   57.0000 
2258.6000 2258.6000    2.8988   90.2225    9.0220 -999.0000 -999.0000    3.8608    2.5450    0.2100   57.0000 
2258.7000 2258.7000    3.1277   91.6983    8.9180 -999.0000 -999.0000    3.8771    2.5401    0.2198   57.0000 
2258.8000 2258.8000    3.0324   92.1221    8.9207 -999.0000 -999.0000    3.8416    2.5335    0.2209   57.0000 
2258.9000 2258.9000    2.9646   91.7924    8.9405 -999.0000 -999.0000    3.6870    2.5371    0.2167   57.0000 
2259.0000 2259.0000    2.9078   92.2791    8.9789 -999.0000 -999.0000    3.6394    2.5420    0.2120   57.0000 
2259.1000 2259.1000    3.4593   93.7627    8.9902 -999.0000 -999.0000    3.6480    2.5577    0.2192   57.0000 
2259.2000 2259.2000    3.6044   94.7125    9.0434 -999.0000 -999.0000    3.8295    2.5759    0.2126   57.0000 
2259.3000 2259.3000    3.4020   93.9668    9.0489 -999.0000 -999.0000    3.9074    2.5844    0.2014   57.0000 
2259.4000 2259.4000    3.2880   91.3215    8.9995 -999.0000 -999.0000    3.8844    2.5875    0.1961   57.0000 
2259.5000 2259.5000    3.7988   88.2994    8.9244 -999.0000 -999.0000    3.5406    2.6028    0.2023   57.0000 
2259.6000 2259.6000    4.0441   90.7956    8.9451 -999.0000 -999.0000    3.3269    2.6074    0.2069   57.0000 
2259.7000 2259.7000    3.9416   96.1725    8.9713 -999.0000 -999.0000    3.1495    2.6056    0.2049   57.0000 
2259.8000 2259.8000    4.0790  105.3329    8.9702 -999.0000 -999.0000    2.9540    2.5871    0.2201   57.0000 
2259.9000 2259.9000    4.4029  104.3831    8.9735 -999.0000 -999.0000    2.9269    2.5784    0.2350   57.0000 
2260.0000 2260.0000    4.5536  100.8430    8.9480 -999.0000 -999.0000    2.9319    2.5734    0.2426   57.0000 
2260.1000 2260.1000    4.7266   97.1380    8.9436 -999.0000 -999.0000    2.9571    2.5751    0.2467   57.0000 
2260.2000 2260.2000    4.6852   94.9794    8.9383 -999.0000 -999.0000    3.0183    2.5858    0.2391   57.0000 
2260.3000 2260.3000    4.4505   93.0641    8.8715 -999.0000 -999.0000    3.0303    2.5935    0.2274   57.0000 
2260.4000 2260.4000    4.4284   90.4580    8.8288 -999.0000 -999.0000    3.0237    2.5976    0.2243   57.0000 
2260.5000 2260.5000    4.7137   88.1895    8.7983 -999.0000 -999.0000    3.0020    2.5944    0.2348   57.0000 
2260.6000 2260.6000    4.8584   91.2351    8.7835 -999.0000 -999.0000    3.0226    2.5878    0.2431   57.0000 
