~VERSION INFORMATION
 VERS.                 2.0:   CWLS LOG ASCII STANDARD - VERSION 2.0
 WRAP.                  NO:   SINGLE LINE PER DEPTH STEP
 CREA.                 06/02/2020 16:33:07
#CREATED USING IP VERSION 4.5.2019.2902 BY RMOTA ON 06/02/2020 16:33:07
~WELL INFORMATION
#MNEM.UNIT       DATA                          DESCRIPTION MNEMONIC
#---------      ---------------------------   --------------------------
 STRT    .M         500.8250                  : START DEPTH
 STOP    .M         3050.8250                 : STOP DEPTH
 STEP    .M         0.1000                    : STEP VALUE
 NULL    .      -999.0000                     : NULL VALUE
 DATE    .      06/02/2020                    : LAS file Creation Date
 WELL   .      7-MP-34D-BA     : Well Name
 COMP   .      PETROBRAS       : Company
 FLD    .      MASSAPE         : Field
 STATE  .      BAHIA           : State
 API    .      20240022160     : API Number
 UWI    .                      : Unique Well Identifier (UWI)
 LOC    .                      : Location
 PDAT   .      NM              : Permanent Datum
 EPDAT  .      0.0             : Elevation of Permanent Datum
 LGMEA  .      MR              : Log Measured from
 DRMEA  .      MR              : Drill Measured From
 APDAT  .      65.65           : Elevation Above Permanent Datum
 KB     .      65.95           : KB Elevation
 DF     .      65.65           : DF Elevation
 RWS    .      -999            : Def_Rw
 WST    .      -999            : Def_Rwt
 PROV   .                      : Province
 SRVC   .                      : Contractor
 GDAT   .      WGS 84          : Geodatum
 LONG   .      -38.435477499961: Longitude
 LATI   .      0               : Latitude
 COORDIN.                      : Grid System
 XCOORD .                      : X or East-West Coordinate
 YCOORD .                      : Y or North-South Coordinate
~CURVE INFORMATION
#MNEM              UNIT       API CODE   Curve Type Comments
#----------  --------------- ----------  ---------- -----------
 DEPTH      .M                         : Depth       
 CAL        .inch                      : Caliper     
 BS         .in                        : BitSize     
 GR         .gAPI                      : GammaRay    
 ILD        .ohm.m                     : DeepRes     
 RHOB       .G/CC                      : Density     
 NPHI       .dec                       : Neutron     
 DT         .uS/ft                     : Sonic       
 DRDN       .                          :             
 Lith_new   .                          :             
~A  DEPTH    CAL        BS        GR       ILD       RHOB      NPHI       DT       DRDN    Lith_new 
# ...
2196.8250    9.0394    8.5000  105.4802    2.7650    2.6228    0.2376   85.5429    5.3770   57.0000 
2196.9250    8.9859    8.5000  104.3718    2.8398    2.6218    0.2372   85.0755    5.3427   57.0000 
2197.0250    8.9553    8.5000  103.0481    2.9337    2.6159    0.2408   84.6209    5.3460   57.0000 
2197.1250    9.0012    8.5000  102.5892    3.0277    2.6110    0.2440   84.0765    5.3545   57.0000 
2197.2250    9.0776    8.5000  103.0869    3.0879    2.6058    0.2494   83.5204    5.4300   57.0000 
2197.3250    9.1693    8.5000  103.7991    3.0673    2.6037    0.2520   83.2898    5.4735   57.0000 
2197.4250    9.2533    8.5000  105.0999    2.9338    2.5990    0.2563   83.7821    5.5217   57.0000 
2197.5250    9.2839    8.5000  107.4032    2.7114    2.5904    0.2600   85.1709    5.4770   57.0000 
2197.6250    9.2610    8.5000  110.4911    2.4710    2.5756    0.2666   87.2990    5.3978   57.0000 
2197.7250    9.2151    8.5000  114.3935    2.2646    2.5608    0.2743   89.9944    5.3585   57.0000 
2197.8250    9.1769    8.5000  117.6782    2.1108    2.5485    0.2838   93.0658    5.4282   57.0000 
2197.9250    9.1616    8.5000  118.9878    1.9991    2.5433    0.2943   96.3699    5.6753   57.0000 
2198.0250    9.1616    8.5000  119.0258    1.9180    2.5419    0.3018   99.4990    5.8960   57.0000 
2198.1250    9.1693    8.5000  117.7329    1.8648    2.5451    0.3060  101.9725    6.1020   57.0000 
2198.2250    9.2228    8.5000  118.1424    1.8439    2.5481    0.3024  103.3189    6.0433   57.0000 
2198.3250    9.2839    8.5000  120.1598    1.8584    2.5479    0.3000  103.6403    5.9559   57.0000 
2198.4250    9.3221    8.5000  122.4887    1.9036    2.5430    0.2969  103.1347    5.7557   57.0000 
2198.5250    9.3374    8.5000  125.5369    1.9625    2.5367    0.2973  102.1168    5.6429   57.0000 
2198.6250    9.3221    8.5000  126.5606    2.0149    2.5375    0.2942  100.8291    5.5571   57.0000 
2198.7250    9.2762    8.5000  126.3664    2.0526    2.5433    0.2919   99.4092    5.5958   57.0000 
2198.8250    9.2686    8.5000  125.3445    2.0855    2.5510    0.2913   97.9546    5.7296   57.0000 
2198.9250    9.2533    8.5000  122.3307    2.1359    2.5535    0.2918   96.5281    5.7965   57.0000 
2199.0250    9.2304    8.5000  119.2632    2.2234    2.5564    0.2928   95.1617    5.8881   57.0000 
2199.1250    9.2380    8.5000  116.9510    2.3406    2.5595    0.2918   93.7903    5.9151   57.0000 
2199.2250    9.2915    8.5000  116.0429    2.4550    2.5615    0.2914   92.4168    5.9451   57.0000 
2199.3250    9.3603    8.5000  117.1549    2.5404    2.5517    0.2915   91.2260    5.7509   57.0000 
2199.4250    9.4596    8.5000  118.4874    2.5931    2.5380    0.2940   90.3031    5.5605   57.0000 
2199.5250    9.4749    8.5000  119.7547    2.6208    2.5351    0.2996   89.8704    5.6884   57.0000 
2199.6250    9.4367    8.5000  119.5782    2.6305    2.5482    0.3060   89.7551    6.1638   57.0000 
2199.7250    9.4214    8.5000  118.1389    2.6273    2.5629    0.3117   89.8301    6.6465   57.0000 
2199.8250    9.3450    8.5000  117.4876    2.6150    2.5602    0.3130   90.0679    6.6367   57.0000 
2199.9250    9.3450    8.5000  116.2768    2.6003    2.5514    0.3106   90.3796    6.3806   57.0000 
2200.0250    9.3374    8.5000  115.7190    2.5908    2.5481    0.3061   90.7883    6.1658   57.0000 
2200.1250    9.3527    8.5000  116.5556    2.5908    2.5531    0.3030   91.1469    6.1643   57.0000 
2200.2250    9.4367    8.5000  116.8557    2.6028    2.5535    0.2986   91.4296    6.0233   57.0000 
2200.3250    9.4443    8.5000  116.3509    2.6265    2.5481    0.2932   91.6046    5.7357   57.0000 
2200.4250    9.4520    8.5000  115.7543    2.6557    2.5462    0.2853   91.5510    5.4355   57.0000 
2200.5250    9.4673    8.5000  114.4182    2.6913    2.5531    0.2828   91.1689    5.4888   57.0000 
2200.6250    9.4443    8.5000  113.8393    2.7312    2.5613    0.2840   90.4531    5.6936   57.0000 
2200.7250    9.4138    8.5000  114.3706    2.7691    2.5663    0.2886   89.7740    5.9475   57.0000 
2200.8250    9.4138    8.5000  114.6600    2.7939    2.5679    0.2909   89.3617    6.0570   57.0000 
2200.9250    9.4138    8.5000  114.7977    2.7961    2.5695    0.2913   89.3791    6.1002   57.0000 
2201.0250    9.4749    8.5000  114.2841    2.7780    2.5702    0.2916   89.6796    6.1234   57.0000 
2201.1250    9.5666    8.5000  114.8930    2.7570    2.5728    0.2933   90.1367    6.2337   57.0000 
2201.2250    9.6201    8.5000  116.1603    2.7535    2.5771    0.2981   90.5786    6.4778   57.0000 
2201.3250    9.6354    8.5000  117.3552    2.7795    2.5815    0.3037   90.8561    6.7519   57.0000 
2201.4250    9.6736    8.5000  118.7090    2.8271    2.5753    0.3093   90.8449    6.8162   57.0000 
2201.5250    9.6048    8.5000  118.4830    2.8659    2.5638    0.3113   90.5429    6.6516   57.0000 
2201.6250    9.5055    8.5000  117.6605    2.8655    2.5525    0.3129   90.1286    6.4798   57.0000 
2201.7250    9.4443    8.5000  117.0816    2.8221    2.5502    0.3104   89.7786    6.3507   57.0000 
2201.8250    9.3909    8.5000  115.6608    2.7527    2.5536    0.3101   89.5301    6.4093   57.0000 
2201.9250    9.4520    8.5000  113.8923    2.6734    2.5576    0.3048   89.4291    6.3130   57.0000 
2202.0250    9.5284    8.5000  112.4697    2.5904    2.5611    0.3032   89.3775    6.3270   57.0000 
2202.1250    9.5819    8.5000  112.5456    2.5081    2.5586    0.2988   89.3556    6.1318   57.0000 
2202.2250    9.6277    8.5000  114.6265    2.4303    2.5563    0.3031   89.3837    6.2289   57.0000 
2202.3250    9.6430    8.5000  118.9596    2.3689    2.5522    0.3064   89.4776    6.2573   57.0000 
2202.4250    9.5972    8.5000  124.0463    2.3310    2.5542    0.3124   89.7954    6.4988   57.0000 
2202.5250    9.5131    8.5000  126.5667    2.3226    2.5569    0.3104   90.2786    6.4845   57.0000 
2202.6250    9.4291    8.5000  127.5375    2.3424    2.5629    0.3068   90.8597    6.4844   57.0000 
2202.7250    9.3679    8.5000  125.9437    2.3850    2.5688    0.3009   91.3704    6.4046   57.0000 
2202.8250    9.3756    8.5000  122.1560    2.4476    2.5741    0.2962   91.7459    6.3541   57.0000 
2202.9250    9.4138    8.5000  119.3214    2.5277    2.5758    0.2920   91.9883    6.2494   57.0000 
2203.0250    9.4443    8.5000  115.9855    2.6197    2.5728    0.2859   91.9847    5.9866   57.0000 
2203.1250    9.4596    8.5000  114.1270    2.7009    2.5686    0.2834   91.6857    5.8188   57.0000 
2203.2250    9.4673    8.5000  114.4518    2.7415    2.5671    0.2838   91.2515    5.8025   57.0000 
2203.3250    9.4367    8.5000  115.2284    2.7155    2.5704    0.2868   90.8316    5.9686   57.0000 
2203.4250    9.3679    8.5000  117.5387    2.6261    2.5727    0.2867   90.7281    6.0108   57.0000 
2203.5250    9.3679    8.5000  118.9896    2.5057    2.5709    0.2831   90.8051    5.8544   57.0000 
2203.6250    9.3527    8.5000  118.9119    2.4029    2.5672    0.2790   91.0740    5.6452   57.0000 
2203.7250    9.3832    8.5000  118.5642    2.3424    2.5656    0.2740   91.4791    5.4449   57.0000 
2203.8250    9.4214    8.5000  117.3393    2.3253    2.5669    0.2706   92.0041    5.3590   57.0000 
2203.9250    9.4520    8.5000  116.5945    2.3361    2.5701    0.2696   92.5362    5.3891   57.0000 
2204.0250    9.4902    8.5000  116.6404    2.3510    2.5743    0.2735   93.0286    5.6037   57.0000 
2204.1250    9.5055    8.5000  116.2035    2.3509    2.5798    0.2813   93.4352    5.9735   57.0000 
2204.2250    9.4291    8.5000  115.6793    2.3297    2.5797    0.2877   93.7500    6.1839   57.0000 
2204.3250    9.3985    8.5000  115.7535    2.2954    2.5791    0.2918   93.8316    6.3083   57.0000 
2204.4250    9.3374    8.5000  115.7111    2.2647    2.5774    0.2887   93.6163    6.1713   57.0000 
2204.5250    9.3527    8.5000  117.0260    2.2515    2.5817    0.2862   93.1903    6.1731   57.0000 
2204.6250    9.4443    8.5000  118.8899    2.2584    2.5825    0.2827   92.7709    6.0731   57.0000 
2204.7250    9.5055    8.5000  119.7600    2.2763    2.5797    0.2830   92.4276    6.0277   57.0000 
