~VERSION INFORMATION
 VERS.                 2.0:   CWLS LOG ASCII STANDARD - VERSION 2.0
 WRAP.                  NO:   SINGLE LINE PER DEPTH STEP
 CREA.                 06/02/2020 16:35:30
#CREATED USING IP VERSION 4.5.2019.2902 BY RMOTA ON 06/02/2020 16:35:30
~WELL INFORMATION
#MNEM.UNIT       DATA                          DESCRIPTION MNEMONIC
#---------      ---------------------------   --------------------------
 STRT    .M         15.6972                   : START DEPTH
 STOP    .M         2951.2260                 : STOP DEPTH
 STEP    .M         0.1524                    : STEP VALUE
 NULL    .      -999.0000                     : NULL VALUE
 DATE    .      06/02/2020                    : LAS file Creation Date
 WELL   .      7-MP-36D-BA       : Well Name
 COMP   .      PETROBRAS         : Company
 FLD    .      MASSAPE           : Field
 STATE  .      20240022534       : State
 COUNT  .      BRASIL            : Country
 API    .      20240022534       : API Number
 UWI    .                        : Unique Well Identifier (UWI)
 LOC    .      N= 8607444.13 M   : Location
 PDAT   .      NM                : Permanent Datum
 EPDAT  .      0                 : Elevation of Permanent Datum
 LGMEA  .      MR                : Log Measured from
 DRMEA  .      MR                : Drill Measured From
 APDAT  .      65.81             : Elevation Above Permanent Datum
 KB     .      66.11             : KB Elevation
 DF     .      65.81             : DF Elevation
 GL     .      56.41             : GL Elevation
 RWS    .      -999              : Def_Rw
 WST    .      -999              : Def_Rwt
 BHS    .      OPEN              : Completion Status
 PROV   .                        : Province
 SRVC   .                        : Contractor
 GDAT   .      WGS 84            : Geodatum
 LONG   .      -38.4351329444514 : Longitude
 LATI   .      -12.5962309720781 : Latitude
 COORDIN.                        : Grid System
 XCOORD .                        : X or East-West Coordinate
 YCOORD .                        : Y or North-South Coordinate
~CURVE INFORMATION
#MNEM              UNIT       API CODE   Curve Type Comments
#----------  --------------- ----------  ---------- -----------
 DEPTH      .M                         : Depth       
 BS         .in                        : BitSize     Loaded from DLIS: 7-mp-36d-ba_raw-1.dlis
 DCAL       .in                        :             Loaded from DLIS: 7-mp-36d-ba_raw-1.dlis
 GR         .gAPI                      : GammaRay    Loaded from DLIS: 7-mp-36d-ba_raw-1.dlis
 RT         .ohm.m                     : DeepRes     Loaded from DLIS: 7-mp-36d-ba_raw-1.dlis
 NPHI       .m3/m3                     : Neutron     Loaded from DLIS: 7-mp-36d-ba_raw-1.dlis
 RHOB       .g/cm3                     : Density     Loaded from DLIS: 7-mp-36d-ba_raw-1.dlis
 DT         .us/ft                     : Sonic       Loaded from DLIS: 7-mp-36d-ba_raw-1.dlis
 SP         .mV                        : SP          Loaded from DLIS: 7-mp-36d-ba_raw-1.dlis
 DRDN       .                          :             
 Lith_new   .                          :             
~A  DEPTH     BS       DCAL       GR        RT       NPHI      RHOB       DT        SP       DRDN    Lith_new 
# ...
1573.2252   12.2500    0.0778   90.4656    4.5027    0.2548    2.5804   80.3151  198.2500    5.1712   57.0000 
1573.3776   12.2500    0.2473   81.2531    4.3486    0.2254    2.5941   78.4438  198.6875    4.3924   57.0000 
1573.5300   12.2500    0.2698   84.2026    4.2815    0.2036    2.5849   76.8958  198.2500    3.3830   57.0000 
1573.6824   12.2500    0.2473   81.5664    4.3765    0.2249    2.5664   77.5166  197.9375    3.7015   57.0000 
1573.8348   12.2500    0.3150   88.4555    4.5667    0.2446    2.5487   76.9375  197.9375    4.1059   57.0000 
1573.9872   12.2500    0.2247   86.8298    4.7497    0.2353    2.5619   76.2037  198.1875    4.2565   57.0000 
1574.1396   12.2500    0.1682   88.0495    4.8409    0.2075    2.5881   74.3104  198.2500    3.8433   57.0000 
1574.2920   12.2500    0.2473   86.3988    4.9900    0.2072    2.6074   74.9226  199.1250    4.1460   57.0000 
1574.4444   12.2500    0.1795   88.4110    4.9833    0.2333    2.6089   76.5302  199.0000    4.8650   57.0000 
1574.5968   12.2500    0.1795   84.1422    4.9351    0.2356    2.5970   79.5840  198.9375    4.8075   57.0000 
1574.7492   12.2500    0.2247   89.5613    4.7286    0.2367    2.6049   79.4386  199.1250    5.0351   57.0000 
1574.9016   12.2500    0.2021   89.2744    4.5939    0.2318    2.6118   79.4269  199.0000    5.0472   57.0000 
1575.0540   12.2500    0.1795   97.4629    4.4285    0.2555    2.6131   79.6911  198.9375    5.5896   57.0000 
1575.2064   12.2500    0.1795   93.5137    4.4245    0.2625    2.5779   80.6299  198.3125    5.0948   57.0000 
1575.3588   12.2500    0.1343   93.9559    4.3080    0.2545    2.5496   81.1966  199.0000    4.3057   57.0000 
1575.5112   12.2500    0.1343   91.2560    4.2407    0.2224    2.5389   80.3608  200.0000    3.2836   57.0000 
1575.6636   12.2500    0.2360   94.3294    4.3064    0.2007    2.5561   76.9005  200.2500    2.8842   57.0000 
1575.8160   12.2500    0.2021   89.8134    4.4003    0.2148    2.5598   75.9552  199.9375    3.3278   57.0000 
1575.9684   12.2500    0.1795   91.2364    4.5693    0.2399    2.5529   75.8875  199.6875    3.9884   57.0000 
1576.1208   12.2500    0.0891   87.9576    4.6372    0.2468    2.5546   77.4078  198.3125    4.4055   57.0000 
1576.2732   12.2500    0.0891   93.9452    4.5256    0.2523    2.5705   80.4166  198.8125    4.9549   57.0000 
1576.4256   12.2500    0.1908   92.9288    4.3532    0.2515    2.5960   80.4738  198.5625    5.4920   57.0000 
1576.5780   12.2500    0.2134   94.1933    4.2548    0.2673    2.6066   81.0026  198.5000    6.0211   57.0000 
1576.7304   12.2500    0.2360   90.6531    4.1492    0.2734    2.5943   81.8338  198.6875    5.8658   57.0000 
1576.8828   12.2500    0.2247   95.4754    4.0269    0.2684    2.5721   83.9815  199.6875    5.2520   57.0000 
1577.0352   12.2500    0.1456   94.0548    3.8745    0.2570    2.5609   83.1915  199.8750    4.8222   57.0000 
1577.1876   12.2500    0.0665   95.9426    3.7632    0.2448    2.5751   83.7775  199.3750    4.7537   57.0000 
1577.3400   12.2500    0.2134   91.5269    3.6762    0.2598    2.5792   84.0262  199.1250    5.1952   57.0000 
1577.4924   12.2500    0.2360   92.2249    3.6968    0.2774    2.5649   83.5210  199.0000    5.3616   57.0000 
1577.6448   12.2500    0.1795   94.4196    3.7188    0.2690    2.5391   85.0111  199.1250    4.6317   57.0000 
1577.7972   12.2500    0.2473   95.0295    3.6892    0.2664    2.5256   85.3205  199.1250    4.3369   57.0000 
1577.9496   12.2500    0.1004   95.9326    3.5837    0.2732    2.5224   84.8656  198.5625    4.5588   57.0000 
1578.1020   12.2500    0.0891   96.4475    3.5068    0.2997    2.5240   85.2969  198.2500    5.5036   57.0000 
1578.2544   12.2500    0.2021   97.0574    3.5000    0.3078    2.5330   86.7662  197.6250    5.9711   57.0000 
1578.4068   12.2500    0.2134   99.9758    3.4761    0.2968    2.5326   87.3646  198.0000    5.5138   57.0000 
1578.5592   12.2500    0.2247   97.8081    3.3743    0.2752    2.5396   86.8021  198.0000    5.0929   57.0000 
1578.7116   12.2500    0.2473   94.5557    3.4554    0.2531    2.5527   85.0098  198.5000    4.5826   57.0000 
1578.8640   12.2500    0.2473   92.5404    3.6128    0.2472    2.5816   82.8607  198.0000    5.1232   57.0000 
1579.0164   12.2500    0.1569   88.9504    3.8247    0.2556    2.5977   80.0511  197.5000    5.3713   57.0000 
1579.1688   12.2500    0.2134   92.4061    3.9101    0.2640    2.5862   78.1307  197.4375    5.4715   57.0000 
1579.3212   12.2500    0.2021   91.5029    4.0168    0.2578    2.5781   77.8620  197.4375    5.0956   57.0000 
1579.4736   12.2500    0.1795   92.0222    4.1021    0.2521    2.5678   78.8169  198.1250    4.7301   57.0000 
1579.6260   12.2500    0.2360   86.1270    4.1937    0.2358    2.5645   78.8318  198.4375    4.1138   57.0000 
1579.7784   12.2500    0.2924   83.8027    4.4446    0.2326    2.5478   78.0955  198.1875    3.5456   57.0000 
1579.9308   12.2500    0.2473   83.4414    4.4488    0.2400    2.5330   78.0374  197.4375    3.6405   57.0000 
1580.0832   12.2500    0.1908   83.4414    4.4570    0.2414    2.5400   77.6156  197.5625    3.9902   57.0000 
1580.2356   12.2500    0.1795   77.2946    4.4264    0.2347    2.5611   76.8315  198.5625    4.1729   57.0000 
1580.3880   12.2500    0.2247   77.6559    4.4972    0.2157    2.5774   75.4403  198.6250    3.8130   57.0000 
1580.5404   12.2500    0.2698   74.2002    4.6093    0.1967    2.5832   73.0849  198.8125    3.2313   57.0000 
1580.6928   12.2500    0.2698   73.2782    4.7248    0.1850    2.5911   72.4676  199.5000    3.0733   57.0000 
1580.8452   12.2500    0.2698   70.9511    4.9151    0.1824    2.5942   73.0231  199.3750    2.9475   57.0000 
1580.9976   12.2500    0.2586   77.6593    5.0593    0.2177    2.5862   74.5985  199.0000    3.8431   57.0000 
1581.1500   12.2500    0.1569   85.2461    5.0716    0.2537    2.5586   76.9663  199.6875    4.4331   57.0000 
1581.3024   12.2500    0.1230   91.5472    4.9789    0.2627    2.5421   79.3738  200.5000    4.5396   57.0000 
1581.4548   12.2500    0.1795   87.6849    4.9273    0.2490    2.5374   78.9078  200.3125    4.0667   57.0000 
1581.6072   12.2500    0.1795   86.2629    4.8184    0.2182    2.5407   77.2366  199.2500    3.0856   57.0000 
1581.7596   12.2500    0.2924   79.3987    4.7692    0.2071    2.5456   75.4732  198.5625    2.9545   57.0000 
1581.9120   12.2500    0.2247   77.9758    4.8205    0.2002    2.5625   74.5285  199.1250    2.9554   57.0000 
1582.0644   12.2500    0.1682   76.1462    4.9307    0.2074    2.5719   74.6017  200.0625    3.4976   57.0000 
1582.2168   12.2500    0.1117   81.4098    5.0647    0.2334    2.5873   76.2510  199.6875    4.5059   57.0000 
1582.3692   12.2500    0.1569   90.5574    5.0891    0.2524    2.5874   78.1515  199.5000    5.2244   57.0000 
1582.5216   12.2500    0.1569   91.4606    5.0062    0.2689    2.5902   78.8998  198.9375    5.7142   57.0000 
1582.6740   12.2500    0.1795   89.4485    4.9210    0.2546    2.5910   79.1484  198.9375    5.3571   57.0000 
1582.8264   12.2500    0.2473   87.6359    4.8259    0.2234    2.5847   78.4083  198.6250    4.0002   57.0000 
1582.9788   12.2500    0.2586   89.7900    4.7941    0.2026    2.5784   77.6250  199.1875    3.3525   57.0000 
1583.1312   12.2500    0.2021   89.6093    4.8549    0.1990    2.5708   76.5652  199.0000    2.9312   57.0000 
1583.2836   12.2500    0.1795   83.9826    4.8706    0.2213    2.5675   75.8873  199.1875    3.8241   57.0000 
1583.4360   12.2500    0.1795   80.5268    4.8483    0.2346    2.5718   75.6866  198.5000    4.2317   57.0000 
1583.5884   12.2500    0.2473   80.1885    4.9064    0.2258    2.5737   74.4702  198.1875    4.0743   57.0000 
1583.7408   12.2500    0.2473   76.9371    5.0466    0.2091    2.5816   73.6066  197.9375    3.6314   57.0000 
1583.8932   12.2500    0.3263   73.8879    5.2065    0.1886    2.5866   73.1686  198.8125    3.0537   57.0000 
1584.0456   12.2500    0.2247   67.5426    5.4193    0.1749    2.5883   71.7439  199.2500    2.5818   57.0000 
1584.1980   12.2500    0.1343   67.6629    5.4722    0.1784    2.5882   71.4957  199.5000    2.7100   57.0000 
