~VERSION INFORMATION
 VERS.                 2.0:   CWLS LOG ASCII STANDARD - VERSION 2.0
 WRAP.                  NO:   SINGLE LINE PER DEPTH STEP
 CREA.                 06/02/2020 16:44:49
#CREATED USING IP VERSION 4.5.2019.2902 BY RMOTA ON 06/02/2020 16:44:49
~WELL INFORMATION
#MNEM.UNIT       DATA                          DESCRIPTION MNEMONIC
#---------      ---------------------------   --------------------------
 STRT    .M         1550.0001                 : START DEPTH
 STOP    .M         2926.1001                 : STOP DEPTH
 STEP    .M         0.1000                    : STEP VALUE
 NULL    .      -999.0000                     : NULL VALUE
 DATE    .      06/02/2020                    : LAS file Creation Date
 WELL   .      7-MP-47DP-BA    : Well Name
 COMP   .      PETROBRAS       : Company
 FLD    .      MASSAPE         : Field
 STATE  .      BAHIA           : State
 API    .      20240025025     : API Number
 UWI    .                      : Unique Well Identifier (UWI)
 LOC    .      20240025025     : Location
 PDAT   .      NM              : Permanent Datum
 EPDAT  .      0.0             : Elevation of Permanent Datum
 LGMEA  .      MR              : Log Measured from
 DRMEA  .      MR              : Drill Measured From
 APDAT  .      65.68           : Elevation Above Permanent Datum
 KB     .      -999.25         : KB Elevation
 DF     .      65.68           : DF Elevation
 GL     .      56.28           : GL Elevation
 RWS    .      -999            : Def_Rw
 WST    .      -999            : Def_Rwt
 PROV   .                      : Province
 SRVC   .                      : Contractor
 GDAT   .      WGS 84          : Geodatum
 LONG   .      -38.435024444394: Longitude
 LATI   .      0               : Latitude
 COORDIN.                      : Grid System
 XCOORD .                      : X or East-West Coordinate
 YCOORD .                      : Y or North-South Coordinate
~CURVE INFORMATION
#MNEM              UNIT       API CODE   Curve Type Comments
#----------  --------------- ----------  ---------- -----------
 DEPTH      .M                         : Depth       
 BS         .in                        : BitSize     
 CAL        .in                        : Caliper     
 GR         .api                       : GammaRay    
 ILD        .ohmm                      : DeepRes     
 NPHI       .decp                      : Neutron     
 RHOB       .g/cc                      : Density     
 DT         .uspf                      : Sonic       
 DRDN       .                          :             
 Lith_new   .                          :             
~A  DEPTH     BS       CAL        GR       ILD       NPHI      RHOB       DT       DRDN    Lith_new 
# ...
2142.0001    8.5000    8.8528   95.2121    2.5955    0.2394    2.5515   87.7686    4.0087   57.0000 
2142.1001    8.5000    8.8822   97.7198    2.5032    0.2515    2.5472   88.4510    4.3250   57.0000 
2142.2001    8.5000    8.9121  101.1156    2.3923    0.2553    2.5417   89.3360    4.3437   57.0000 
2142.3001    8.5000    8.9123  100.2052    2.3750    0.2480    2.5419   89.2451    4.1070   57.0000 
2142.4001    8.5000    8.9184   97.5553    2.3805    0.2429    2.5435   88.4985    3.9682   57.0000 
2142.5001    8.5000    8.9227   92.2555    2.4405    0.2488    2.5450   86.3720    4.1925   57.0000 
2142.6001    8.5000    8.9154   92.3354    2.4991    0.2402    2.5465   85.3958    3.9383   57.0000 
2142.7001    8.5000    8.9166   92.6517    2.5853    0.2260    2.5476   84.1284    3.4836   57.0000 
2142.8001    8.5000    8.9151   92.1341    2.7142    0.2156    2.5506   81.9891    3.2004   57.0000 
2142.9001    8.5000    8.9149   87.0516    3.1353    0.2019    2.5605   79.2199    2.9403   57.0000 
2143.0001    8.5000    8.9225   82.3764    3.4076    0.1864    2.5668   77.8909    2.5508   57.0000 
2143.1001    8.5000    8.9106   78.9598    3.6762    0.1730    2.5712   76.5803    2.1900   57.0000 
2143.2001    8.5000    8.9237   79.5955    4.0514    0.1602    2.5767   74.8111    1.8741   57.0000 
2143.3001    8.5000    8.9164   82.2949    4.1286    0.1665    2.5777   75.0431    2.1025   57.0000 
2143.4001    8.5000    8.9193   83.3156    4.1428    0.1740    2.5762   75.2176    2.3244   57.0000 
2143.5001    8.5000    8.9128   84.3698    4.0232    0.1821    2.5744   77.4837    2.5593   57.0000 
2143.6001    8.5000    8.8932   87.7049    3.8701    0.1907    2.5683   79.4300    2.7221   57.0000 
2143.7001    8.5000    8.8998   92.4073    3.6388    0.1999    2.5618   81.5745    2.8991   57.0000 
2143.8001    8.5000    8.8940  104.4667    3.0404    0.2121    2.5434   85.9509    2.9375   57.0000 
2143.9001    8.5000    8.8998  108.0830    2.7689    0.2266    2.5362   88.0314    3.2773   57.0000 
2144.0001    8.5000    8.9212  110.7680    2.5652    0.2417    2.5329   89.6011    3.7131   57.0000 
2144.1001    8.5000    8.9311  109.3592    2.3825    0.2565    2.5297   90.9194    4.1452   57.0000 
2144.2001    8.5000    8.9357  106.4985    2.3806    0.2583    2.5300   90.6081    4.2112   57.0000 
2144.3001    8.5000    8.9402  102.9956    2.4136    0.2524    2.5317   90.0682    4.0481   57.0000 
2144.4001    8.5000    8.9463   99.7484    2.4578    0.2518    2.5328   89.5665    4.0488   57.0000 
2144.5001    8.5000    8.8981   99.2356    2.5224    0.2395    2.5418   88.7237    3.8195   57.0000 
2144.6001    8.5000    8.8779  100.5199    2.5315    0.2354    2.5464   88.6698    3.7759   57.0000 
2144.7001    8.5000    8.8472  102.0085    2.5303    0.2382    2.5475   88.2876    3.8907   57.0000 
2144.8001    8.5000    8.8139  103.3598    2.5267    0.2486    2.5501   88.0994    4.2899   57.0000 
2144.9001    8.5000    8.8121  103.5834    2.5339    0.2526    2.5511   87.8443    4.4422   57.0000 
2145.0001    8.5000    8.8065  105.7845    2.5492    0.2556    2.5535   87.7836    4.5892   57.0000 
2145.1001    8.5000    8.8277  107.7028    2.6052    0.2642    2.5659   86.9714    5.1246   57.0000 
2145.2001    8.5000    8.8497  107.9951    2.6403    0.2606    2.5685   86.6278    5.0588   57.0000 
2145.3001    8.5000    8.8506  106.8467    2.6722    0.2599    2.5697   85.7788    5.0550   57.0000 
2145.4001    8.5000    8.8756  104.9283    2.7288    0.2519    2.5651   85.8520    4.6963   57.0000 
2145.5001    8.5000    8.8762  104.3054    2.7599    0.2496    2.5593   85.5080    4.5064   57.0000 
2145.6001    8.5000    8.8734  103.2991    2.7908    0.2512    2.5561   85.4146    4.4958   57.0000 
2145.7001    8.5000    8.8680  105.4091    2.8349    0.2517    2.5512   85.7250    4.4147   57.0000 
2145.8001    8.5000    8.8684  106.9329    2.8370    0.2497    2.5507   86.4812    4.3382   57.0000 
2145.9001    8.5000    8.8672  107.2939    2.8234    0.2446    2.5506   86.7842    4.1645   57.0000 
2146.0001    8.5000    8.8634  105.2749    2.7984    0.2430    2.5514   87.0556    4.1270   57.0000 
2146.1001    8.5000    8.8694   99.6350    2.7585    0.2392    2.5548   87.5314    4.0669   57.0000 
2146.2001    8.5000    8.8657   99.3187    2.7578    0.2396    2.5557   87.9903    4.0992   57.0000 
2146.3001    8.5000    8.8766   99.8474    2.7662    0.2376    2.5579   88.4759    4.0759   57.0000 
2146.4001    8.5000    8.8989  100.3873    2.7973    0.2480    2.5550   89.2115    4.3672   57.0000 
2146.5001    8.5000    8.9031   99.1222    2.8122    0.2536    2.5524   89.7665    4.5008   57.0000 
2146.6001    8.5000    8.9120   98.4370    2.8209    0.2585    2.5501   90.0428    4.6200   57.0000 
2146.7001    8.5000    8.9052   98.0217    2.8388    0.2486    2.5440   90.4671    4.1648   57.0000 
2146.8001    8.5000    8.8911   97.8061    2.8546    0.2443    2.5439   90.4032    4.0221   57.0000 
2146.9001    8.5000    8.8667   96.5810    2.8771    0.2483    2.5446   90.4203    4.1691   57.0000 
2147.0001    8.5000    8.8202   97.2199    2.9458    0.2475    2.5481   89.7018    4.2115   57.0000 
2147.1001    8.5000    8.7994   99.0791    2.9697    0.2463    2.5512   89.5080    4.2351   57.0000 
2147.2001    8.5000    8.8063  102.1459    2.9692    0.2521    2.5530   89.6831    4.4620   57.0000 
2147.3001    8.5000    8.8614  107.8178    2.8667    0.2723    2.5525   90.8247    5.1256   57.0000 
2147.4001    8.5000    8.8843  109.7729    2.7743    0.2797    2.5530   91.9072    5.3810   57.0000 
2147.5001    8.5000    8.9011  110.6993    2.6705    0.2793    2.5537   92.9789    5.3822   57.0000 
2147.6001    8.5000    8.9168  110.7153    2.5628    0.2822    2.5530   93.9022    5.4670   57.0000 
2147.7001    8.5000    8.9246  113.7852    2.3632    0.2897    2.5559   95.6466    5.7759   57.0000 
2147.8001    8.5000    8.9294  115.9703    2.2826    0.2922    2.5525   95.8870    5.7911   57.0000 
2147.9001    8.5000    8.9193  117.1683    2.2202    0.2986    2.5485   96.2952    5.9229   57.0000 
2148.0001    8.5000    8.8753  114.5392    2.1536    0.3014    2.5384   96.6163    5.8147   57.0000 
2148.1001    8.5000    8.8590  111.6018    2.1431    0.3028    2.5324   96.7058    5.7410   57.0000 
2148.2001    8.5000    8.8388  107.5143    2.1427    0.2928    2.5311   97.1522    5.3814   57.0000 
2148.3001    8.5000    8.8468  102.3743    2.1641    0.2896    2.5305   97.5649    5.2654   57.0000 
2148.4001    8.5000    8.8846  101.1156    2.1895    0.2887    2.5337   97.4376    5.2966   57.0000 
2148.5001    8.5000    8.9173  101.3105    2.2237    0.2789    2.5373   96.9572    5.0416   57.0000 
2148.6001    8.5000    8.9635  100.6029    2.3090    0.2610    2.5428   96.0340    4.5563   57.0000 
2148.7001    8.5000    8.9552  101.0070    2.3481    0.2626    2.5442   95.1118    4.6357   57.0000 
2148.8001    8.5000    8.9324   99.3634    2.3741    0.2563    2.5459   94.1499    4.4615   57.0000 
2148.9001    8.5000    8.8786   97.4243    2.3921    0.2459    2.5540   92.4010    4.2773   57.0000 
2149.0001    8.5000    8.8681   97.2678    2.3982    0.2516    2.5603   91.8837    4.5913   57.0000 
2149.1001    8.5000    8.8655   99.4369    2.4105    0.2541    2.5655   91.4903    4.7793   57.0000 
2149.2001    8.5000    8.8703  102.4717    2.4295    0.2500    2.5696   91.0237    4.7236   57.0000 
2149.3001    8.5000    8.8850  105.0338    2.4750    0.2471    2.5747   91.1176    4.7326   57.0000 
2149.4001    8.5000    8.8899  105.1775    2.4828    0.2512    2.5737   91.4275    4.8482   57.0000 
2149.5001    8.5000    8.8911  104.0275    2.4721    0.2497    2.5723   91.0331    4.7695   57.0000 
2149.6001    8.5000    8.8400  103.5419    2.4113    0.2493    2.5651   90.7525    4.6116   57.0000 
2149.7001    8.5000    8.8202  102.6730    2.3877    0.2512    2.5607   90.8901    4.5879   57.0000 
2149.8001    8.5000    8.8042  101.2163    2.3838    0.2548    2.5562   90.6986    4.6167   57.0000 
2149.9001    8.5000    8.7889   99.3826    2.4389    0.2605    2.5569   89.4165    4.8208   57.0000 
