~VERSION INFORMATION
 VERS.                 2.0:   CWLS LOG ASCII STANDARD - VERSION 2.0
 WRAP.                  NO:   SINGLE LINE PER DEPTH STEP
 CREA.                 30/01/2020 17:28:45
#CREATED USING IP VERSION 4.5.2019.2902 BY RMOTA ON 30/01/2020 17:28:45
~WELL INFORMATION
#MNEM.UNIT       DATA                          DESCRIPTION MNEMONIC
#---------      ---------------------------   --------------------------
 STRT    .M         5.0000                    : START DEPTH
 STOP    .M         2977.0000                 : STOP DEPTH
 STEP    .M         0.1000                    : STEP VALUE
 NULL    .      -999.0000                     : NULL VALUE
 DATE    .      30/01/2020                    : LAS file Creation Date
 WELL   .      7-MP-53D-BA      : Well Name
 COMP   .      PETROBRAS        : Company
 FLD    .      MASSAPE          : Field
 STATE  .      BAHIA            : State
 API    .      20240027945      : API Number
 UWI    .                       : Unique Well Identifier (UWI)
 LOC    .                       : Location
 TOWN   .      -999.25          : Township
 SCT    .      -999.25          : Section
 RANG   .      -999.25          : Range
 PDAT   .      NM               : Permanent Datum
 EPDAT  .      0.00             : Elevation of Permanent Datum
 LGMEA  .      MR               : Log Measured from
 DRMEA  .      MR               : Drill Measured From
 APDAT  .      64.90            : Elevation Above Permanent Datum
 KB     .      -999.25          : KB Elevation
 DF     .      64.90            : DF Elevation
 GL     .      56.80            : GL Elevation
 RWS    .      -999             : Def_Rw
 WST    .      -999             : Def_Rwt
 PROV   .                       : Province
 SRVC   .                       : Contractor
 GDAT   .      WGS 84           : Geodatum
 LONG   .      -38.4325436115265: Longitude
 LATI   .      0                : Latitude
 COORDIN.                       : Grid System
 XCOORD .                       : X or East-West Coordinate
 YCOORD .                       : Y or North-South Coordinate
~CURVE INFORMATION
#MNEM              UNIT       API CODE   Curve Type Comments
#----------  --------------- ----------  ---------- -----------
 DEPTH      .M                         : Depth       
 DEPTH      .M                         : Depth       
 DRDN       .                          :             
 GR         .api                       : GammaRay    
 CAL        .in                        : Caliper     
 Res        .                          :             
 N_Res      .                          :             
 ILD        .ohmm                      : DeepRes     
 RHOB       .g/cc                      : Density     Loaded from DLIS: 7-mp-53d-ba_raw-3.dlis
 NPHI       .dec                       : Neutron     Loaded from DLIS: 7-mp-53d-ba_raw-3.dlis
 Lith_new   .                          :             
~A  DEPTH   DEPTH      DRDN       GR       CAL       Res      N_Res      ILD       RHOB      NPHI    Lith_new 
# ...
2676.8000 2676.8000   -1.8647   74.5549    8.6511    1.0000    0.0000   13.4830    2.4503    0.1239   49.0000 
2676.9000 2676.9000   -1.8211   74.3272    8.6540    1.0000    0.0000   13.2019    2.4642    0.1168   49.0000 
2677.0000 2677.0000   -0.3511   79.8062    8.6586    0.0000    1.0000   12.6557    2.5315    0.1206   25.0000 
2677.1000 2677.1000    0.5170   85.9681    8.6635    0.0000    1.0000   12.4170    2.5669    0.1254   57.0000 
2677.2000 2677.2000    1.0754   93.7156    8.6556    0.0000    1.0000   12.2069    2.5898    0.1284   57.0000 
2677.3000 2677.3000    1.3813  100.3798    8.6533    0.0000    1.0000   11.8385    2.5901    0.1374   57.0000 
2677.4000 2677.4000    1.1041   99.5164    8.6538    0.0000    1.0000   11.6421    2.5775    0.1366   57.0000 
2677.5000 2677.5000    0.9835   97.7110    8.6465    0.0000    1.0000   11.4141    2.5675    0.1390   57.0000 
2677.6000 2677.6000    1.0296   98.3233    8.6451    0.0000    1.0000   11.1483    2.5651    0.1418   57.0000 
2677.7000 2677.7000    1.5919  103.1507    8.6546    0.0000    1.0000   10.5712    2.5760    0.1522   57.0000 
2677.8000 2677.8000    1.7310  105.8353    8.6550    0.0000    1.0000   10.3228    2.5795    0.1542   57.0000 
2677.9000 2677.9000    1.7458  105.6626    8.6570    0.0000    1.0000   10.1453    2.5713    0.1596   57.0000 
2678.0000 2678.0000    0.7526  104.5793    8.6654    0.0000    1.0000   10.1011    2.5317    0.1536   57.0000 
2678.1000 2678.1000    0.2088  102.8446    8.6661    0.0000    1.0000   10.2433    2.5096    0.1505   54.0000 
2678.2000 2678.2000    0.1292   99.4693    8.6645    0.0000    1.0000   10.4713    2.4940    0.1575   54.0000 
2678.3000 2678.3000   -0.2243   90.4502    8.6730    0.0000    1.0000   11.1161    2.4893    0.1497   54.0000 
2678.4000 2678.4000   -0.3676   86.8865    8.6795    0.0000    1.0000   11.5470    2.4933    0.1430   25.0000 
2678.5000 2678.5000   -0.5244   86.3527    8.6745    0.0000    1.0000   12.0748    2.4931    0.1384   25.0000 
2678.6000 2678.6000   -0.7611   88.1503    8.6682    0.0000    1.0000   13.4410    2.4765    0.1413   25.0000 
2678.7000 2678.7000   -1.0688   88.6840    8.6726    1.0000    0.0000   14.2722    2.4653    0.1388   49.0000 
2678.8000 2678.8000   -1.2303   88.0011    8.6670    1.0000    0.0000   15.1834    2.4590    0.1377   49.0000 
2678.9000 2678.9000   -1.3404   82.1375    8.6676    1.0000    0.0000   17.1842    2.4538    0.1375   49.0000 
2679.0000 2679.0000   -1.4380   77.9380    8.6756    1.0000    0.0000   18.2366    2.4543    0.1343   49.0000 
2679.1000 2679.1000   -1.5183   73.0321    8.6743    1.0000    0.0000   19.2978    2.4552    0.1313   49.0000 
2679.2000 2679.2000   -1.7535   69.7981    8.6773    1.0000    0.0000   20.3839    2.4540    0.1250   49.0000 
2679.3000 2679.3000   -1.9659   65.0569    8.6749    1.0000    0.0000   23.0001    2.4488    0.1217   49.0000 
2679.4000 2679.4000   -2.1179   63.2123    8.6873    1.0000    0.0000   24.7775    2.4447    0.1196   49.0000 
2679.5000 2679.5000   -2.1259   61.3441    8.7165    1.0000    0.0000   26.8364    2.4451    0.1192   49.0000 
2679.6000 2679.6000   -2.2534   58.4241    8.7007    1.0000    0.0000   29.9293    2.4486    0.1132   49.0000 
2679.7000 2679.7000   -2.4700   58.0395    8.6957    1.0000    0.0000   30.2197    2.4491    0.1064   49.0000 
2679.8000 2679.8000   -2.4303   57.4507    8.6973    1.0000    0.0000   30.1331    2.4470    0.1089   49.0000 
2679.9000 2679.9000   -2.4678   56.3675    8.7132    1.0000    0.0000   30.4134    2.4376    0.1134   49.0000 
2680.0000 2680.0000   -2.5957   56.1634    8.7205    1.0000    0.0000   31.2680    2.4335    0.1120   49.0000 
2680.1000 2680.1000   -2.6086   56.3283    8.6728    1.0000    0.0000   32.7711    2.4305    0.1134   49.0000 
2680.2000 2680.2000   -2.7983   57.2702    8.6733    1.0000    0.0000   37.9820    2.4334    0.1060   49.0000 
2680.3000 2680.3000   -2.9912   54.4051    8.6736    1.0000    0.0000   41.7462    2.4353    0.0991   49.0000 
2680.4000 2680.4000   -3.1400   49.8210    8.6739    1.0000    0.0000   46.1506    2.4371    0.0935   49.0000 
2680.5000 2680.5000   -3.5258   40.5821    8.6580    1.0000    0.0000   55.6123    2.4336    0.0841   49.0000 
2680.6000 2680.6000   -3.7483   39.6401    8.6457    1.0000    0.0000   59.8280    2.4312    0.0788   49.0000 
2680.7000 2680.7000   -3.8931   40.8097    8.6458    1.0000    0.0000   63.2266    2.4285    0.0761   49.0000 
2680.8000 2680.8000   -3.8879   42.1206    8.6530    1.0000    0.0000   65.7090    2.4280    0.0766   49.0000 
2680.9000 2680.9000   -3.6340   42.1912    8.6597    1.0000    0.0000   67.8145    2.4337    0.0808   49.0000 
2681.0000 2681.0000   -3.6209   41.9244    8.6644    1.0000    0.0000   67.2082    2.4354    0.0801   49.0000 
2681.1000 2681.1000   -3.6266   43.2509    8.6594    1.0000    0.0000   65.3354    2.4325    0.0817   49.0000 
2681.2000 2681.2000   -3.6500   45.1270    8.6623    1.0000    0.0000   58.7060    2.4122    0.0932   49.0000 
2681.3000 2681.3000   -3.7398   45.0014    8.6671    1.0000    0.0000   54.9044    2.3998    0.0979   49.0000 
2681.4000 2681.4000   -3.6991   44.5147    8.6464    1.0000    0.0000   51.3638    2.3865    0.1071   49.0000 
2681.5000 2681.5000   -3.5506   43.5492    8.6168    1.0000    0.0000   45.8343    2.3636    0.1253   49.0000 
2681.6000 2681.6000   -3.6279   43.6670    8.6135    1.0000    0.0000   43.8639    2.3545    0.1285   49.0000 
2681.7000 2681.7000   -3.5047   43.4079    8.6751    1.0000    0.0000   42.2718    2.3525    0.1334   49.0000 
2681.8000 2681.8000   -3.3447   42.9762    8.6937    1.0000    0.0000   39.7232    2.3618    0.1326   49.0000 
2681.9000 2681.9000   -3.1467   42.1677    8.6632    1.0000    0.0000   38.4941    2.3702    0.1335   49.0000 
2682.0000 2682.0000   -3.0560   42.3247    8.7367    1.0000    0.0000   37.1465    2.3761    0.1327   49.0000 
2682.1000 2682.1000   -2.9130   45.5744    8.7446    1.0000    0.0000   34.0173    2.3897    0.1288   49.0000 
2682.2000 2682.2000   -2.6921   49.1224    8.7460    1.0000    0.0000   32.4035    2.3998    0.1294   49.0000 
2682.3000 2682.3000   -2.3170   51.6578    8.7673    1.0000    0.0000   30.9455    2.4163    0.1307   49.0000 
2682.4000 2682.4000   -2.0354   53.9028    8.7660    1.0000    0.0000   29.7186    2.4351    0.1279   49.0000 
2682.5000 2682.5000   -1.4456   58.7852    8.7377    1.0000    0.0000   28.0652    2.4672    0.1263   49.0000 
2682.6000 2682.6000   -1.3716   59.5466    8.6545    1.0000    0.0000   27.8087    2.4737    0.1246   49.0000 
2682.7000 2682.7000   -1.3552   59.6957    8.6491    1.0000    0.0000   27.9924    2.4725    0.1258   49.0000 
2682.8000 2682.8000   -1.4404   61.6345    8.6438    1.0000    0.0000   29.4978    2.4624    0.1293   49.0000 
2682.9000 2682.9000   -1.6904   65.1119    8.6473    1.0000    0.0000   30.7893    2.4577    0.1247   49.0000 
2683.0000 2683.0000   -1.7492   69.0837    8.6516    1.0000    0.0000   32.4538    2.4542    0.1250   49.0000 
2683.1000 2683.1000   -1.8029   70.3632    8.6334    1.0000    0.0000   36.8075    2.4402    0.1318   49.0000 
2683.2000 2683.2000   -2.1914   66.3678    8.6289    1.0000    0.0000   39.3446    2.4244    0.1296   49.0000 
2683.3000 2683.3000   -2.4864   60.1981    8.6226    1.0000    0.0000   41.9524    2.4084    0.1304   49.0000 
2683.4000 2683.4000   -3.2834   50.6844    8.6121    1.0000    0.0000   46.8414    2.3742    0.1270   49.0000 
2683.5000 2683.5000   -3.5673   48.5729    8.6108    1.0000    0.0000   48.9862    2.3667    0.1230   49.0000 
2683.6000 2683.6000   -3.6896   47.1757    8.6016    1.0000    0.0000   50.9682    2.3604    0.1231   49.0000 
2683.7000 2683.7000   -3.6020   44.9072    8.5829    1.0000    0.0000   54.6830    2.3689    0.1206   49.0000 
2683.8000 2683.8000   -3.5799   44.5383    8.5979    1.0000    0.0000   56.5224    2.3736    0.1184   49.0000 
2683.9000 2683.9000   -3.3688   46.1003    8.5974    1.0000    0.0000   58.3847    2.3802    0.1208   49.0000 
2684.0000 2684.0000   -3.2717   47.3248    8.5931    1.0000    0.0000   60.2191    2.3828    0.1222   49.0000 
