~VERSION INFORMATION
 VERS.                 2.0:   CWLS LOG ASCII STANDARD - VERSION 2.0
 WRAP.                  NO:   SINGLE LINE PER DEPTH STEP
 CREA.                 06/02/2020 16:07:36
#CREATED USING IP VERSION 4.5.2019.2902 BY RMOTA ON 06/02/2020 16:07:36
~WELL INFORMATION
#MNEM.UNIT       DATA                          DESCRIPTION MNEMONIC
#---------      ---------------------------   --------------------------
 STRT    .M         18.4404                   : START DEPTH
 STOP    .M         3544.2144                 : STOP DEPTH
 STEP    .M         0.1524                    : STEP VALUE
 NULL    .      -999.0000                     : NULL VALUE
 DATE    .      06/02/2020                    : LAS file Creation Date
 WELL   .      7-MP-25-BA         : Well Name
 COMP   .      PETROBRAS          : Company
 FLD    .      MASSAPE            : Field
 STATE  .      20240021268        : State
 COUNT  .      BRASIL             : Country
 API    .      20240021268        : API Number
 UWI    .                         : Unique Well Identifier (UWI)
 LOC    .      N= 8.607.478,570 m : Location
 TOWN   .      CTU                : Township
 SCT    .      OH WIRELINE        : Section
 RANG   .      SCHLUMBERGER       : Range
 PDAT   .      NM                 : Permanent Datum
 EPDAT  .      0                  : Elevation of Permanent Datum
 LGMEA  .      MR                 : Log Measured from
 DRMEA  .      MR                 : Drill Measured From
 APDAT  .      65.76              : Elevation Above Permanent Datum
 KB     .      66.06              : KB Elevation
 DF     .      65.76              : DF Elevation
 GL     .      56.36              : GL Elevation
 RWS    .      -999               : Def_Rw
 WST    .      -999               : Def_Rwt
 BHS    .      OPEN               : Completion Status
 PROV   .                         : Province
 MDEC   .      -23.10323          : Magnetic Declination
 SRVC   .                         : Contractor
 GDAT   .      WGS 84             : Geodatum
 LONG   .      -38.4344958333174  : Longitude
 LATI   .      -12.5959183332655  : Latitude
 COORDIN.                         : Grid System
 XCOORD .                         : X or East-West Coordinate
 YCOORD .                         : Y or North-South Coordinate
~CURVE INFORMATION
#MNEM              UNIT       API CODE   Curve Type Comments
#----------  --------------- ----------  ---------- -----------
 DEPTH      .M                         : Depth       
 BS         .in                        : BitSize     
 GR         .gAPI                      : GammaRay    
 CAL        .inch                      : Caliper     
 RT         .ohm.m                     : DeepRes     
 NPHI       .m3/m3                     : Neutron     
 RHOB       .g/cm3                     : Density     
 DT         .us/ft                     : Sonic       
 SP         .mV                        : SP          
 DRDN       .                          :             
 Lith_new   .                          :             
~A  DEPTH     BS        GR       CAL        RT       NPHI      RHOB       DT        SP       DRDN    Lith_new 
# ...
2098.8528   12.2500   68.1174   12.2717    8.6035    0.1110    2.6289   65.7317  825.3750    1.2783   57.0000 
2099.0052   12.2500   64.7787   12.2604   10.4674    0.1012    2.6350   64.6764  823.5625    1.0746   57.0000 
2099.1576   12.2500   66.7805   12.2379   13.1696    0.1164    2.6288   66.4905  823.5000    1.4543   57.0000 
2099.3100   12.2500   73.3797   12.2040   13.0579    0.1570    2.6187   69.8290  828.3125    2.6070   57.0000 
2099.4624   12.2500   78.2074   12.2191    9.8496    0.1719    2.6056   72.4063  832.4375    2.8413   57.0000 
2099.6148   12.2500   78.4481   12.2266    8.2555    0.1629    2.6188   72.7039  832.3125    2.8053   57.0000 
2099.7672   12.2500   71.1786   12.2040    8.3298    0.1382    2.6331   70.2772  830.1875    2.2684   57.0000 
2099.9196   12.2500   73.3953   12.1815   10.2046    0.1605    2.6342   70.3637  825.2500    3.0328   57.0000 
2100.0720   12.2500   79.6519   12.1702    8.2229    0.1913    2.6204   71.5631  825.5625    3.7849   57.0000 
2100.2244   12.2500   82.6833   12.1815    6.0115    0.2005    2.6137   74.5709  824.2500    3.9562   57.0000 
2100.3768   12.2500   82.3428   12.2040    5.4411    0.1922    2.6188   75.6280  824.8750    3.7810   57.0000 
2100.5292   12.2500   82.2643   12.1589    5.6060    0.1776    2.6283   75.6690  831.6250    3.4840   57.0000 
2100.6816   12.2500   84.8077   12.1928    5.8440    0.1997    2.6291   76.4764  826.3750    4.2376   57.0000 
2100.8340   12.2500   87.1979   12.1477    5.8681    0.2236    2.6281   79.0482  822.9375    5.0151   57.0000 
2100.9864   12.2500   89.6828   12.1702    5.2383    0.2484    2.6171   81.2703  828.1250    5.6224   57.0000 
2101.1388   12.2500   92.1625   12.1815    4.5513    0.2479    2.6073   81.8161  825.6875    5.4092   57.0000 
2101.2912   12.2500   93.0607   12.1702    4.1229    0.2428    2.5970   83.1792  826.6250    5.0326   57.0000 
2101.4436   12.2500   90.1731   12.1965    4.2199    0.2389    2.5977   80.6736  820.1875    4.9174   57.0000 
2101.5960   12.2500   89.6408   12.1439    4.6526    0.2241    2.6025   79.1761  820.0625    4.5194   57.0000 
2101.7484   12.2500   83.9766   12.2153    5.0303    0.2090    2.6092   77.7132  825.5000    4.1489   57.0000 
2101.9008   12.2500   78.3166   12.2040    5.1880    0.1936    2.6102   74.5691  830.5625    3.6577   57.0000 
2102.0532   12.2500   75.2596   12.2040    5.2113    0.1969    2.6172   75.0997  826.9375    3.9086   57.0000 
2102.2056   12.2500   74.9734   12.1815    5.3754    0.1778    2.6250   75.0454  826.4375    3.4277   57.0000 
2102.3580   12.2500   77.0238   12.2040    5.4987    0.1831    2.6296   75.3398  826.0625    3.6968   57.0000 
2102.5104   12.2500   82.4385   12.2191    5.1316    0.1763    2.6184   79.3933  821.8750    3.2429   57.0000 
2102.6628   12.2500   87.3843   12.2266    4.4869    0.2218    2.6117   80.2919  821.4375    4.6273   57.0000 
2102.8152   12.2500   95.2139   12.2266    3.8966    0.2339    2.6047   81.3648  822.1250    4.8908   57.0000 
2102.9676   12.2500   96.5575   12.2266    3.6036    0.2451    2.6036   81.4786  823.5000    5.2413   57.0000 
2103.1200   12.2500   94.1941   12.1928    3.6523    0.2387    2.6011   80.4768  824.6250    4.9793   57.0000 
2103.2724   12.2500   91.3850   12.2153    3.7014    0.2330    2.5988   80.5956  823.0000    4.7431   57.0000 
2103.4248   12.2500   88.0204   12.2153    3.7950    0.2227    2.6093   78.9126  823.9375    4.6105   57.0000 
2103.5772   12.2500   85.4382   12.1589    3.9418    0.2030    2.6233   77.8932  823.5625    4.2310   57.0000 
2103.7296   12.2500   80.6582   12.2191    4.3791    0.1941    2.6364   76.4423  823.8750    4.1980   57.0000 
2103.8820   12.2500   78.7226   12.1702    4.3538    0.2137    2.6352   77.9122  822.8750    4.8295   57.0000 
2104.0344   12.2500   80.4067   12.1514    4.1241    0.2263    2.6239   79.8239  824.5000    5.0217   57.0000 
2104.1868   12.2500   79.3238   12.1815    3.8233    0.2339    2.6212   79.5977  825.3750    5.2198   57.0000 
2104.3392   12.2500   78.5649   12.1815    3.8153    0.2239    2.6102   79.8827  823.6875    4.6679   57.0000 
2104.4916   12.2500   77.1670   12.1928    3.9807    0.2184    2.5993   77.8836  825.8750    4.2641   57.0000 
2104.6440   12.2500   79.5245   12.1589    4.3055    0.2129    2.5948   75.3507  822.3125    3.9933   57.0000 
2104.7964   12.2500   80.4226   12.2040    4.1664    0.2102    2.6021   79.9700  822.4375    4.0499   57.0000 
2104.9488   12.2500   90.8904   12.3619    3.6917    0.2417    2.6008   83.1083  821.1875    5.0724   57.0000 
2105.1012   12.2500   95.7452   12.3281    3.2149    0.2877    2.5959   86.5214  822.0625    6.5104   57.0000 
2105.2536   12.2500   97.9015   12.3055    2.7766    0.3031    2.6005   89.2977  823.6250    7.1145   57.0000 
2105.4060   12.2500   92.3120   12.2867    2.6003    0.2882    2.6127   85.3347  820.9375    6.8614   57.0000 
2105.5584   12.2500   86.3615   12.2717    2.9023    0.2592    2.6147   83.4715  821.7500    5.9354   57.0000 
2105.7108   12.2500   86.9625   12.2604    3.1229    0.2678    2.5905   83.3402  820.4375    5.7371   57.0000 
2105.8632   12.2500   83.7066   12.2341    3.0809    0.2897    2.5647   84.0523  821.1875    5.9527   57.0000 
2106.0156   12.2500   87.7067   12.2379    3.0630    0.2792    2.5443   83.4390  819.5000    5.1921   57.0000 
2106.1680   12.2500   85.5109   12.1364    3.0836    0.2808    2.5547   83.0250  818.3125    5.4534   57.0000 
2106.3204   12.2500   88.3403   12.1364    3.0517    0.2643    2.5750   81.5472  819.6875    5.3113   57.0000 
2106.4728   12.2500   87.1182   12.1514    2.9948    0.2693    2.6069   79.5708  818.6875    6.1135   57.0000 
2106.6252   12.2500   85.0973   12.1477    3.1424    0.2493    2.6233   78.5361  821.5000    5.7767   57.0000 
2106.7776   12.2500   81.5943   12.2115    3.4246    0.2332    2.6369   78.2455  820.7500    5.5090   57.0000 
2106.9300   12.2500   82.3671   12.2266    3.6705    0.2381    2.6279   77.9964  818.3750    5.4947   57.0000 
2107.0824   12.2500   86.9401   12.2830    3.3755    0.2388    2.6150   79.7169  824.1250    5.2575   57.0000 
2107.2348   12.2500   88.9101   12.2642    3.1650    0.2347    2.6001   80.4103  822.6250    4.8243   57.0000 
2107.3872   12.2500   86.1183   12.2566    3.4472    0.2152    2.5959   78.9771  827.0625    4.0915   57.0000 
2107.5396   12.2500   84.4705   12.2792    3.6455    0.2172    2.6021   79.7849  820.5625    4.2823   57.0000 
2107.6920   12.2500   84.1847   12.3017    3.6110    0.2293    2.5970   81.9438  823.1875    4.5835   57.0000 
2107.8444   12.2500   86.3446   12.2942    3.5777    0.2525    2.5965   82.9007  817.9375    5.3456   57.0000 
2107.9968   12.2500   88.3573   12.2379    3.4772    0.2615    2.5909   82.7679  816.6250    5.5328   57.0000 
2108.1492   12.2500   87.4591   12.1213    3.4985    0.2650    2.5973   81.4299  816.0000    5.7812   57.0000 
2108.3016   12.2500   86.4486   12.0800    3.5224    0.2595    2.6060   80.9389  816.1875    5.7697   57.0000 
2108.4540   12.2500   86.0880   12.0988    3.5840    0.2449    2.6118   79.6610  819.0625    5.3985   57.0000 
2108.6064   12.2500   88.6703   12.0913    3.6794    0.2262    2.6306   81.0109  818.3125    5.1514   57.0000 
2108.7588   12.2500   91.4772   12.1213    3.5173    0.2277    2.6315   81.8942  819.1875    5.2213   57.0000 
2108.9112   12.2500   90.7560   12.1702    3.1945    0.2466    2.6211   83.2784  818.1250    5.6432   57.0000 
2109.0636   12.2500   90.6437   12.1138    3.0056    0.2707    2.6128   84.1779  815.3125    6.2802   57.0000 
2109.2160   12.2500   89.2965   12.1251    2.9496    0.2858    2.6210   84.5352  815.0625    6.9457   57.0000 
2109.3684   12.2500   89.8974   12.1138    2.9171    0.2848    2.6443   83.4842  823.8125    7.3800   57.0000 
2109.5208   12.2500   86.6415   12.1589    3.0228    0.2645    2.6345   81.9485  824.8125    6.5075   57.0000 
2109.6732   12.2500   85.1398   12.1364    3.1342    0.2333    2.6149   81.6202  825.0625    5.0756   57.0000 
2109.8256   12.2500   85.7043   12.1702    3.1069    0.2246    2.6012   81.9556  823.1250    4.5122   57.0000 
