~VERSION INFORMATION
 VERS.                 2.0:   CWLS LOG ASCII STANDARD - VERSION 2.0
 WRAP.                  NO:   SINGLE LINE PER DEPTH STEP
 CREA.                 06/02/2020 16:44:49
#CREATED USING IP VERSION 4.5.2019.2902 BY RMOTA ON 06/02/2020 16:44:49
~WELL INFORMATION
#MNEM.UNIT       DATA                          DESCRIPTION MNEMONIC
#---------      ---------------------------   --------------------------
 STRT    .M         1550.0001                 : START DEPTH
 STOP    .M         2926.1001                 : STOP DEPTH
 STEP    .M         0.1000                    : STEP VALUE
 NULL    .      -999.0000                     : NULL VALUE
 DATE    .      06/02/2020                    : LAS file Creation Date
 WELL   .      7-MP-47DP-BA    : Well Name
 COMP   .      PETROBRAS       : Company
 FLD    .      MASSAPE         : Field
 STATE  .      BAHIA           : State
 API    .      20240025025     : API Number
 UWI    .                      : Unique Well Identifier (UWI)
 LOC    .      20240025025     : Location
 PDAT   .      NM              : Permanent Datum
 EPDAT  .      0.0             : Elevation of Permanent Datum
 LGMEA  .      MR              : Log Measured from
 DRMEA  .      MR              : Drill Measured From
 APDAT  .      65.68           : Elevation Above Permanent Datum
 KB     .      -999.25         : KB Elevation
 DF     .      65.68           : DF Elevation
 GL     .      56.28           : GL Elevation
 RWS    .      -999            : Def_Rw
 WST    .      -999            : Def_Rwt
 PROV   .                      : Province
 SRVC   .                      : Contractor
 GDAT   .      WGS 84          : Geodatum
 LONG   .      -38.435024444394: Longitude
 LATI   .      0               : Latitude
 COORDIN.                      : Grid System
 XCOORD .                      : X or East-West Coordinate
 YCOORD .                      : Y or North-South Coordinate
~CURVE INFORMATION
#MNEM              UNIT       API CODE   Curve Type Comments
#----------  --------------- ----------  ---------- -----------
 DEPTH      .M                         : Depth       
 BS         .in                        : BitSize     
 CAL        .in                        : Caliper     
 GR         .api                       : GammaRay    
 ILD        .ohmm                      : DeepRes     
 NPHI       .decp                      : Neutron     
 RHOB       .g/cc                      : Density     
 DT         .uspf                      : Sonic       
 DRDN       .                          :             
 Lith_new   .                          :             
~A  DEPTH     BS       CAL        GR       ILD       NPHI      RHOB       DT       DRDN    Lith_new 
# ...
1718.0001    8.5000    9.8998   88.2496    2.6343 -999.0000 -999.0000   99.2327 -999.0000 -999.0000 
1718.1001    8.5000   10.0176   88.4380    2.4609 -999.0000 -999.0000   99.3975 -999.0000 -999.0000 
1718.2001    8.5000   10.1195   92.0463    2.2846 -999.0000 -999.0000   98.7624 -999.0000 -999.0000 
1718.3001    8.5000   10.2732   99.8634    1.9797 -999.0000 -999.0000   98.7246 -999.0000 -999.0000 
1718.4001    8.5000   10.3264   99.2069    1.8768 -999.0000 -999.0000   99.0444 -999.0000 -999.0000 
1718.5001    8.5000   10.3873   95.6370    1.8169 -999.0000 -999.0000   98.5465 -999.0000 -999.0000 
1718.6001    8.5000   10.5097   90.0305    1.7758 -999.0000 -999.0000   97.7279 -999.0000 -999.0000 
1718.7001    8.5000   10.5467   90.4283    1.7726 -999.0000 -999.0000   97.6121 -999.0000 -999.0000 
1718.8001    8.5000   10.6182   91.8051    1.7689 -999.0000 -999.0000   97.5226 -999.0000 -999.0000 
1718.9001    8.5000   10.7216   93.2682    1.7414 -999.0000 -999.0000   97.8164 -999.0000 -999.0000 
1719.0001    8.5000   10.7778   93.1213    1.7254 -999.0000 -999.0000   98.1883 -999.0000 -999.0000 
1719.1001    8.5000   10.8198   92.9583    1.7172 -999.0000 -999.0000   98.3667 -999.0000 -999.0000 
1719.2001    8.5000   10.8198   93.2043    1.7130 -999.0000 -999.0000   98.8817 -999.0000 -999.0000 
1719.3001    8.5000   10.8310   91.6534    1.7124 -999.0000 -999.0000   99.8977 -999.0000 -999.0000 
1719.4001    8.5000   10.8326   90.8867    1.7048 -999.0000 -999.0000  100.2379 -999.0000 -999.0000 
1719.5001    8.5000   10.8379   90.9585    1.6959 -999.0000 -999.0000  100.4103 -999.0000 -999.0000 
1719.6001    8.5000   10.8298   92.8417    1.6661 -999.0000 -999.0000  100.9574 -999.0000 -999.0000 
1719.7001    8.5000   10.8200   92.6453    1.6523 -999.0000 -999.0000  101.0519 -999.0000 -999.0000 
1719.8001    8.5000   10.8246   90.3899    1.6400 -999.0000 -999.0000  100.9829 -999.0000 -999.0000 
1719.9001    8.5000   10.8114   87.2273    1.6319 -999.0000 -999.0000  100.5960 -999.0000 -999.0000 
1720.0001    8.5000   10.8190   87.8742    1.6328 -999.0000 -999.0000  100.7614 -999.0000 -999.0000 
1720.1001    8.5000   10.8297   91.0416    1.6325 -999.0000 -999.0000  100.6414 -999.0000 -999.0000 
1720.2001    8.5000   10.8213   93.0063    1.6279 -999.0000 -999.0000  100.2660 -999.0000 -999.0000 
1720.3001    8.5000   10.8046   92.7635    1.6288 -999.0000 -999.0000  100.3767 -999.0000 -999.0000 
1720.4001    8.5000   10.7726   89.8692    1.6347 -999.0000 -999.0000  100.3572 -999.0000 -999.0000 
1720.5001    8.5000   10.7148   89.2846    1.6569 -999.0000 -999.0000  100.0419 -999.0000 -999.0000 
1720.6001    8.5000   10.6061   92.2859    1.6689 -999.0000 -999.0000   99.2524 -999.0000 -999.0000 
1720.7001    8.5000   10.5681   94.9022    1.6810 -999.0000 -999.0000   99.2498 -999.0000 -999.0000 
1720.8001    8.5000   10.5514   95.8223    1.6956 -999.0000 -999.0000   99.4536 -999.0000 -999.0000 
1720.9001    8.5000   10.5544   95.9884    1.7161 -999.0000 -999.0000   99.3299 -999.0000 -999.0000 
1721.0001    8.5000   10.5676   96.3669    1.7161 -999.0000 -999.0000   99.3870 -999.0000 -999.0000 
1721.1001    8.5000   10.5813   96.6449    1.7125 -999.0000 -999.0000   99.2907 -999.0000 -999.0000 
1721.2001    8.5000   10.6117   95.2424    1.7052 -999.0000 -999.0000   99.8032 -999.0000 -999.0000 
1721.3001    8.5000   10.6208   93.3593    1.6977 -999.0000 -999.0000   99.6847 -999.0000 -999.0000 
1721.4001    8.5000   10.6259   91.6294    1.6883 -999.0000 -999.0000   99.2578 -999.0000 -999.0000 
1721.5001    8.5000   10.5969   92.1757    1.6719 -999.0000 -999.0000   98.3680 -999.0000 -999.0000 
1721.6001    8.5000   10.5981   94.0685    1.6668 -999.0000 -999.0000   98.2126 -999.0000 -999.0000 
1721.7001    8.5000   10.6057   96.3302    1.6668 -999.0000 -999.0000   97.7607 -999.0000 -999.0000 
1721.8001    8.5000   10.6209   93.6516    1.6891 -999.0000 -999.0000   97.1124 -999.0000 -999.0000 
1721.9001    8.5000   10.6469   92.7172    1.7042 -999.0000 -999.0000   97.3271 -999.0000 -999.0000 
1722.0001    8.5000   10.6365   90.8148    1.7175 -999.0000 -999.0000   97.6420 -999.0000 -999.0000 
1722.1001    8.5000   10.5924   90.2733    1.7514 -999.0000 -999.0000   98.1413 -999.0000 -999.0000 
1722.2001    8.5000   10.5270   87.8822    1.7863 -999.0000 -999.0000   98.8632 -999.0000 -999.0000 
1722.3001    8.5000   10.4921   90.0673    1.8414 -999.0000 -999.0000   99.2239 -999.0000 -999.0000 
1722.4001    8.5000   10.4772   93.5318    1.9220 -999.0000 -999.0000   99.3055 -999.0000 -999.0000 
1722.5001    8.5000   10.5232   99.8282    2.0846 -999.0000 -999.0000   99.3197 -999.0000 -999.0000 
1722.6001    8.5000   10.5502  100.2882    2.1269 -999.0000 -999.0000   99.1068 -999.0000 -999.0000 
1722.7001    8.5000   10.5833   98.8172    2.1288 -999.0000 -999.0000   99.1987 -999.0000 -999.0000 
1722.8001    8.5000   10.6571   94.3416    2.0316 -999.0000 -999.0000   98.8980 -999.0000 -999.0000 
1722.9001    8.5000   10.7103   93.1436    1.9500 -999.0000 -999.0000   99.0946 -999.0000 -999.0000 
1723.0001    8.5000   10.7441   93.4599    1.8696 -999.0000 -999.0000   99.2653 -999.0000 -999.0000 
1723.1001    8.5000   10.8087   95.0460    1.7526 -999.0000 -999.0000   99.9486 -999.0000 -999.0000 
1723.2001    8.5000   10.8604   94.8399    1.7229 -999.0000 -999.0000  100.0791 -999.0000 -999.0000 
1723.3001    8.5000   10.9198   95.4868    1.7127 -999.0000 -999.0000  100.1732 -999.0000 -999.0000 
1723.4001    8.5000   10.9893   96.0714    1.7258 -999.0000 -999.0000  100.4123 -999.0000 -999.0000 
1723.5001    8.5000   11.0159   94.3128    1.7465 -999.0000 -999.0000  100.3803 -999.0000 -999.0000 
1723.6001    8.5000   11.0304   92.4296    1.7657 -999.0000 -999.0000  100.2973 -999.0000 -999.0000 
1723.7001    8.5000   11.0134   90.8915    1.7885 -999.0000 -999.0000  100.3555 -999.0000 -999.0000 
1723.8001    8.5000   11.0104   91.0783    1.7889 -999.0000 -999.0000  100.3967 -999.0000 -999.0000 
1723.9001    8.5000   10.9901   90.0673    1.7793 -999.0000 -999.0000  100.8915 -999.0000 -999.0000 
1724.0001    8.5000   10.9650   89.0562    1.7640 -999.0000 -999.0000  100.6982 -999.0000 -999.0000 
1724.1001    8.5000   10.9272   88.2224    1.7060 -999.0000 -999.0000  100.8667 -999.0000 -999.0000 
1724.2001    8.5000   10.9248   90.9490    1.6770 -999.0000 -999.0000  100.9663 -999.0000 -999.0000 
1724.3001    8.5000   10.9175   93.3688    1.6546 -999.0000 -999.0000  100.9889 -999.0000 -999.0000 
1724.4001    8.5000   10.9229   95.4661    1.6259 -999.0000 -999.0000  100.2445 -999.0000 -999.0000 
1724.5001    8.5000   10.9108   93.8368    1.6172 -999.0000 -999.0000  100.7387 -999.0000 -999.0000 
1724.6001    8.5000   10.9078   93.5973    1.6109 -999.0000 -999.0000  101.5724 -999.0000 -999.0000 
1724.7001    8.5000   10.8966   94.8351    1.6174 -999.0000 -999.0000  101.8282 -999.0000 -999.0000 
1724.8001    8.5000   10.8992   95.8127    1.6405 -999.0000 -999.0000  101.9115 -999.0000 -999.0000 
1724.9001    8.5000   10.9327   95.5060    1.6795 -999.0000 -999.0000  101.9793 -999.0000 -999.0000 
1725.0001    8.5000   10.8866   89.6504    1.7895 -999.0000 -999.0000  101.5168 -999.0000 -999.0000 
1725.1001    8.5000   10.8789   87.1826    1.8478 -999.0000 -999.0000   99.9449 -999.0000 -999.0000 
1725.2001    8.5000   10.8402   86.6986    1.8988 -999.0000 -999.0000   99.3695 -999.0000 -999.0000 
1725.3001    8.5000   10.7847   88.5195    1.9993 -999.0000 -999.0000   98.5994 -999.0000 -999.0000 
1725.4001    8.5000   10.7722   91.7444    2.0457 -999.0000 -999.0000   97.7854 -999.0000 -999.0000 
1725.5001    8.5000   10.7480   90.1535    2.0838 -999.0000 -999.0000   97.4466 -999.0000 -999.0000 
1725.6001    8.5000   10.7336   88.0787    2.1061 -999.0000 -999.0000   97.1842 -999.0000 -999.0000 
1725.7001    8.5000   10.6745   87.4222    2.0968 -999.0000 -999.0000   98.6632 -999.0000 -999.0000 
1725.8001    8.5000   10.6320   89.5993    2.0403 -999.0000 -999.0000  100.0137 -999.0000 -999.0000 
1725.9001    8.5000   10.6102   91.1039    1.9787 -999.0000 -999.0000  101.8940 -999.0000 -999.0000 
