~VERSION INFORMATION
 VERS.                 2.0:   CWLS LOG ASCII STANDARD - VERSION 2.0
 WRAP.                  NO:   SINGLE LINE PER DEPTH STEP
 CREA.                 06/02/2020 16:35:30
#CREATED USING IP VERSION 4.5.2019.2902 BY RMOTA ON 06/02/2020 16:35:30
~WELL INFORMATION
#MNEM.UNIT       DATA                          DESCRIPTION MNEMONIC
#---------      ---------------------------   --------------------------
 STRT    .M         15.6972                   : START DEPTH
 STOP    .M         2951.2260                 : STOP DEPTH
 STEP    .M         0.1524                    : STEP VALUE
 NULL    .      -999.0000                     : NULL VALUE
 DATE    .      06/02/2020                    : LAS file Creation Date
 WELL   .      7-MP-36D-BA       : Well Name
 COMP   .      PETROBRAS         : Company
 FLD    .      MASSAPE           : Field
 STATE  .      20240022534       : State
 COUNT  .      BRASIL            : Country
 API    .      20240022534       : API Number
 UWI    .                        : Unique Well Identifier (UWI)
 LOC    .      N= 8607444.13 M   : Location
 PDAT   .      NM                : Permanent Datum
 EPDAT  .      0                 : Elevation of Permanent Datum
 LGMEA  .      MR                : Log Measured from
 DRMEA  .      MR                : Drill Measured From
 APDAT  .      65.81             : Elevation Above Permanent Datum
 KB     .      66.11             : KB Elevation
 DF     .      65.81             : DF Elevation
 GL     .      56.41             : GL Elevation
 RWS    .      -999              : Def_Rw
 WST    .      -999              : Def_Rwt
 BHS    .      OPEN              : Completion Status
 PROV   .                        : Province
 SRVC   .                        : Contractor
 GDAT   .      WGS 84            : Geodatum
 LONG   .      -38.4351329444514 : Longitude
 LATI   .      -12.5962309720781 : Latitude
 COORDIN.                        : Grid System
 XCOORD .                        : X or East-West Coordinate
 YCOORD .                        : Y or North-South Coordinate
~CURVE INFORMATION
#MNEM              UNIT       API CODE   Curve Type Comments
#----------  --------------- ----------  ---------- -----------
 DEPTH      .M                         : Depth       
 BS         .in                        : BitSize     Loaded from DLIS: 7-mp-36d-ba_raw-1.dlis
 DCAL       .in                        :             Loaded from DLIS: 7-mp-36d-ba_raw-1.dlis
 GR         .gAPI                      : GammaRay    Loaded from DLIS: 7-mp-36d-ba_raw-1.dlis
 RT         .ohm.m                     : DeepRes     Loaded from DLIS: 7-mp-36d-ba_raw-1.dlis
 NPHI       .m3/m3                     : Neutron     Loaded from DLIS: 7-mp-36d-ba_raw-1.dlis
 RHOB       .g/cm3                     : Density     Loaded from DLIS: 7-mp-36d-ba_raw-1.dlis
 DT         .us/ft                     : Sonic       Loaded from DLIS: 7-mp-36d-ba_raw-1.dlis
 SP         .mV                        : SP          Loaded from DLIS: 7-mp-36d-ba_raw-1.dlis
 DRDN       .                          :             
 Lith_new   .                          :             
~A  DEPTH     BS       DCAL       GR        RT       NPHI      RHOB       DT        SP       DRDN    Lith_new 
# ...
1962.6072    8.5000   -0.0795   65.2520   25.2094    0.0324    2.6753   57.8864  273.1250   -0.3453   25.0000 
1962.7596    8.5000   -0.0557   68.1346   22.4934    0.0271    2.6808   56.9538  273.1875   -0.4920   25.0000 
1962.9120    8.5000   -0.0319   78.7297   14.7803    0.0691    2.6776   59.4545  272.9375    0.7840   57.0000 
1963.0644    8.5000   -0.0319   92.0555    8.6645    0.1487    2.6620   65.9882  272.9375    3.0577   57.0000 
1963.2168    8.5000   -0.0319  100.2605    6.4499    0.2141    2.6391   71.8684  272.5625    4.7839   57.0000 
1963.3692    8.5000   -0.0319   99.0924    5.0522    0.2604    2.6236   76.8274  272.4375    6.0662   57.0000 
1963.5216    8.5000   -0.0319  102.0233    4.1837    0.2704    2.6083   78.6430  272.6250    6.0972   57.0000 
1963.6740    8.5000   -0.0795  106.3546    3.7858    0.2447    2.5997   77.0994  272.8125    5.1128   57.0000 
1963.8264    8.5000   -0.0438   96.3699    4.3958    0.1906    2.5980   72.6098  272.6250    3.3682   57.0000 
1963.9788    8.5000   -0.0557   83.7894    6.4824    0.1504    2.6174   70.9903  272.6250    2.5298   57.0000 
1964.1312    8.5000   -0.0795   79.4582    7.3891    0.1549    2.6422   67.7773  273.0000    3.1171   57.0000 
1964.2836    8.5000   -0.1033   90.5562    6.3709    0.1912    2.6536   69.3396  274.3125    4.4653   57.0000 
1964.4360    8.5000   -0.0557   98.0327    5.5879    0.2100    2.6501   73.7412  275.0000    4.9363   57.0000 
1964.5884    8.5000    0.0157   98.3890    4.9129    0.2272    2.6364   74.7888  276.1250    5.2252   57.0000 
1964.7408    8.5000   -0.0200   94.3543    4.4986    0.2334    2.6231   75.7860  276.3125    5.1659   57.0000 
1964.8932    8.5000    0.0276   96.0272    4.6014    0.2292    2.6143   75.2380  276.7500    4.9054   57.0000 
1965.0456    8.5000    0.0633   99.2274    4.5175    0.2411    2.6139   74.9416  277.4375    5.2955   57.0000 
1965.1980    8.5000    0.1347  101.5919    4.1229    0.2337    2.6147   74.1326  277.6875    5.1221   57.0000 
1965.3504    8.5000    0.1466   98.4320    4.3991    0.2284    2.6271   73.2907  278.0625    5.2416   57.0000 
1965.5028    8.5000    0.1823   87.9235    5.3173    0.1888    2.6383   72.1339  278.1250    4.1762   57.0000 
1965.6552    8.5000    0.2179   91.1353    6.4572    0.1828    2.6521   71.2755  278.1250    4.1697   57.0000 
1965.8076    8.5000    0.2536   94.1094    5.9869    0.1886    2.6478   72.1652  277.8125    4.1784   57.0000 
1965.9600    8.5000    0.2536   99.7472    4.6467    0.2131    2.6366   74.1186  277.6250    4.7148   57.0000 
1966.1124    8.5000    0.3012  103.2789    4.0271    0.2232    2.6233   77.5815  277.5000    4.8923   57.0000 
1966.2648    8.5000    0.3250  108.7787    3.6727    0.2298    2.6254   79.2598  278.1250    5.1626   57.0000 
1966.4172    8.5000    0.3964  115.8470    3.2047    0.2406    2.6184   81.5138  278.3750    5.3206   57.0000 
1966.5696    8.5000    0.3607  112.4437    2.8816    0.2567    2.6059   84.8023  277.9375    5.5860   57.0000 
1966.7220    8.5000    0.3964  107.8413    2.7605    0.2831    2.5922   85.6751  278.1250    6.2142   57.0000 
1966.8744    8.5000    0.3964  102.8868    2.6221    0.2904    2.5902   86.3598  279.0000    6.5237   57.0000 
1967.0268    8.5000    0.3964  108.8924    2.4372    0.2947    2.5876   87.1257  279.7500    6.5048   57.0000 
1967.1792    8.5000    0.4440  111.0935    2.2688    0.2974    2.5734   89.7668  280.0625    6.3067   57.0000 
1967.3316    8.5000    0.4678  115.7331    2.1802    0.3023    2.5660   89.3657  280.0625    6.3506   57.0000 
1967.4840    8.5000    0.5391  110.2843    2.2843    0.3041    2.5677   88.6185  279.2500    6.5261   57.0000 
1967.6364    8.5000    0.6105  106.4423    2.4358    0.2943    2.5730   87.8979  278.7500    6.2823   57.0000 
1967.7888    8.5000    0.6581  105.1179    2.4661    0.2816    2.5791   85.7880  278.6250    6.0732   57.0000 
1967.9412    8.5000    0.7295  108.2138    2.4893    0.2648    2.5925   85.6712  278.3750    5.7263   57.0000 
1968.0936    8.5000    0.7533  109.9986    2.5651    0.2529    2.5962   84.8546  278.6250    5.3592   57.0000 
1968.2460    8.5000    0.8009  108.3563    2.6143    0.2521    2.5919   85.1929  278.7500    5.1622   57.0000 
1968.3984    8.5000    0.7771  102.4768    2.4841    0.2576    2.5783   84.6633  278.3750    5.0864   57.0000 
1968.5508    8.5000    0.8484  103.7973    2.3990    0.2615    2.5800   85.9947  277.7500    5.3962   57.0000 
1968.7032    8.5000    0.9198  105.0376    2.3538    0.2628    2.5894   87.2469  277.6875    5.6196   57.0000 
1968.8556    8.5000    0.9317  104.1619    2.2503    0.2561    2.6030   87.0757  278.1250    5.6878   57.0000 
1969.0080    8.5000    0.8960  103.8855    2.1713    0.2712    2.6106   86.9734  278.6250    6.2788   57.0000 
1969.1604    8.5000    1.0150   97.8123    2.1931    0.2633    2.6134   85.6560  278.7500    6.0317   57.0000 
1969.3128    8.5000    1.0388  100.0429    2.2068    0.2742    2.6102   84.8704  278.8750    6.3156   57.0000 
1969.4652    8.5000    1.1102   98.4365    2.1626    0.2539    2.5988   85.2066  278.8750    5.3071   57.0000 
1969.6176    8.5000    1.0150  100.9839    2.0596    0.2702    2.5790   86.7346  278.8125    5.4514   57.0000 
1969.7700    8.5000    0.9674  106.7461    1.9592    0.2962    2.5657   87.7856  279.7500    6.2028   57.0000 
1969.9224    8.5000    0.8722  106.8908    1.9178    0.3410    2.5729   88.9172  279.8750    7.8517   57.0000 
1970.0748    8.5000    0.8960  108.2469    1.8601    0.3530    2.5724   90.5620  280.1250    8.2222   57.0000 
1970.2272    8.5000    0.8603  103.9717    1.8078    0.3168    2.5627   91.0939  279.9375    6.6319   57.0000 
1970.3796    8.5000    0.6581   99.5867    1.7900    0.2899    2.5421   92.3360  280.2500    5.4811   57.0000 
1970.5320    8.5000    0.7057  102.9325    1.7930    0.2816    2.5469   93.8487  280.3750    5.3580   57.0000 
1970.6844    8.5000    0.5629  106.0288    1.7945    0.3019    2.5562   95.4072  280.1875    6.3095   57.0000 
1970.8368    8.5000    0.5867  113.4072    1.7594    0.3224    2.5631   96.3280  280.0625    6.9130   57.0000 
1970.9892    8.5000    0.5867  111.7343    1.7258    0.3181    2.5531   97.1566  279.8750    6.6899   57.0000 
1971.1416    8.5000    0.5272  105.0371    1.7830    0.3330    2.5560   97.1715  279.7500    7.1733   57.0000 
1971.2940    8.5000    0.4678  101.7919    1.9482    0.3232    2.5523   94.4292  279.8750    6.8786   57.0000 
1971.4464    8.5000    0.5153   96.7731    2.1133    0.3158    2.5581   92.8024  279.9375    6.6713   57.0000 
1971.5988    8.5000    0.4916   95.3052    2.1882    0.3045    2.5585   91.7073  280.1875    6.3576   57.0000 
1971.7512    8.5000    0.5153   92.0652    2.1734    0.3007    2.5693   92.8535  280.5000    6.5116   57.0000 
1971.9036    8.5000    0.5035   96.8385    2.1666    0.3221    2.5816   94.0405  280.5625    7.4000   57.0000 
1972.0560    8.5000    0.6343  103.5801    2.1822    0.3425    2.5779   93.1092  280.8125    7.9341   57.0000 
1972.2084    8.5000    0.3964  109.1601    2.3018    0.3616    2.5744   91.3129  280.9375    8.5179   57.0000 
1972.3608    8.5000    0.3369  110.3966    2.3808    0.3579    2.5689   90.6919  281.0625    8.2836   57.0000 
1972.5132    8.5000    0.2774  111.6345    2.4141    0.3268    2.5671   91.9026  281.0625    7.1987   57.0000 
1972.6656    8.5000    0.3131  105.4269    2.4765    0.2894    2.5611   91.1736  281.1250    5.8532   57.0000 
1972.8180    8.5000    0.3369   91.5717    2.6892    0.2509    2.5653   87.1843  281.2500    4.7455   57.0000 
1972.9704    8.5000    0.3726   87.5456    3.0095    0.2425    2.5866   87.0638  281.3125    5.0561   57.0000 
1973.1228    8.5000    0.3250   85.6510    2.9066    0.2453    2.6183   85.2267  280.9375    5.6781   57.0000 
1973.2752    8.5000    0.3488   92.7321    2.8240    0.2803    2.6261   84.7288  280.5000    6.8320   57.0000 
1973.4276    8.5000    0.3250   88.8287    2.9855    0.2766    2.6144   87.7743  279.7500    6.3816   57.0000 
1973.5800    8.5000    0.2774   91.7693    3.1606    0.2740    2.5956   87.2328  279.4375    5.9231   57.0000 
