~VERSION INFORMATION
 VERS.                 2.0:   CWLS LOG ASCII STANDARD - VERSION 2.0
 WRAP.                  NO:   SINGLE LINE PER DEPTH STEP
 CREA.                 28/08/2020 11:52:07
#CREATED USING IP VERSION 4.5.2019.2902 BY CANDIDO ON 28/08/2020 11:52:07
~WELL INFORMATION
#MNEM.UNIT       DATA                          DESCRIPTION MNEMONIC
#---------      ---------------------------   --------------------------
 STRT    .M         639.0000                  : START DEPTH
 STOP    .M         3007.1000                 : STOP DEPTH
 STEP    .M         0.1000                    : STEP VALUE
 NULL    .      -999.0000                     : NULL VALUE
 DATE    .      28/08/2020                    : LAS file Creation Date
 WELL   .      7-MP-55D-BA     : Well Name
 COMP   .      PETROBRAS       : Company
 FLD    .      MASSAPE         : Field
 STATE  .      BAHIA           : State
 COUNT  .      -999.25         : Country
 API    .      20240028408     : API Number
 UWI    .                      : Unique Well Identifier (UWI)
 LOC    .      -999.25         : Location
 TOWN   .      -999.25         : Township
 SCT    .      -999.25         : Section
 RANG   .      -999.25         : Range
 PDAT   .      NM              : Permanent Datum
 EPDAT  .      0.00            : Elevation of Permanent Datum
 LGMEA  .      MR              : Log Measured from
 DRMEA  .      MR              : Drill Measured From
 APDAT  .      65.67           : Elevation Above Permanent Datum
 KB     .      65.97           : KB Elevation
 DF     .      65.67           : DF Elevation
 GL     .      56.27           : GL Elevation
 RWS    .      -999            : Def_Rw
 WST    .      -999            : Def_Rwt
 PROV   .                      : Province
 SRVC   .                      : Contractor
 GDAT   .      WGS 84          : Geodatum
 LONG   .      -38.435231944455: Longitude
 LATI   .      0               : Latitude
 COORDIN.                      : Grid System
 XCOORD .                      : X or East-West Coordinate
 YCOORD .                      : Y or North-South Coordinate
~CURVE INFORMATION
#MNEM                UNIT       API CODE   Curve Type Comments
#----------    --------------- ----------  ---------- -----------
 DEPTH        .M                         : Depth       
 TVD          .M                         : Depth       
 TVDSS        .M                         : Depth       
 GR           .api                       : GammaRay    
 CAL          .in                        : Caliper     
 BS           .in                        : BitSize     
 Lith_new     .                          :             
 RT           .ohmm                      : DeepRes     
 NPHI         .decp                      : Neutron     
 RHOB         .g/cc                      : Density     
 Res          .                          :             
 N_Res        .                          :             
 VCLGR        .Dec                       : Vcl         
 Phi_Gaymard  .                          :             
 Phie_Gaymard .                          :             
 SwArch       .Dec                       :             
 SwSim        .Dec                       :             
~A  DEPTH    TVD      TVDSS       GR       CAL        BS     Lith_new     RT       NPHI      RHOB      Res      N_Res     VCLGR   Phi_Gaym~ Phie_Gay~   SwArch    SwSim   
# ...
2147.7000 2136.6146 -2070.9446  102.6609    8.6135    8.5000   57.0000    3.3156    0.2126    2.5670    0.0000    1.0000    0.9110    0.1553    0.0138    1.3000    1.1710 
2147.8000 2136.7135 -2071.0435  102.5464    8.6282    8.5000   57.0000    3.2906    0.2144    2.5741    0.0000    1.0000    0.9080    0.1557    0.0143    1.3000    1.1835 
2147.9000 2136.8125 -2071.1425   99.1190    8.6260    8.5000   57.0000    3.2350    0.2079    2.5804    0.0000    1.0000    0.8231    0.1506    0.0266    1.3000    1.2398 
2148.0000 2136.9114 -2071.2414   98.3709    8.6386    8.5000   57.0000    3.2296    0.2065    2.5839    0.0000    1.0000    0.8053    0.1493    0.0291    1.3000    1.1893 
2148.1000 2137.0103 -2071.3403   97.4855    8.6336    8.5000   57.0000    3.2532    0.2037    2.5775    0.0000    1.0000    0.7846    0.1480    0.0319    1.3000    1.0749 
2148.2000 2137.1092 -2071.4392   94.4627    8.6270    8.5000   57.0000    3.4135    0.2136    2.5609    0.0000    1.0000    0.7168    0.1567    0.0444    0.8923    0.6586 
2148.3000 2137.2082 -2071.5382   93.0658    8.6436    8.5000   57.0000    3.5643    0.2151    2.5490    0.0000    1.0000    0.6869    0.1593    0.0499    0.7595    0.5858 
2148.4000 2137.3071 -2071.6371   92.6230    8.6347    8.5000   57.0000    3.7743    0.2100    2.5413    0.0000    1.0000    0.6776    0.1570    0.0506    0.7086    0.5501 
2148.5000 2137.4060 -2071.7360   93.4474    8.6299    8.5000   57.0000    4.4057    0.2154    2.5387    0.0000    1.0000    0.6950    0.1610    0.0491    0.6423    0.4882 
2148.6000 2137.5049 -2071.8349   93.1803    8.6458    8.5000   57.0000    4.8378    0.2233    2.5408    0.0000    1.0000    0.6893    0.1660    0.0516    0.5978    0.4527 
2148.7000 2137.6039 -2071.9339   94.3176    8.6479    8.5000   57.0000    5.3456    0.2196    2.5457    0.0000    1.0000    0.7137    0.1628    0.0466    0.6157    0.4444 
2148.8000 2137.7028 -2072.0328   96.7298    8.6586    8.5000   57.0000    5.9143    0.2204    2.5423    0.0000    1.0000    0.7673    0.1638    0.0381    1.2417    0.5987 
2148.9000 2137.8017 -2072.1317   98.3328    8.6570    8.5000   57.0000    7.0723    0.2277    2.5339    0.0000    1.0000    0.8044    0.1699    0.0332    1.3000    0.5799 
2149.0000 2137.9006 -2072.2306   97.4931    8.6427    8.5000   57.0000    7.5477    0.2313    2.5298    0.0000    1.0000    0.7848    0.1730    0.0372    1.3000    0.5240 
2149.1000 2137.9996 -2072.3296   95.8367    8.6515    8.5000   57.0000    7.9140    0.2331    2.5357    0.0000    1.0000    0.7471    0.1733    0.0438    0.7735    0.4212 
2149.2000 2138.0985 -2072.4285   95.6458    8.6448    8.5000   57.0000    8.4574    0.2258    2.5544    0.0000    1.0000    0.7429    0.1658    0.0426    0.7005    0.3894 
2149.3000 2138.1974 -2072.5274   95.7298    8.6482    8.5000   57.0000    8.6892    0.2156    2.5614    0.0000    1.0000    0.7447    0.1580    0.0403    0.7113    0.3860 
2149.4000 2138.2964 -2072.6264   94.1268    8.6396    8.5000   57.0000    8.8586    0.2103    2.5603    0.0000    1.0000    0.7096    0.1545    0.0449    0.5654    0.3488 
2149.5000 2138.3953 -2072.7253   90.7376    8.6335    8.5000   57.0000    8.8438    0.2081    2.5430    0.0000    1.0000    0.6389    0.1554    0.0561    0.4576    0.3200 
2149.6000 2138.4942 -2072.8242   89.2720    8.6448    8.5000   57.0000    8.6383    0.2094    2.5355    0.0000    1.0000    0.6099    0.1575    0.0614    0.4230    0.3103 
2149.7000 2138.5931 -2072.9232   88.9972    8.6257    8.5000   57.0000    8.2743    0.2141    2.5313    0.0000    1.0000    0.6046    0.1613    0.0638    0.4107    0.3085 
2149.8000 2138.6921 -2073.0221   89.8139    8.6385    8.5000   57.0000    7.0263    0.2167    2.5328    0.0000    1.0000    0.6205    0.1628    0.0618    0.4542    0.3446 
2149.9000 2138.7910 -2073.1210   89.1804    8.6338    8.5000   57.0000    6.3308    0.2143    2.5312    0.0000    1.0000    0.6081    0.1614    0.0633    0.4707    0.3654 
2150.0000 2138.8899 -2073.2199   88.9590    8.6318    8.5000   57.0000    5.7123    0.2065    2.5328    0.0000    1.0000    0.6038    0.1560    0.0618    0.5127    0.4004 
2150.1000 2138.9889 -2073.3189   89.2262    8.6417    8.5000   57.0000    4.8621    0.2109    2.5424    0.0000    1.0000    0.6090    0.1574    0.0615    0.5769    0.4543 
2150.2000 2139.0878 -2073.4178   89.5697    8.6371    8.5000   57.0000    4.6057    0.2139    2.5581    0.0000    1.0000    0.6157    0.1573    0.0604    0.6513    0.5032 
2150.3000 2139.1867 -2073.5167   88.1270    8.6478    8.5000   57.0000    4.4094    0.2027    2.5732    0.0000    1.0000    0.5878    0.1478    0.0609    0.7497    0.5716 
2150.4000 2139.2857 -2073.6157   86.3866    8.6590    8.5000   57.0000    4.2397    0.2040    2.5883    0.0000    1.0000    0.5552    0.1471    0.0654    0.7865    0.6073 
2150.5000 2139.3846 -2073.7146   84.3790    8.6641    8.5000   57.0000    3.9333    0.2072    2.5921    0.0000    1.0000    0.5191    0.1490    0.0717    0.7248    0.5890 
2150.6000 2139.4835 -2073.8135   84.5240    8.6667    8.5000   57.0000    3.8127    0.2070    2.5803    0.0000    1.0000    0.5216    0.1500    0.0717    0.7138    0.5849 
2150.7000 2139.5825 -2073.9125   84.1347    8.6769    8.5000   57.0000    3.7373    0.2092    2.5624    0.0000    1.0000    0.5148    0.1535    0.0745    0.6545    0.5484 
2150.8000 2139.6814 -2074.0114   82.2035    8.6786    8.5000   57.0000    3.7612    0.2088    2.5375    0.0000    1.0000    0.4816    0.1568    0.0813    0.5453    0.4745 
2150.9000 2139.7803 -2074.1103   81.2570    8.6706    8.5000   57.0000    3.8494    0.2011    2.5373    0.0000    1.0000    0.4658    0.1517    0.0810    0.5445    0.4746 
2151.0000 2139.8792 -2074.2092   81.8066    8.6767    8.5000   57.0000    3.9600    0.1904    2.5460    0.0000    1.0000    0.4749    0.1432    0.0752    0.5987    0.5110 
2151.1000 2139.9782 -2074.3082   82.5470    8.6537    8.5000   57.0000    4.1434    0.1755    2.5730    0.0000    1.0000    0.4874    0.1292    0.0662    0.7591    0.6123 
2151.2000 2140.0771 -2074.4071   82.7989    8.6521    8.5000   57.0000    4.2092    0.1636    2.5857    0.0000    1.0000    0.4917    0.1195    0.0608    0.9080    0.6984 
2151.3000 2140.1760 -2074.5060   82.2111    8.6547    8.5000   57.0000    4.2834    0.1590    2.5966    0.0000    1.0000    0.4817    0.1152    0.0597    0.9965    0.7483 
2151.4000 2140.2750 -2074.6050   79.0967    8.6336    8.5000   57.0000    4.4613    0.1530    2.6113    0.0000    1.0000    0.4308    0.1097    0.0624    1.0123    0.7716 
2151.5000 2140.3739 -2074.7039   75.4098    8.6316    8.5000   57.0000    4.5014    0.1460    2.6160    0.0000    1.0000    0.3747    0.1045    0.0653    0.9376    0.7513 
2151.6000 2140.4728 -2074.8028   72.7076    8.6292    8.5000   57.0000    4.4602    0.1414    2.6189    0.0000    1.0000    0.3362    0.1010    0.0671    0.8746    0.7274 
2151.7000 2140.5718 -2074.9018   74.3488    8.6611    8.5000   57.0000    4.1232    0.1410    2.6299    0.0000    1.0000    0.3593    0.1001    0.0642    1.0424    0.8395 
2151.8000 2140.6707 -2075.0007   78.7227    8.6660    8.5000   57.0000    3.8891    0.1413    2.6349    0.0000    1.0000    0.4249    0.1002    0.0576    1.3000    1.0748 
2151.9000 2140.7696 -2075.0996   81.7989    8.6418    8.5000   57.0000    3.6795    0.1450    2.6378    0.0000    1.0000    0.4748    0.1027    0.0539    1.3000    1.2198 
2152.0000 2140.8686 -2075.1986   86.3560    8.6625    8.5000   57.0000    3.5299    0.1566    2.6374    0.0000    1.0000    0.5547    0.1109    0.0494    1.3000    1.3000 
2152.1000 2140.9675 -2075.2975   92.6307    8.6537    8.5000   57.0000    3.4331    0.1671    2.6286    0.0000    1.0000    0.6778    0.1186    0.0382    1.3000    1.3000 
2152.2000 2141.0664 -2075.3964   96.4397    8.6474    8.5000   57.0000    3.4537    0.1865    2.6264    0.0000    1.0000    0.7607    0.1323    0.0317    1.3000    1.1952 
2152.3000 2141.1654 -2075.4954   97.9206    8.6267    8.5000   57.0000    3.4793    0.1872    2.6241    0.0000    1.0000    0.7947    0.1329    0.0273    1.3000    1.1591 
