~VERSION INFORMATION
 VERS.                 2.0:   CWLS LOG ASCII STANDARD - VERSION 2.0
 WRAP.                  NO:   SINGLE LINE PER DEPTH STEP
 CREA.                 30/01/2020 17:28:45
#CREATED USING IP VERSION 4.5.2019.2902 BY RMOTA ON 30/01/2020 17:28:45
~WELL INFORMATION
#MNEM.UNIT       DATA                          DESCRIPTION MNEMONIC
#---------      ---------------------------   --------------------------
 STRT    .M         5.0000                    : START DEPTH
 STOP    .M         2977.0000                 : STOP DEPTH
 STEP    .M         0.1000                    : STEP VALUE
 NULL    .      -999.0000                     : NULL VALUE
 DATE    .      30/01/2020                    : LAS file Creation Date
 WELL   .      7-MP-53D-BA      : Well Name
 COMP   .      PETROBRAS        : Company
 FLD    .      MASSAPE          : Field
 STATE  .      BAHIA            : State
 API    .      20240027945      : API Number
 UWI    .                       : Unique Well Identifier (UWI)
 LOC    .                       : Location
 TOWN   .      -999.25          : Township
 SCT    .      -999.25          : Section
 RANG   .      -999.25          : Range
 PDAT   .      NM               : Permanent Datum
 EPDAT  .      0.00             : Elevation of Permanent Datum
 LGMEA  .      MR               : Log Measured from
 DRMEA  .      MR               : Drill Measured From
 APDAT  .      64.90            : Elevation Above Permanent Datum
 KB     .      -999.25          : KB Elevation
 DF     .      64.90            : DF Elevation
 GL     .      56.80            : GL Elevation
 RWS    .      -999             : Def_Rw
 WST    .      -999             : Def_Rwt
 PROV   .                       : Province
 SRVC   .                       : Contractor
 GDAT   .      WGS 84           : Geodatum
 LONG   .      -38.4325436115265: Longitude
 LATI   .      0                : Latitude
 COORDIN.                       : Grid System
 XCOORD .                       : X or East-West Coordinate
 YCOORD .                       : Y or North-South Coordinate
~CURVE INFORMATION
#MNEM              UNIT       API CODE   Curve Type Comments
#----------  --------------- ----------  ---------- -----------
 DEPTH      .M                         : Depth       
 DEPTH      .M                         : Depth       
 DRDN       .                          :             
 GR         .api                       : GammaRay    
 CAL        .in                        : Caliper     
 Res        .                          :             
 N_Res      .                          :             
 ILD        .ohmm                      : DeepRes     
 RHOB       .g/cc                      : Density     Loaded from DLIS: 7-mp-53d-ba_raw-3.dlis
 NPHI       .dec                       : Neutron     Loaded from DLIS: 7-mp-53d-ba_raw-3.dlis
 Lith_new   .                          :             
~A  DEPTH   DEPTH      DRDN       GR       CAL       Res      N_Res      ILD       RHOB      NPHI    Lith_new 
# ...
2538.1000 2538.1000    3.0939   80.2458    8.8245    0.0000    1.0000    5.2605    2.6404    0.1586   57.0000 
2538.2000 2538.2000    3.0190   82.1218    8.8120    0.0000    1.0000    5.1906    2.6295    0.1629   57.0000 
2538.3000 2538.3000    3.2138   86.3292    8.7713    0.0000    1.0000    5.1256    2.6201    0.1744   57.0000 
2538.4000 2538.4000    3.0936   93.4252    8.7987    0.0000    1.0000    5.0527    2.6151    0.1737   57.0000 
2538.5000 2538.5000    2.9136   93.0091    8.7901    0.0000    1.0000    5.0496    2.6139    0.1691   57.0000 
2538.6000 2538.6000    3.1093   91.5727    8.7932    0.0000    1.0000    5.0628    2.6174    0.1728   57.0000 
2538.7000 2538.7000    3.2133   87.1691    8.8384    0.0000    1.0000    5.1015    2.6243    0.1718   57.0000 
2538.8000 2538.8000    3.3697   86.3684    8.7744    0.0000    1.0000    5.1106    2.6242    0.1766   57.0000 
2538.9000 2538.9000    3.4858   86.0701    8.7456    0.0000    1.0000    5.1050    2.6174    0.1841   57.0000 
2539.0000 2539.0000    3.2777   88.0090    8.6883    0.0000    1.0000    5.0428    2.6064    0.1845   57.0000 
2539.1000 2539.1000    3.0400   88.6997    8.6891    0.0000    1.0000    4.9880    2.6072    0.1769   57.0000 
2539.2000 2539.2000    3.2656   90.0263    8.6889    0.0000    1.0000    4.9185    2.6150    0.1790   57.0000 
2539.3000 2539.3000    3.4314   92.3341    8.6697    0.0000    1.0000    4.7629    2.6280    0.1761   57.0000 
2539.4000 2539.4000    3.6162   94.0060    8.6779    0.0000    1.0000    4.6961    2.6378    0.1758   57.0000 
2539.5000 2539.5000    3.8321   93.1190    8.7097    0.0000    1.0000    4.6393    2.6464    0.1771   57.0000 
2539.6000 2539.6000    4.1477   91.4549    8.7223    0.0000    1.0000    4.5835    2.6615    0.1775   57.0000 
2539.7000 2539.7000    4.8856   84.3589    8.7347    0.0000    1.0000    4.4361    2.6802    0.1884   57.0000 
2539.8000 2539.8000    4.8529   83.2208    8.7467    0.0000    1.0000    4.3501    2.6786    0.1884   57.0000 
2539.9000 2539.9000    4.5085   84.1784    8.7547    0.0000    1.0000    4.2742    2.6611    0.1886   57.0000 
2540.0000 2540.0000    4.0194   90.6700    8.7767    0.0000    1.0000    4.1792    2.6300    0.1926   57.0000 
2540.1000 2540.1000    3.9811   93.9589    8.7477    0.0000    1.0000    4.1380    2.6137    0.2012   57.0000 
2540.2000 2540.2000    3.7042   96.8946    8.7396    0.0000    1.0000    4.0813    2.6050    0.1981   57.0000 
2540.3000 2540.3000    3.6593   99.8147    8.6690    0.0000    1.0000    3.9229    2.5901    0.2057   57.0000 
2540.4000 2540.4000    4.3313   99.9089    8.6879    0.0000    1.0000    3.8391    2.5920    0.2247   57.0000 
2540.5000 2540.5000    4.8061   99.0690    8.6965    0.0000    1.0000    3.7663    2.5951    0.2371   57.0000 
2540.6000 2540.6000    5.0602  103.5746    8.6851    0.0000    1.0000    3.6886    2.5972    0.2435   57.0000 
2540.7000 2540.7000    4.9511  107.1383    8.6977    0.0000    1.0000    3.7040    2.5949    0.2416   57.0000 
2540.8000 2540.8000    5.0585  108.5277    8.6966    0.0000    1.0000    3.7630    2.5927    0.2461   57.0000 
2540.9000 2540.9000    5.0820  103.1900    8.6884    0.0000    1.0000    3.9826    2.5915    0.2476   57.0000 
2541.0000 2541.0000    4.6820   99.2809    8.6889    0.0000    1.0000    4.1249    2.5893    0.2369   57.0000 
2541.1000 2541.1000    4.4283   98.1506    8.6780    0.0000    1.0000    4.2989    2.5864    0.2310   57.0000 
2541.2000 2541.2000    4.7019   98.6372    8.6621    0.0000    1.0000    4.5262    2.5853    0.2399   57.0000 
2541.3000 2541.3000    5.0172   98.4018    8.6498    0.0000    1.0000    5.1320    2.5926    0.2450   57.0000 
2541.4000 2541.4000    4.5556   96.9339    8.6509    0.0000    1.0000    5.4411    2.6006    0.2263   57.0000 
2541.5000 2541.5000    4.3949   95.3954    8.6510    0.0000    1.0000    5.6962    2.6068    0.2178   57.0000 
2541.6000 2541.6000    3.4941   96.3059    8.6495    0.0000    1.0000    5.9643    2.6071    0.1906   57.0000 
2541.7000 2541.7000    3.0781   96.6278    8.6520    0.0000    1.0000    5.9895    2.6048    0.1795   57.0000 
2541.8000 2541.8000    3.0763   96.5022    8.6472    0.0000    1.0000    5.9618    2.6043    0.1797   57.0000 
2541.9000 2541.9000    3.5875   92.2556    8.6659    0.0000    1.0000    5.7985    2.6114    0.1908   57.0000 
2542.0000 2542.0000    3.5699   90.1676    8.6684    0.0000    1.0000    5.7051    2.6165    0.1872   57.0000 
2542.1000 2542.1000    3.4676   89.9164    8.6662    0.0000    1.0000    5.6364    2.6162    0.1843   57.0000 
2542.2000 2542.2000    3.2026   90.6307    8.6647    0.0000    1.0000    5.6179    2.6154    0.1768   57.0000 
2542.3000 2542.3000    3.2760   92.9856    8.6465    0.0000    1.0000    5.6648    2.6135    0.1802   57.0000 
2542.4000 2542.4000    3.5001   93.5821    8.6371    0.0000    1.0000    5.7357    2.6156    0.1856   57.0000 
2542.5000 2542.5000    3.2790   94.3592    8.6214    0.0000    1.0000    5.8993    2.6152    0.1792   57.0000 
2542.6000 2542.6000    3.0350   92.3890    8.6313    0.0000    1.0000    5.9621    2.6161    0.1714   57.0000 
2542.7000 2542.7000    3.0676   88.9980    8.6273    0.0000    1.0000    5.9933    2.6198    0.1701   57.0000 
2542.8000 2542.8000    3.1247   84.1078    8.6254    0.0000    1.0000    5.9838    2.6252    0.1686   57.0000 
2542.9000 2542.9000    3.1555   81.7137    8.6235    0.0000    1.0000    5.8329    2.6387    0.1614   57.0000 
2543.0000 2543.0000    3.2906   84.2726    8.6278    0.0000    1.0000    5.6875    2.6401    0.1647   57.0000 
2543.1000 2543.1000    3.3904   86.9885    8.6307    0.0000    1.0000    5.4852    2.6410    0.1671   57.0000 
2543.2000 2543.2000    3.2383   86.7060    8.6295    0.0000    1.0000    4.9021    2.6408    0.1627   57.0000 
2543.3000 2543.3000    3.3305   87.6322    8.6399    0.0000    1.0000    4.5639    2.6413    0.1651   57.0000 
2543.4000 2543.4000    3.6017   90.3874    8.6326    0.0000    1.0000    4.2473    2.6397    0.1742   57.0000 
2543.5000 2543.5000    3.8422  100.1208    8.6374    0.0000    1.0000    3.7729    2.6323    0.1859   57.0000 
2543.6000 2543.6000    4.2439  103.8022    8.6451    0.0000    1.0000    3.6147    2.6270    0.2011   57.0000 
2543.7000 2543.7000    4.3539  108.0488    8.6412    0.0000    1.0000    3.4954    2.6237    0.2064   57.0000 
2543.8000 2543.8000    4.6612  111.0238    8.6440    0.0000    1.0000    3.3697    2.6220    0.2166   57.0000 
2543.9000 2543.9000    4.7907  110.3331    8.6482    0.0000    1.0000    3.3896    2.6261    0.2181   57.0000 
2544.0000 2544.0000    4.9958  108.5512    8.6494    0.0000    1.0000    3.4851    2.6301    0.2218   57.0000 
2544.1000 2544.1000    4.6254  106.3769    8.6410    0.0000    1.0000    3.8734    2.6325    0.2093   57.0000 
2544.2000 2544.2000    4.2441  105.2152    8.6497    0.0000    1.0000    4.0940    2.6282    0.2004   57.0000 
2544.3000 2544.3000    4.0358  103.8022    8.6433    0.0000    1.0000    4.2662    2.6256    0.1957   57.0000 
2544.4000 2544.4000    3.9986  101.8948    8.6433    0.0000    1.0000    4.3631    2.6244    0.1953   57.0000 
2544.5000 2544.5000    3.9545   97.0752    8.6507    0.0000    1.0000    4.3600    2.6401    0.1846   57.0000 
2544.6000 2544.6000    4.1477   95.8664    8.6524    0.0000    1.0000    4.3164    2.6532    0.1825   57.0000 
2544.7000 2544.7000    4.2290   95.8978    8.6575    0.0000    1.0000    4.2914    2.6656    0.1775   57.0000 
2544.8000 2544.8000    4.9892   97.2950    8.6533    0.0000    1.0000    4.3761    2.6834    0.1896   57.0000 
2544.9000 2544.9000    5.1683   96.9103    8.6536    0.0000    1.0000    4.4877    2.6794    0.1974   57.0000 
2545.0000 2545.0000    5.2285   95.5053    8.6589    0.0000    1.0000    4.6314    2.6740    0.2025   57.0000 
2545.1000 2545.1000    4.7783   94.7203    8.6783    0.0000    1.0000    4.9911    2.6564    0.1995   57.0000 
2545.2000 2545.2000    4.5454   95.0657    8.6805    0.0000    1.0000    5.2120    2.6541    0.1939   57.0000 
2545.3000 2545.3000    4.4741   95.4503    8.6895    0.0000    1.0000    5.4678    2.6476    0.1957   57.0000 
