~VERSION INFORMATION
 VERS.                 2.0:   CWLS LOG ASCII STANDARD - VERSION 2.0
 WRAP.                  NO:   SINGLE LINE PER DEPTH STEP
 CREA.                 06/02/2020 16:07:36
#CREATED USING IP VERSION 4.5.2019.2902 BY RMOTA ON 06/02/2020 16:07:36
~WELL INFORMATION
#MNEM.UNIT       DATA                          DESCRIPTION MNEMONIC
#---------      ---------------------------   --------------------------
 STRT    .M         18.4404                   : START DEPTH
 STOP    .M         3544.2144                 : STOP DEPTH
 STEP    .M         0.1524                    : STEP VALUE
 NULL    .      -999.0000                     : NULL VALUE
 DATE    .      06/02/2020                    : LAS file Creation Date
 WELL   .      7-MP-25-BA         : Well Name
 COMP   .      PETROBRAS          : Company
 FLD    .      MASSAPE            : Field
 STATE  .      20240021268        : State
 COUNT  .      BRASIL             : Country
 API    .      20240021268        : API Number
 UWI    .                         : Unique Well Identifier (UWI)
 LOC    .      N= 8.607.478,570 m : Location
 TOWN   .      CTU                : Township
 SCT    .      OH WIRELINE        : Section
 RANG   .      SCHLUMBERGER       : Range
 PDAT   .      NM                 : Permanent Datum
 EPDAT  .      0                  : Elevation of Permanent Datum
 LGMEA  .      MR                 : Log Measured from
 DRMEA  .      MR                 : Drill Measured From
 APDAT  .      65.76              : Elevation Above Permanent Datum
 KB     .      66.06              : KB Elevation
 DF     .      65.76              : DF Elevation
 GL     .      56.36              : GL Elevation
 RWS    .      -999               : Def_Rw
 WST    .      -999               : Def_Rwt
 BHS    .      OPEN               : Completion Status
 PROV   .                         : Province
 MDEC   .      -23.10323          : Magnetic Declination
 SRVC   .                         : Contractor
 GDAT   .      WGS 84             : Geodatum
 LONG   .      -38.4344958333174  : Longitude
 LATI   .      -12.5959183332655  : Latitude
 COORDIN.                         : Grid System
 XCOORD .                         : X or East-West Coordinate
 YCOORD .                         : Y or North-South Coordinate
~CURVE INFORMATION
#MNEM              UNIT       API CODE   Curve Type Comments
#----------  --------------- ----------  ---------- -----------
 DEPTH      .M                         : Depth       
 BS         .in                        : BitSize     
 GR         .gAPI                      : GammaRay    
 CAL        .inch                      : Caliper     
 RT         .ohm.m                     : DeepRes     
 NPHI       .m3/m3                     : Neutron     
 RHOB       .g/cm3                     : Density     
 DT         .us/ft                     : Sonic       
 SP         .mV                        : SP          
 DRDN       .                          :             
 Lith_new   .                          :             
~A  DEPTH     BS        GR       CAL        RT       NPHI      RHOB       DT        SP       DRDN    Lith_new 
# ...
2799.7404    8.5000   88.8351 -999.0000    9.7398    0.1847    2.5772  128.6209  977.8125    2.6999   57.0000 
2799.8928    8.5000   76.2392 -999.0000   11.0276    0.1511    2.5401  126.4084  977.6875    0.8406   57.0000 
2800.0452    8.5000   67.5575 -999.0000   12.9222    0.1275    2.5043  125.2298  977.6250   -0.6659   25.0000 
2800.1976    8.5000   55.6435 -999.0000   15.9007    0.1190    2.4776  124.8878  977.6250   -1.4819   49.0000 
2800.3500    8.5000   52.4439 -999.0000   18.4299    0.1140    2.4723  121.1107  977.5000   -1.7539   49.0000 
2800.5024    8.5000   50.9340 -999.0000   18.2805    0.1034    2.4718  120.4831  977.4375   -2.1166   49.0000 
2800.6548    8.5000   53.3834 -999.0000   18.0959    0.0955    2.4830  120.3969  977.1875   -2.1562   49.0000 
2800.8072    8.5000   54.5158 -999.0000   18.4993    0.0919    2.4851  120.9761  977.0625   -2.2343   49.0000 
2800.9596    8.5000   59.9891 -999.0000   17.7586    0.0972    2.4888  121.9949  977.0625   -1.9820   49.0000 
2801.1120    8.5000   60.9312 -999.0000   15.1454    0.1071    2.4826  123.0913  976.9375   -1.7776   49.0000 
2801.2644    8.5000   61.9101 -999.0000   13.5678    0.1146    2.4819  124.9480  976.7500   -1.5419   49.0000 
2801.4168    8.5000   56.2193 -999.0000   12.5361    0.1224    2.4708  125.2001  976.7500   -1.5031   49.0000 
2801.5692    8.5000   53.3930 -999.0000   14.3170    0.1147    2.4654  125.3920  976.6875   -1.8673   49.0000 
2801.7216    8.5000   50.3682 -999.0000   14.9820    0.1082    2.4705  125.9116  976.4375   -1.9846   49.0000 
2801.8740    8.5000   52.2524 -999.0000   16.2756    0.1005    2.4905  125.8492  976.6875   -1.8395   49.0000 
2802.0264    8.5000   61.1081 -999.0000   17.8832    0.1008    2.5268  125.3772  976.3750   -1.1064   49.0000 
2802.1788    8.5000   70.9385 -999.0000   17.6503    0.1275    2.5601  124.5385  976.6250    0.4521   57.0000 
2802.3312    8.5000   83.1858 -999.0000   15.2930    0.1388    2.5771  122.4571  976.3750    1.1697   57.0000 
2802.4836    8.5000   87.6958 -999.0000   12.4837    0.1506    2.5662  121.6199  976.0625    1.3430   57.0000 
2802.6360    8.5000   83.8345 -999.0000   12.5331    0.1266    2.5427  121.0313  976.5625    0.0748   54.0000 
2802.7884    8.5000   74.2615 -999.0000   13.1915    0.1198    2.5289  121.2518  976.1250   -0.4283   25.0000 
2802.9408    8.5000   71.3008 -999.0000   14.1337    0.1211    2.5236  121.9106  976.3125   -0.4914   25.0000 
2803.0932    8.5000   66.9672 -999.0000   14.0838    0.1220    2.5097  122.1976  976.1250   -0.7401   25.0000 
2803.2456    8.5000   63.3813 -999.0000   14.4312    0.1267    2.4845  123.5621  976.3125   -1.0869   49.0000 
2803.3980    8.5000   56.2094 -999.0000   15.9611    0.1194    2.4713  124.3984  976.2500   -1.5917   49.0000 
2803.5504    8.5000   56.9631 -999.0000   15.6801    0.1242    2.4762  124.0658  976.0000   -1.3352   49.0000 
2803.7028    8.5000   55.8307 -999.0000   15.0840    0.1112    2.4801  124.3013  976.0625   -1.6908   49.0000 
2803.8552    8.5000   55.0758 -999.0000   14.2654    0.1010    2.4809  124.1351  976.0625   -2.0145   49.0000 
2804.0076    8.5000   54.3221 -999.0000   13.9691    0.0959    2.4802  123.9574  975.7500   -2.1976   49.0000 
2804.1600    8.5000   57.3418 -999.0000   13.9932    0.1032    2.4961  123.6886  975.6875   -1.6396   49.0000 
2804.3124    8.5000   62.8151 -999.0000   13.8518    0.1139    2.5005  124.3327  975.8750   -1.1916   49.0000 
2804.4648    8.5000   62.8151 -999.0000   13.2695    0.1180    2.4970  124.5307  975.3750   -1.1277   49.0000 
2804.6172    8.5000   66.7784 -999.0000   12.5438    0.1123    2.4893  124.2654  975.3750   -1.4687   49.0000 
2804.7696    8.5000   61.9631 -999.0000   12.6080    0.1161    2.4828  123.2638  975.3750   -1.4754   49.0000 
2804.9220    8.5000   64.1086 -999.0000   13.6641    0.1154    2.4827  122.4893  975.6875   -1.4980   49.0000 
2805.0744    8.5000   58.2275 -999.0000   14.4640    0.1224    2.4851  121.9449  975.6250   -1.2167   49.0000 
2805.2268    8.5000   59.0794 -999.0000   14.8557    0.1220    2.4902  122.3855  975.6875   -1.1291   49.0000 
2805.3792    8.5000   55.2683 -999.0000   15.4403    0.1224    2.4950  123.1857  975.7500   -1.0200   49.0000 
2805.5316    8.5000   54.5146 -999.0000   15.7593    0.1194    2.4884  123.9796  975.6875   -1.2529   49.0000 
2805.6840    8.5000   53.1935 -999.0000   15.9041    0.1234    2.4768  123.6011  975.6250   -1.3504   49.0000 
2805.8364    8.5000   58.6667 -999.0000   15.7855    0.1250    2.4664  123.9902  975.6250   -1.5060   49.0000 
2805.9888    8.5000   63.7540 -999.0000   15.4595    0.1221    2.4652  125.0086  975.5625   -1.6258   49.0000 
2806.1412    8.5000   68.8498 -999.0000   14.8398    0.1162    2.4849  121.8835  975.4375   -1.4291   49.0000 
2806.2936    8.5000   67.9061 -999.0000   14.8200    0.1241    2.4973  118.6066  975.4375   -0.9186   25.0000 
2806.4460    8.5000   62.6304 -999.0000   14.3443    0.1234    2.4914  117.6364  975.3125   -1.0596   49.0000 
2806.5984    8.5000   53.3825 -999.0000   17.1509    0.1122    2.4738  115.4728  975.3125   -1.7818   49.0000 
2806.7508    8.5000   45.8332 -999.0000   19.0355    0.0895    2.4634  114.0762  975.0000   -2.7502   49.0000 
2806.9032    8.5000   43.5722 -999.0000   23.8775    0.0844    2.4681  115.1182  975.3125   -2.8238   49.0000 
2807.0556    8.5000   46.7404 -999.0000   24.7152    0.0818    2.4659  114.3390  975.1875   -2.9562   49.0000 
2807.2080    8.5000   50.1068 -999.0000   24.2510    0.0901    2.4604  114.9567  975.0000   -2.7874   49.0000 
2807.3604    8.5000   59.6094 -999.0000   23.8977    0.0873    2.4718  115.4445  975.2500   -2.6522   49.0000 
2807.5128    8.5000   66.7820 -999.0000   21.3247    0.0981    2.5034  117.5939  975.1875   -1.6630   49.0000 
2807.6652    8.5000   69.7967 -999.0000   18.9464    0.1046    2.5288  118.2927  975.0000   -0.9365   25.0000 
2807.8176    8.5000   61.2896 -999.0000   18.6248    0.1148    2.5319  116.8971  975.0000   -0.5359   25.0000 
2807.9700    8.5000   51.8687 -999.0000   19.8788    0.1123    2.5101  114.8133  974.9375   -1.0545   49.0000 
2808.1224    8.5000   47.9119 -999.0000   22.8397    0.1035    2.4891  113.8280  975.0625   -1.7682   49.0000 
2808.2748    8.5000   47.9119 -999.0000   27.9895    0.0902    2.4800  113.4700  975.3125   -2.3928   49.0000 
2808.4272    8.5000   48.6656 -999.0000   32.5940    0.0795    2.4861  113.8517  975.0000   -2.6284   49.0000 
2808.5796    8.5000   46.4299 -999.0000   48.2943    0.0674    2.4981  117.0485  974.7500   -2.7907   49.0000 
2808.7320    8.5000   47.5356 -999.0000   51.3458    0.0739    2.5089  120.6078  974.6250   -2.3569   49.0000 
2808.8844    8.5000   65.0585 -999.0000   46.2495    0.0985    2.5180  124.3483  974.5625   -1.3555   49.0000 
2809.0368    8.5000   81.8557 -999.0000   30.9711    0.1357    2.5443  132.1961  974.1875    0.4104   57.0000 
2809.1892    8.5000  100.2997 -999.0000   17.6815    0.1707    2.5740  137.5704  974.2500    2.1708   57.0000 
2809.3416    8.5000  106.9276 -999.0000   11.6858    0.1947    2.5968  140.5260  974.5000    3.4254   57.0000 
2809.4940    8.5000  109.2539 -999.0000    9.3705    0.1980    2.6114  142.4683  974.3125    3.8302   57.0000 
2809.6464    8.5000  100.7676 -999.0000    8.0883    0.1801    2.6249  143.4374  974.3125    3.5019   57.0000 
2809.7988    8.5000   94.9489 -999.0000    8.1345    0.1697    2.6332  142.7617  974.3125    3.3209   57.0000 
2809.9512    8.5000   89.6029 -999.0000    8.5013    0.1769    2.6265  139.2430  974.3750    3.4255   57.0000 
2810.1036    8.5000   87.5303 -999.0000    9.1025    0.1874    2.6055  131.3926  974.2500    3.3578   57.0000 
2810.2560    8.5000   74.8852 -999.0000    8.5420    0.1713    2.5873  127.2123  974.3125    2.4565   57.0000 
2810.4084    8.5000   71.8655 -999.0000    8.2960    0.1410    2.5793  125.2013  974.5625    1.2860   57.0000 
2810.5608    8.5000   74.5033 -999.0000    8.9697    0.1270    2.5797  125.7893  974.2500    0.8293   57.0000 
2810.7132    8.5000   79.5991 -999.0000    9.4288    0.1368    2.5898  128.2509  974.3750    1.3569   57.0000 
