~VERSION INFORMATION
 VERS.                 2.0:   CWLS LOG ASCII STANDARD - VERSION 2.0
 WRAP.                  NO:   SINGLE LINE PER DEPTH STEP
 CREA.                 06/02/2020 16:08:49
#CREATED USING IP VERSION 4.5.2019.2902 BY RMOTA ON 06/02/2020 16:08:49
~WELL INFORMATION
#MNEM.UNIT       DATA                          DESCRIPTION MNEMONIC
#---------      ---------------------------   --------------------------
 STRT    .M         -0.4572                   : START DEPTH
 STOP    .M         3564.6360                 : STOP DEPTH
 STEP    .M         0.1524                    : STEP VALUE
 NULL    .      -999.0000                     : NULL VALUE
 DATE    .      06/02/2020                    : LAS file Creation Date
 WELL   .      7-MP-28D-BA        : Well Name
 COMP   .      PETROBRAS          : Company
 FLD    .      MASSAPE            : Field
 STATE  .      BAHIA              : State
 COUNT  .      BRASIL             : Country
 API    .      20240021354        : API Number
 UWI    .                         : Unique Well Identifier (UWI)
 LOC    .      N= 8.609.866,070 m : Location
 TOWN   .      CATU               : Township
 SCT    .      OH WIRELINE        : Section
 RANG   .      SCHLUMBERGER       : Range
 PDAT   .      NM                 : Permanent Datum
 EPDAT  .      0                  : Elevation of Permanent Datum
 LGMEA  .      MR                 : Log Measured from
 DRMEA  .      MR                 : Drill Measured From
 APDAT  .      105.72             : Elevation Above Permanent Datum
 KB     .      106.02             : KB Elevation
 DF     .      105.72             : DF Elevation
 GL     .      96.31999           : GL Elevation
 RWS    .      -999               : Def_Rw
 WST    .      -999               : Def_Rwt
 BHS    .      OPEN               : Completion Status
 PROV   .                         : Province
 SRVC   .                         : Contractor
 GDAT   .      WGS 84             : Geodatum
 LONG   .      -38.4270011107127  : Longitude
 LATI   .      -12.5743130556742  : Latitude
 COORDIN.                         : Grid System
 XCOORD .                         : X or East-West Coordinate
 YCOORD .                         : Y or North-South Coordinate
~CURVE INFORMATION
#MNEM              UNIT       API CODE   Curve Type Comments
#----------  --------------- ----------  ---------- -----------
 DEPTH      .M                         : Depth       
 BS         .in                        : BitSize     
 GR         .gAPI                      : GammaRay    
 CAL        .in                        : Caliper     
 RT         .ohm.m                     : DeepRes     
 NPHI       .m3/m3                     : Neutron     
 RHOB       .g/cm3                     :             
 DT         .us/ft                     : Sonic       
 SP         .mV                        : SP          Loaded from DLIS: 7-mp-28d-ba_raw-2p.dlis
 DRDN       .                          :             
 Lith_new   .                          :             
~A  DEPTH     BS        GR       CAL        RT       NPHI      RHOB       DT        SP       DRDN    Lith_new 
# ...
1390.1928   12.2500   89.3692   12.6116    3.9839    0.2457    2.4665   84.7703  132.1875    2.5605   57.0000 
1390.3452   12.2500   89.3692   12.5875    3.9064    0.2738    2.4764   84.4248  130.0625    3.7378   57.0000 
1390.4976   12.2500   92.1944   12.4427    3.8044    0.2627    2.4890   85.0893  132.8125    3.6120   57.0000 
1390.6500   12.2500   96.3546   12.4186    3.5798    0.2642    2.4993   89.7686  132.5625    3.8516   57.0000 
1390.8024   12.2500   96.8172   12.4910    3.3789    0.2722    2.5036   90.9977  132.3125    4.1199   57.0000 
1390.9548   12.2500   93.9843   12.5151    3.1915    0.2966    2.4927   86.9795  132.6250    4.6461   57.0000 
1391.1072   12.2500   91.4343   12.6478    3.0994    0.3089    2.4849   90.5758  132.7500    4.9948   57.0000 
1391.2596   12.2500   89.3523   13.3115    3.0213    0.3063    2.4907   90.1634  132.4375    5.1177   57.0000 
1391.4120   12.2500   90.6233   12.7082    3.0208    0.3025    2.5101   88.9183  130.7500    5.4477   57.0000 
1391.5644   12.2500   93.5617   12.6358    3.0446    0.2982    2.5311   97.7567  131.1250    5.6722   57.0000 
1391.7168   12.2500   98.4195   12.5393    3.0346    0.2661    2.5439   94.9979  130.8750    4.8032   57.0000 
1391.8692   12.2500  103.0824   12.5634    2.9833    0.2743    2.5482   95.8303  130.0000    5.1228   57.0000 
1392.0216   12.2500   97.7619   12.6116    3.0190    0.2851    2.5494   95.3850  128.2500    5.4595   57.0000 
1392.1740   12.2500   99.1499   12.5875    3.0869    0.3099    2.5404   94.4400  127.0625    6.0708   57.0000 
1392.3264   12.2500   92.6624   12.6599    3.1947    0.3256    2.5375   94.9756  128.6875    6.6072   57.0000 
1392.4788   12.2500   94.2816   12.7806    3.1510    0.3210    2.5315   93.1302  129.3125    6.2379   57.0000 
1392.6312   12.2500   90.5804   12.8047    3.1974    0.3434    2.5142   92.5359  128.2500    6.5741   57.0000 
1392.7836   12.2500   94.3804   12.7082    3.1430    0.3128    2.4863   92.6335  127.6875    4.9579   57.0000 
1392.9360   12.2500   94.9522   12.5151    3.1476    0.3028    2.4656   92.8847  127.1250    4.3524   57.0000 
1393.0884   12.2500   91.9450   12.4065    3.2986    0.2797    2.4633   93.6973  126.7500    3.6121   57.0000 
1393.2408   12.2500   93.3330   12.4669    3.3834    0.2839    2.4730   90.7282  127.0625    4.0498   57.0000 
1393.3932   12.2500   94.1439   12.5151    3.7230    0.2685    2.4931   87.7587  126.6250    3.9479   57.0000 
1393.5456   12.2500   93.9126   12.6599    4.0541    0.2575    2.5146   86.9642  127.3750    4.0112   57.0000 
1393.6980   12.2500   88.7246   12.6358    4.6487    0.2619    2.5284   85.4311  127.3750    4.3279   57.0000 
1393.8504   12.2500   81.3275   12.5151    4.2600    0.2690    2.5304   87.9728  127.2500    4.5519   57.0000 
1394.0028   12.2500   87.5732   12.4669    4.0889    0.2865    2.5278   89.2378  127.1250    5.1357   57.0000 
1394.1552   12.2500   86.3568   12.5393    3.9866    0.2528    2.5409   86.6060  126.6875    4.3601   57.0000 
1394.3076   12.2500   86.8195   12.6116    3.9609    0.2362    2.5574   82.5697  126.3750    4.1419   57.0000 
1394.4600   12.2500   81.4990   12.6840    3.8354    0.2100    2.5724   82.6235  126.3125    3.4896   57.0000 
1394.6124   12.2500   85.9591   12.6116    3.5733    0.2268    2.5686   84.9700  125.5000    3.8390   57.0000 
1394.7648   12.2500   88.2724   12.5393    3.3545    0.2487    2.5512   88.2053  125.3125    4.1703   57.0000 
1394.9172   12.2500   96.8314   12.4910    3.4344    0.2627    2.5307   89.2246  125.6875    4.2532   57.0000 
1395.0696   12.2500   91.1549   12.5393    3.7425    0.2728    2.5180   87.7760  124.8125    4.4172   57.0000 
1395.2220   12.2500   93.9308   12.6358    4.0794    0.2619    2.5186   86.2241  124.3125    4.1574   57.0000 
1395.3744   12.2500   85.1404   12.6116    4.5057    0.2546    2.5294   85.0079  122.8750    4.1637   57.0000 
1395.5268   12.2500   89.8198   12.5151    4.3570    0.2415    2.5409   84.1374  123.4375    3.9048   57.0000 
1395.6792   12.2500   89.7826   12.5151    3.9784    0.2430    2.5419   86.2758  124.1875    3.9160   57.0000 
1395.8316   12.2500   91.8645   12.4669    3.5938    0.2406    2.5378   87.8439  124.6250    3.7342   57.0000 
1395.9840   12.2500   91.4009   12.4910    3.5890    0.2547    2.5310   89.3128  125.6875    4.0777   57.0000 
1396.1364   12.2500   89.7821   12.5151    3.8078    0.2718    2.5291   88.4384  125.3125    4.6547   57.0000 
1396.2888   12.2500   91.8640   12.4910    4.0500    0.2903    2.5305   86.7870  127.0625    5.2840   57.0000 
1396.4412   12.2500   89.2701   12.4910    4.0893    0.3012    2.5317   86.3773  127.6875    5.7032   57.0000 
1396.5936   12.2500   87.4563   12.4669    4.2027    0.2883    2.5333   84.8796  128.3750    5.2516   57.0000 
1396.7460   12.2500   83.9864   12.4910    4.3610    0.2777    2.5335   83.3263  128.6875    4.9670   57.0000 
1396.8984   12.2500   89.6630   12.5393    4.1757    0.2985    2.5401   85.3238  128.7500    5.7936   57.0000 
1397.0508   12.2500   91.5136   12.5151    4.1606    0.2962    2.5489   87.7258  129.1875    5.9250   57.0000 
1397.2032   12.2500   97.8341   12.5151    3.9816    0.2848    2.5550   87.4215  129.3750    5.6021   57.0000 
1397.3556   12.2500   90.9854   12.4669    4.1505    0.2663    2.5574   87.7049  129.3750    5.0285   57.0000 
1397.5080   12.2500   95.6028   12.4427    4.2640    0.2525    2.5559   86.3218  128.2500    4.5214   57.0000 
1397.6604   12.2500   89.3436   12.4910    4.2616    0.2613    2.5565   84.5242  128.6250    4.8666   57.0000 
1397.8128   12.2500   92.5822   12.4427    4.2880    0.2485    2.5568   84.2381  127.6875    4.3963   57.0000 
1397.9652   12.2500   88.1304   12.4186    4.2775    0.2540    2.5540   83.9445  128.4375    4.5424   57.0000 
1398.1176   12.2500   86.7394   12.4427    4.3463    0.2373    2.5546   83.8533  128.8750    4.0112   57.0000 
1398.2700   12.2500   87.4334   12.4427    4.4386    0.2350    2.5538   83.4598  128.1250    3.8993   57.0000 
1398.4224   12.2500   87.0287   12.4427    4.1744    0.2540    2.5529   85.6125  128.4375    4.5155   57.0000 
1398.5748   12.2500   88.4196   12.4789    3.7433    0.2721    2.5496   86.7370  127.7500    5.0112   57.0000 
1398.7272   12.2500   87.0941   12.4427    3.5389    0.2681    2.5446   88.9303  128.6875    4.8143   57.0000 
1398.8796   12.2500   88.7129   12.4186    3.5889    0.2729    2.5417   88.6579  128.3125    4.8996   57.0000 
1399.0320   12.2500   89.1142   12.4186    3.6433    0.2852    2.5358   86.6060  127.2500    5.1969   57.0000 
1399.1844   12.2500   92.3596   12.4427    3.6766    0.3060    2.5389   85.7338  127.9375    6.0414   57.0000 
1399.3368   12.2500   93.5738   12.4669    3.6091    0.3007    2.5413   86.3061  127.6250    5.8098   57.0000 
1399.4892   12.2500   93.8051   12.4548    3.7353    0.2882    2.5344   86.9509  128.0000    5.2420   57.0000 
1399.6416   12.2500   94.7389   12.4186    3.6461    0.2653    2.5214   87.8726  127.5625    4.1557   57.0000 
1399.7940   12.2500   90.5852   12.3945    3.5381    0.2548    2.5097   88.8291  126.8750    3.6753   57.0000 
1399.9464   12.2500   94.1254   12.3945    3.5450    0.2631    2.5108   89.8486  125.8750    3.9814   57.0000 
1400.0988   12.2500   97.5174   12.4186    3.5258    0.2996    2.5055   89.2436  127.0625    5.0532   57.0000 
1400.2512   12.2500   99.0405   12.4186    3.4616    0.3326    2.5043   90.4666  126.8750    6.1710   57.0000 
1400.4036   12.2500   97.6496   12.3703    3.3794    0.3266    2.5016   92.1241  127.5625    5.9183   57.0000 
1400.5560   12.2500   90.9412   12.3945    3.3872    0.2934    2.5067   91.5653  127.3125    4.9576   57.0000 
1400.7084   12.2500   95.7977   12.3703    3.4217    0.2560    2.5076   89.7495  126.7500    3.6718   57.0000 
1400.8608   12.2500   96.0295   12.3824    3.8474    0.2243    2.5078   87.7774  126.5625    2.6455   57.0000 
1401.0132   12.2500   92.3283   12.4186    4.5143    0.2145    2.5129   82.6007  126.2500    2.4831   57.0000 
1401.1656   12.2500   85.1953   12.4186    4.9325    0.1929    2.5287   78.5082  126.0000    2.1373   57.0000 
