~VERSION INFORMATION
 VERS.                 2.0:   CWLS LOG ASCII STANDARD - VERSION 2.0
 WRAP.                  NO:   SINGLE LINE PER DEPTH STEP
 CREA.                 06/02/2020 16:33:07
#CREATED USING IP VERSION 4.5.2019.2902 BY RMOTA ON 06/02/2020 16:33:07
~WELL INFORMATION
#MNEM.UNIT       DATA                          DESCRIPTION MNEMONIC
#---------      ---------------------------   --------------------------
 STRT    .M         500.8250                  : START DEPTH
 STOP    .M         3050.8250                 : STOP DEPTH
 STEP    .M         0.1000                    : STEP VALUE
 NULL    .      -999.0000                     : NULL VALUE
 DATE    .      06/02/2020                    : LAS file Creation Date
 WELL   .      7-MP-34D-BA     : Well Name
 COMP   .      PETROBRAS       : Company
 FLD    .      MASSAPE         : Field
 STATE  .      BAHIA           : State
 API    .      20240022160     : API Number
 UWI    .                      : Unique Well Identifier (UWI)
 LOC    .                      : Location
 PDAT   .      NM              : Permanent Datum
 EPDAT  .      0.0             : Elevation of Permanent Datum
 LGMEA  .      MR              : Log Measured from
 DRMEA  .      MR              : Drill Measured From
 APDAT  .      65.65           : Elevation Above Permanent Datum
 KB     .      65.95           : KB Elevation
 DF     .      65.65           : DF Elevation
 RWS    .      -999            : Def_Rw
 WST    .      -999            : Def_Rwt
 PROV   .                      : Province
 SRVC   .                      : Contractor
 GDAT   .      WGS 84          : Geodatum
 LONG   .      -38.435477499961: Longitude
 LATI   .      0               : Latitude
 COORDIN.                      : Grid System
 XCOORD .                      : X or East-West Coordinate
 YCOORD .                      : Y or North-South Coordinate
~CURVE INFORMATION
#MNEM              UNIT       API CODE   Curve Type Comments
#----------  --------------- ----------  ---------- -----------
 DEPTH      .M                         : Depth       
 CAL        .inch                      : Caliper     
 BS         .in                        : BitSize     
 GR         .gAPI                      : GammaRay    
 ILD        .ohm.m                     : DeepRes     
 RHOB       .G/CC                      : Density     
 NPHI       .dec                       : Neutron     
 DT         .uS/ft                     : Sonic       
 DRDN       .                          :             
 Lith_new   .                          :             
~A  DEPTH    CAL        BS        GR       ILD       RHOB      NPHI       DT       DRDN    Lith_new 
# ...
 836.8250   12.4652   12.2500   77.5403    9.1585 -999.0000 -999.0000   86.3602 -999.0000 -999.0000 
 836.9250   12.4647   12.2500   83.0746    8.2189 -999.0000 -999.0000   86.7306 -999.0000 -999.0000 
 837.0250   12.4650   12.2500   91.7918    7.4516 -999.0000 -999.0000   87.9357 -999.0000 -999.0000 
 837.1250   12.4652   12.2500  100.6384    6.9442 -999.0000 -999.0000   89.5985 -999.0000 -999.0000 
 837.2250   12.4666   12.2500  107.0792    6.6284 -999.0000 -999.0000   91.1082 -999.0000 -999.0000 
 837.3250   12.4677   12.2500  111.7054    6.3961 -999.0000 -999.0000   92.4071 -999.0000 -999.0000 
 837.4250   12.4656   12.2500  112.4547    6.1708 -999.0000 -999.0000   93.4796 -999.0000 -999.0000 
 837.5250   12.4655   12.2500  112.4452    5.9532 -999.0000 -999.0000   94.3832 -999.0000 -999.0000 
 837.6250   12.4645   12.2500  112.0395    5.7989 -999.0000 -999.0000   95.2143 -999.0000 -999.0000 
 837.7250   12.4625   12.2500  109.2416    5.7665 -999.0000 -999.0000   95.7444 -999.0000 -999.0000 
 837.8250   12.4622   12.2500  105.9336    5.8681 -999.0000 -999.0000   96.1704 -999.0000 -999.0000 
 837.9250   12.4598   12.2500  102.1336    6.0535 -999.0000 -999.0000   96.4883 -999.0000 -999.0000 
 838.0250   12.4596   12.2500   99.2296    6.2315 -999.0000 -999.0000   96.5673 -999.0000 -999.0000 
 838.1250   12.4614   12.2500   98.1531    6.3296 -999.0000 -999.0000   96.4546 -999.0000 -999.0000 
 838.2250   12.4637   12.2500   99.5602    6.3182 -999.0000 -999.0000   95.9209 -999.0000 -999.0000 
 838.3250   12.4659   12.2500  102.1871    6.1779 -999.0000 -999.0000   95.4444 -999.0000 -999.0000 
 838.4250   12.4677   12.2500  103.7315    5.8799 -999.0000 -999.0000   95.4592 -999.0000 -999.0000 
 838.5250   12.4681   12.2500  105.0385    5.4414 -999.0000 -999.0000   96.0949 -999.0000 -999.0000 
 838.6250   12.4693   12.2500  104.7605    4.9522 -999.0000 -999.0000   97.5786 -999.0000 -999.0000 
 838.7250   12.4714   12.2500  103.0581    4.5237 -999.0000 -999.0000   99.5510 -999.0000 -999.0000 
 838.8250   12.4719   12.2500  103.1065    4.2182 -999.0000 -999.0000  101.9653 -999.0000 -999.0000 
 838.9250   12.4710   12.2500  103.4362    4.0442 -999.0000 -999.0000  104.5689 -999.0000 -999.0000 
 839.0250   12.4723   12.2500  104.1856    3.9856 -999.0000 -999.0000  106.8786 -999.0000 -999.0000 
 839.1250   12.4738   12.2500  105.5745    4.0277 -999.0000 -999.0000  108.4245 -999.0000 -999.0000 
 839.2250   12.4744   12.2500  106.0156    4.1529 -999.0000 -999.0000  108.8153 -999.0000 -999.0000 
 839.3250   12.4756   12.2500  107.1051    4.3253 -999.0000 -999.0000  108.0918 -999.0000 -999.0000 
 839.4250   12.4716   12.2500  108.6296    4.4804 -999.0000 -999.0000  106.7204 -999.0000 -999.0000 
 839.5250   12.4675   12.2500  111.6562    4.5442 -999.0000 -999.0000  105.1525 -999.0000 -999.0000 
 839.6250   12.4645   12.2500  115.2111    4.4756 -999.0000 -999.0000  104.0582 -999.0000 -999.0000 
 839.7250   12.4620   12.2500  118.2359    4.2840 -999.0000 -999.0000  103.7153 -999.0000 -999.0000 
 839.8250   12.4628   12.2500  120.3051    4.0173 -999.0000 -999.0000  104.3730 -999.0000 -999.0000 
 839.9250   12.4626   12.2500  118.9248    3.7412 -999.0000 -999.0000  105.9505 -999.0000 -999.0000 
 840.0250   12.4753   12.2500  116.5163    3.5190 -999.0000 -999.0000  107.9699 -999.0000 -999.0000 
 840.1250   12.4546   12.2500  112.7430    3.3910 -999.0000 -999.0000  110.0439 -999.0000 -999.0000 
 840.2250   12.4381   12.2500  109.4488    3.3665 -999.0000 -999.0000  111.5832 -999.0000 -999.0000 
 840.3250   12.4162   12.2500  109.1812    3.4271 -999.0000 -999.0000  112.4184 -999.0000 -999.0000 
 840.4250   12.3880   12.2500  108.9680    3.5389 -999.0000 -999.0000  112.5520 -999.0000 -999.0000 
 840.5250   12.3873   12.2500  110.4666    3.6661 -999.0000 -999.0000  112.0122 -999.0000 -999.0000 
 840.6250   12.3862   12.2500  112.2268    3.7874 -999.0000 -999.0000  111.0469 -999.0000 -999.0000 
 840.7250   12.3841   12.2500  111.5362    3.8983 -999.0000 -999.0000  110.0714 -999.0000 -999.0000 
 840.8250   12.3827   12.2500  111.3791    3.9998 -999.0000 -999.0000  109.3393 -999.0000 -999.0000 
 840.9250   12.3808   12.2500  108.9352    4.0825 -999.0000 -999.0000  109.0735 -999.0000 -999.0000 
 841.0250   12.3787   12.2500  105.5668    4.1263 -999.0000 -999.0000  108.9015 -999.0000 -999.0000 
 841.1250   12.3780   12.2500  103.9456    4.1228 -999.0000 -999.0000  108.6061 -999.0000 -999.0000 
 841.2250   12.3767   12.2500  102.5859    4.0945 -999.0000 -999.0000  108.0577 -999.0000 -999.0000 
 841.3250   12.3738   12.2500  103.3473    4.0747 -999.0000 -999.0000  107.3827 -999.0000 -999.0000 
 841.4250   12.3709   12.2500  105.2689    4.0703 -999.0000 -999.0000  106.8985 -999.0000 -999.0000 
 841.5250   12.3659   12.2500  106.8487    4.0484 -999.0000 -999.0000  106.7184 -999.0000 -999.0000 
 841.6250   12.3601   12.2500  108.4336    3.9612 -999.0000 -999.0000  106.9128 -999.0000 -999.0000 
 841.7250   12.3571   12.2500  109.7138    3.7891 -999.0000 -999.0000  107.6393 -999.0000 -999.0000 
 841.8250   12.3539   12.2500  110.3440    3.5653 -999.0000 -999.0000  109.1918 -999.0000 -999.0000 
 841.9250   12.3539   12.2500  110.8378    3.3523 -999.0000 -999.0000  111.3480 -999.0000 -999.0000 
 842.0250   12.3549   12.2500  109.9072    3.2037 -999.0000 -999.0000  114.5444 -999.0000 -999.0000 
 842.1250   12.3550   12.2500  108.9490    3.1462 -999.0000 -999.0000  120.4638 -999.0000 -999.0000 
 842.2250   12.3540   12.2500  108.6762    3.1816 -999.0000 -999.0000  126.1500 -999.0000 -999.0000 
 842.3250   12.3540   12.2500  109.0750    3.2914 -999.0000 -999.0000  130.1173 -999.0000 -999.0000 
 842.4250   12.3546   12.2500  110.4373    3.4445 -999.0000 -999.0000  128.1648 -999.0000 -999.0000 
 842.5250   12.3544   12.2500  112.0705    3.6100 -999.0000 -999.0000  122.4561 -999.0000 -999.0000 
 842.6250   12.3541   12.2500  112.8803    3.7706 -999.0000 -999.0000  120.7587 -999.0000 -999.0000 
 842.7250   12.3549   12.2500  111.8858    3.9254 -999.0000 -999.0000  123.7653 -999.0000 -999.0000 
 842.8250   12.3550   12.2500  110.9164    4.0887 -999.0000 -999.0000  131.9092 -999.0000 -999.0000 
 842.9250   12.3557   12.2500  107.5341    4.2845 -999.0000 -999.0000  134.8551 -999.0000 -999.0000 
 843.0250   12.3563   12.2500  103.7220    4.5407 -999.0000 -999.0000  130.6179 -999.0000 -999.0000 
 843.1250   12.3572   12.2500  100.8111    4.8769 -999.0000 -999.0000  120.3505 -999.0000 -999.0000 
 843.2250   12.3572   12.2500   96.9333    5.2831 -999.0000 -999.0000  110.2969 -999.0000 -999.0000 
 843.3250   12.3640   12.2500   93.4035    5.7244 -999.0000 -999.0000  103.5469 -999.0000 -999.0000 
 843.4250   12.3674   12.2500   88.2144    6.1787 -999.0000 -999.0000   99.3311 -999.0000 -999.0000 
 843.5250   12.3726   12.2500   81.0753    6.6587 -999.0000 -999.0000   96.5990 -999.0000 -999.0000 
 843.6250   12.3775   12.2500   73.7799    7.1584 -999.0000 -999.0000   93.7265 -999.0000 -999.0000 
 843.7250   12.3787   12.2500   68.0773    7.6065 -999.0000 -999.0000   93.5102 -999.0000 -999.0000 
 843.8250   12.3798   12.2500   64.5448    7.8891 -999.0000 -999.0000   94.4597 -999.0000 -999.0000 
 843.9250   12.3794   12.2500   62.7190    7.9558 -999.0000 -999.0000   96.0776 -999.0000 -999.0000 
 844.0250   12.3772   12.2500   62.1130    7.8522 -999.0000 -999.0000   95.7566 -999.0000 -999.0000 
 844.1250   12.3769   12.2500   61.6779    7.6649 -999.0000 -999.0000   92.1939 -999.0000 -999.0000 
 844.2250   12.3789   12.2500   62.1260    7.4512 -999.0000 -999.0000   89.2959 -999.0000 -999.0000 
 844.3250   12.3810   12.2500   63.2499    7.2331 -999.0000 -999.0000   87.2577 -999.0000 -999.0000 
 844.4250   12.3831   12.2500   65.0291    7.0150 -999.0000 -999.0000   87.8199 -999.0000 -999.0000 
 844.5250   12.3812   12.2500   68.3078    6.7938 -999.0000 -999.0000   89.0673 -999.0000 -999.0000 
 844.6250   12.3783   12.2500   73.2102    6.5694 -999.0000 -999.0000   90.2719 -999.0000 -999.0000 
 844.7250   12.3761   12.2500   80.2052    6.3617 -999.0000 -999.0000   91.3862 -999.0000 -999.0000 
