~VERSION INFORMATION
 VERS.                 2.0:   CWLS LOG ASCII STANDARD - VERSION 2.0
 WRAP.                  NO:   SINGLE LINE PER DEPTH STEP
 CREA.                 06/02/2020 16:44:49
#CREATED USING IP VERSION 4.5.2019.2902 BY RMOTA ON 06/02/2020 16:44:49
~WELL INFORMATION
#MNEM.UNIT       DATA                          DESCRIPTION MNEMONIC
#---------      ---------------------------   --------------------------
 STRT    .M         1550.0001                 : START DEPTH
 STOP    .M         2926.1001                 : STOP DEPTH
 STEP    .M         0.1000                    : STEP VALUE
 NULL    .      -999.0000                     : NULL VALUE
 DATE    .      06/02/2020                    : LAS file Creation Date
 WELL   .      7-MP-47DP-BA    : Well Name
 COMP   .      PETROBRAS       : Company
 FLD    .      MASSAPE         : Field
 STATE  .      BAHIA           : State
 API    .      20240025025     : API Number
 UWI    .                      : Unique Well Identifier (UWI)
 LOC    .      20240025025     : Location
 PDAT   .      NM              : Permanent Datum
 EPDAT  .      0.0             : Elevation of Permanent Datum
 LGMEA  .      MR              : Log Measured from
 DRMEA  .      MR              : Drill Measured From
 APDAT  .      65.68           : Elevation Above Permanent Datum
 KB     .      -999.25         : KB Elevation
 DF     .      65.68           : DF Elevation
 GL     .      56.28           : GL Elevation
 RWS    .      -999            : Def_Rw
 WST    .      -999            : Def_Rwt
 PROV   .                      : Province
 SRVC   .                      : Contractor
 GDAT   .      WGS 84          : Geodatum
 LONG   .      -38.435024444394: Longitude
 LATI   .      0               : Latitude
 COORDIN.                      : Grid System
 XCOORD .                      : X or East-West Coordinate
 YCOORD .                      : Y or North-South Coordinate
~CURVE INFORMATION
#MNEM              UNIT       API CODE   Curve Type Comments
#----------  --------------- ----------  ---------- -----------
 DEPTH      .M                         : Depth       
 BS         .in                        : BitSize     
 CAL        .in                        : Caliper     
 GR         .api                       : GammaRay    
 ILD        .ohmm                      : DeepRes     
 NPHI       .decp                      : Neutron     
 RHOB       .g/cc                      : Density     
 DT         .uspf                      : Sonic       
 DRDN       .                          :             
 Lith_new   .                          :             
~A  DEPTH     BS       CAL        GR       ILD       NPHI      RHOB       DT       DRDN    Lith_new 
# ...
2558.0001    8.5000    8.7937  101.3536    3.5943    0.2834    2.5305   98.0113    5.0557   57.0000 
2558.1001    8.5000    8.8102   98.0600    3.5229    0.2777    2.5362   96.9974    4.9799   57.0000 
2558.2001    8.5000    8.8112   96.8813    3.4363    0.2712    2.5456   96.5697    4.9497   57.0000 
2558.3001    8.5000    8.8158   97.4595    3.3374    0.2586    2.5564   96.1857    4.7464   57.0000 
2558.4001    8.5000    8.8001  103.1170    3.1946    0.2676    2.5652   95.5668    5.2220   57.0000 
2558.5001    8.5000    8.7930  106.4809    3.1998    0.2720    2.5657   95.5340    5.3810   57.0000 
2558.6001    8.5000    8.7859  108.7331    3.2925    0.2687    2.5578   95.5118    5.1135   57.0000 
2558.7001    8.5000    8.8087  110.0556    3.8506    0.2611    2.5479   95.2877    4.6612   57.0000 
2558.8001    8.5000    8.8348  112.9978    4.3569    0.2487    2.5417   94.5090    4.1229   57.0000 
2558.9001    8.5000    8.8439  115.0439    4.9936    0.2491    2.5386   94.4474    4.0758   57.0000 
2559.0001    8.5000    8.8486  116.4607    5.6686    0.2604    2.5389   94.1722    4.4567   57.0000 
2559.1001    8.5000    8.8021  113.9210    6.5286    0.2661    2.5391   93.3345    4.6520   57.0000 
2559.2001    8.5000    8.7890  110.3271    6.5516    0.2569    2.5384   93.1789    4.3320   57.0000 
2559.3001    8.5000    8.7875  105.8995    6.3901    0.2496    2.5409   93.2593    4.1378   57.0000 
2559.4001    8.5000    8.7690   99.3826    5.9594    0.2571    2.5504   93.1093    4.5770   57.0000 
2559.5001    8.5000    8.7797   98.9226    5.8178    0.2632    2.5534   93.3028    4.8400   57.0000 
2559.6001    8.5000    8.7797   99.6413    5.7434    0.2719    2.5528   93.1971    5.1209   57.0000 
2559.7001    8.5000    8.7951   97.7582    5.7353    0.2759    2.5473   91.8146    5.1445   57.0000 
2559.8001    8.5000    8.8094   94.4853    5.8373    0.2631    2.5451   90.8421    4.6711   57.0000 
2559.9001    8.5000    8.8124   91.0113    6.0654    0.2461    2.5442   89.5648    4.0892   57.0000 
2560.0001    8.5000    8.8007   84.3602    7.1462    0.2118    2.5502   85.3209    3.0625   57.0000 
2560.1001    8.5000    8.7983   81.0059    8.0832    0.1971    2.5500   83.4778    2.5722   57.0000 
2560.2001    8.5000    8.7975   78.5078    9.1965    0.1843    2.5482   81.7225    2.1054   57.0000 
2560.3001    8.5000    8.8010   75.3739   10.7000    0.1782    2.5447   80.1392    1.8361   57.0000 
2560.4001    8.5000    8.8097   74.6791   10.4295    0.1661    2.5375   78.3419    1.2856   57.0000 
2560.5001    8.5000    8.8334   77.2347    9.5854    0.1705    2.5383   78.6388    1.4506   57.0000 
2560.6001    8.5000    8.8423   82.6112    8.2601    0.1817    2.5399   79.1356    1.8532   57.0000 
2560.7001    8.5000    8.8467   93.0382    5.7950    0.2299    2.5435   81.7420    3.5335   57.0000 
2560.8001    8.5000    8.8558   95.0508    4.9199    0.2575    2.5439   84.4177    4.4607   57.0000 
2560.9001    8.5000    8.8558   98.1175    4.2899    0.2700    2.5427   86.7771    4.8552   57.0000 
2561.0001    8.5000    8.8817  101.8520    3.6026    0.2614    2.5417   90.7416    4.5485   57.0000 
2561.1001    8.5000    8.8969  103.4029    3.4661    0.2588    2.5399   92.1985    4.4245   57.0000 
2561.2001    8.5000    8.9060  102.6890    3.4211    0.2538    2.5381   93.4649    4.2208   57.0000 
2561.3001    8.5000    8.9224  102.6059    3.5421    0.2577    2.5322   93.7624    4.2332   57.0000 
2561.4001    8.5000    8.9147  102.6554    3.7134    0.2608    2.5287   93.5674    4.2682   57.0000 
2561.5001    8.5000    8.9117  102.4877    3.9729    0.2606    2.5261   93.8990    4.2073   57.0000 
2561.6001    8.5000    8.8676  103.0340    4.7294    0.2625    2.5288   93.5713    4.3260   57.0000 
2561.7001    8.5000    8.8391  103.1394    5.1220    0.2631    2.5346   93.8042    4.4639   57.0000 
2561.8001    8.5000    8.8300  104.4811    5.4129    0.2677    2.5428   93.9649    4.7802   57.0000 
2561.9001    8.5000    8.8132  104.7175    5.5734    0.2646    2.5522   94.5930    4.8627   57.0000 
2562.0001    8.5000    8.8300  106.8211    5.5005    0.2566    2.5614   94.8795    4.7807   57.0000 
2562.1001    8.5000    8.8376  108.2155    5.3605    0.2634    2.5631   95.6945    5.0439   57.0000 
2562.2001    8.5000    8.8376  110.2936    5.1569    0.2613    2.5634   96.2062    4.9790   57.0000 
2562.3001    8.5000    8.8421  108.4951    4.6348    0.2660    2.5615   96.4622    5.0973   57.0000 
2562.4001    8.5000    8.8452  105.8979    4.3879    0.2744    2.5600   96.2452    5.3476   57.0000 
2562.5001    8.5000    8.8421  102.2321    4.1923    0.2743    2.5567   95.8017    5.2770   57.0000 
2562.6001    8.5000    8.8357  101.0438    3.9822    0.2791    2.5536   95.3002    5.3734   57.0000 
2562.7001    8.5000    8.8326  101.0374    3.9494    0.2761    2.5524   94.8470    5.2493   57.0000 
2562.8001    8.5000    8.8235  101.7274    3.9456    0.2709    2.5559   94.3194    5.1463   57.0000 
2562.9001    8.5000    8.8402  101.4591    3.9545    0.2634    2.5579   93.5336    4.9358   57.0000 
2563.0001    8.5000    8.8573  102.6730    3.9309    0.2579    2.5538   93.6069    4.6730   57.0000 
2563.1001    8.5000    8.8923  103.3918    3.8781    0.2606    2.5507   93.4661    4.7000   57.0000 
2563.2001    8.5000    8.9364  103.3790    3.7234    0.2658    2.5386   93.7042    4.6317   57.0000 
2563.3001    8.5000    8.9535  102.8279    3.6463    0.2668    2.5365   94.0362    4.6228   57.0000 
2563.4001    8.5000    8.9586  104.3326    3.5778    0.2656    2.5337   94.1880    4.5281   57.0000 
2563.5001    8.5000    8.9620  106.6742    3.4751    0.2784    2.5289   94.3270    4.8579   57.0000 
2563.6001    8.5000    8.9611  111.8541    3.4599    0.2847    2.5213   94.9404    4.9152   57.0000 
2563.7001    8.5000    8.9638  111.7471    3.4746    0.2759    2.5188   95.4573    4.5724   57.0000 
2563.8001    8.5000    8.9663  111.0459    3.5191    0.2777    2.5184   95.2427    4.6234   57.0000 
2563.9001    8.5000    8.9896  107.4137    3.6869    0.2875    2.5286   95.0658    5.1545   57.0000 
2564.0001    8.5000    8.9699  104.4907    3.7882    0.2872    2.5345   94.7165    5.2643   57.0000 
2564.1001    8.5000    8.9516  102.4685    3.8705    0.2766    2.5383   93.8941    4.9867   57.0000 
2564.2001    8.5000    8.8923  101.5102    3.9173    0.2661    2.5430   91.9868    4.7308   57.0000 
2564.3001    8.5000    8.8649  103.0499    3.8819    0.2665    2.5391   91.0416    4.6643   57.0000 
2564.4001    8.5000    8.8680  104.4779    3.8286    0.2648    2.5363   90.6678    4.5521   57.0000 
2564.5001    8.5000    8.8467  104.0275    3.7796    0.2635    2.5328   89.4197    4.4399   57.0000 
2564.6001    8.5000    8.8421  101.9718    3.8026    0.2696    2.5331   89.3784    4.6466   57.0000 
2564.7001    8.5000    8.8361  102.1395    3.8368    0.2702    2.5361   90.0665    4.7275   57.0000 
2564.8001    8.5000    8.8553  104.2176    3.8476    0.2655    2.5433   90.7875    4.7156   57.0000 
2564.9001    8.5000    8.8584  106.2685    3.7932    0.2741    2.5446   91.1685    5.0279   57.0000 
2565.0001    8.5000    8.8736  107.6134    3.7092    0.2767    2.5455   91.9080    5.1329   57.0000 
2565.1001    8.5000    8.8812  108.1932    3.5416    0.2686    2.5440   92.5818    4.8339   57.0000 
2565.2001    8.5000    8.9090  110.1914    3.4791    0.2492    2.5311   93.3666    3.9283   57.0000 
2565.3001    8.5000    8.9319  111.5586    3.4347    0.2542    2.5279   93.4905    4.0335   57.0000 
2565.4001    8.5000    8.9296  111.0315    3.4065    0.2641    2.5257   93.5531    4.3168   57.0000 
2565.5001    8.5000    8.9185  102.1091    3.4052    0.2447    2.5324   93.1844    3.8038   57.0000 
2565.6001    8.5000    8.9160   96.3158    3.4424    0.2395    2.5408   93.0663    3.7988   57.0000 
2565.7001    8.5000    8.9163   93.5749    3.5007    0.2414    2.5480   92.3732    4.0074   57.0000 
2565.8001    8.5000    8.9315   93.5909    3.6011    0.2417    2.5552   91.3942    4.1586   57.0000 
2565.9001    8.5000    8.9382   96.2376    3.6170    0.2359    2.5526   91.0084    3.9164   57.0000 
