~VERSION INFORMATION
 VERS.                 2.0:   CWLS LOG ASCII STANDARD - VERSION 2.0
 WRAP.                  NO:   SINGLE LINE PER DEPTH STEP
 CREA.                 06/02/2020 16:44:49
#CREATED USING IP VERSION 4.5.2019.2902 BY RMOTA ON 06/02/2020 16:44:49
~WELL INFORMATION
#MNEM.UNIT       DATA                          DESCRIPTION MNEMONIC
#---------      ---------------------------   --------------------------
 STRT    .M         1550.0001                 : START DEPTH
 STOP    .M         2926.1001                 : STOP DEPTH
 STEP    .M         0.1000                    : STEP VALUE
 NULL    .      -999.0000                     : NULL VALUE
 DATE    .      06/02/2020                    : LAS file Creation Date
 WELL   .      7-MP-47DP-BA    : Well Name
 COMP   .      PETROBRAS       : Company
 FLD    .      MASSAPE         : Field
 STATE  .      BAHIA           : State
 API    .      20240025025     : API Number
 UWI    .                      : Unique Well Identifier (UWI)
 LOC    .      20240025025     : Location
 PDAT   .      NM              : Permanent Datum
 EPDAT  .      0.0             : Elevation of Permanent Datum
 LGMEA  .      MR              : Log Measured from
 DRMEA  .      MR              : Drill Measured From
 APDAT  .      65.68           : Elevation Above Permanent Datum
 KB     .      -999.25         : KB Elevation
 DF     .      65.68           : DF Elevation
 GL     .      56.28           : GL Elevation
 RWS    .      -999            : Def_Rw
 WST    .      -999            : Def_Rwt
 PROV   .                      : Province
 SRVC   .                      : Contractor
 GDAT   .      WGS 84          : Geodatum
 LONG   .      -38.435024444394: Longitude
 LATI   .      0               : Latitude
 COORDIN.                      : Grid System
 XCOORD .                      : X or East-West Coordinate
 YCOORD .                      : Y or North-South Coordinate
~CURVE INFORMATION
#MNEM              UNIT       API CODE   Curve Type Comments
#----------  --------------- ----------  ---------- -----------
 DEPTH      .M                         : Depth       
 BS         .in                        : BitSize     
 CAL        .in                        : Caliper     
 GR         .api                       : GammaRay    
 ILD        .ohmm                      : DeepRes     
 NPHI       .decp                      : Neutron     
 RHOB       .g/cc                      : Density     
 DT         .uspf                      : Sonic       
 DRDN       .                          :             
 Lith_new   .                          :             
~A  DEPTH     BS       CAL        GR       ILD       NPHI      RHOB       DT       DRDN    Lith_new 
# ...
1638.0001    8.5000    8.8395   66.6464  420.8591 -999.0000 -999.0000  142.1527 -999.0000 -999.0000 
1638.1001    8.5000    8.8349   64.5092  301.6288 -999.0000 -999.0000  142.2042 -999.0000 -999.0000 
1638.2001    8.5000    8.8345   60.7668  226.5274 -999.0000 -999.0000  142.6000 -999.0000 -999.0000 
1638.3001    8.5000    8.8334   53.1414  141.9069 -999.0000 -999.0000  143.0779 -999.0000 -999.0000 
1638.4001    8.5000    8.8391   52.1064  117.1816 -999.0000 -999.0000  143.1299 -999.0000 -999.0000 
1638.5001    8.5000    8.8513   51.5745   99.4485 -999.0000 -999.0000  147.4012 -999.0000 -999.0000 
1638.6001    8.5000    8.8296   53.2708   78.2027 -999.0000 -999.0000  154.8673 -999.0000 -999.0000 
1638.7001    8.5000    8.8425   55.6284   72.3562 -999.0000 -999.0000  159.2082 -999.0000 -999.0000 
1638.8001    8.5000    8.8326   57.9907   68.4400 -999.0000 -999.0000  163.8242 -999.0000 -999.0000 
1638.9001    8.5000    8.8303   60.9281   63.6575 -999.0000 -999.0000  161.7591 -999.0000 -999.0000 
1639.0001    8.5000    8.8269   60.3915   62.1775 -999.0000 -999.0000  157.2054 -999.0000 -999.0000 
1639.1001    8.5000    8.8235   59.5337   61.4763 -999.0000 -999.0000  152.6097 -999.0000 -999.0000 
1639.2001    8.5000    8.8208   58.4604   64.1437 -999.0000 -999.0000  143.8463 -999.0000 -999.0000 
1639.3001    8.5000    8.8201   58.1105   68.5666 -999.0000 -999.0000  138.3492 -999.0000 -999.0000 
1639.4001    8.5000    8.8106   57.9764   75.9621 -999.0000 -999.0000  138.5575 -999.0000 -999.0000 
1639.5001    8.5000    8.8018   54.7371  104.5369 -999.0000 -999.0000  138.2587 -999.0000 -999.0000 
1639.6001    8.5000    8.8064   53.1366  130.0502 -999.0000 -999.0000  138.5792 -999.0000 -999.0000 
1639.7001    8.5000    8.8022   52.6239  168.3067 -999.0000 -999.0000  139.1617 -999.0000 -999.0000 
1639.8001    8.5000    8.8034   54.4496  226.7485 -999.0000 -999.0000  139.6862 -999.0000 -999.0000 
1639.9001    8.5000    8.8045   55.8823  470.1204 -999.0000 -999.0000  140.7809 -999.0000 -999.0000 
1640.0001    8.5000    8.8015   53.7308  733.3666 -999.0000 -999.0000  147.2547 -999.0000 -999.0000 
1640.1001    8.5000    8.7965   51.5362 1222.6835 -999.0000 -999.0000  153.4906 -999.0000 -999.0000 
1640.2001    8.5000    8.8174   52.0345 4297.1558 -999.0000 -999.0000  164.8994 -999.0000 -999.0000 
1640.3001    8.5000    8.8151   55.0390 8930.6631 -999.0000 -999.0000  171.1083 -999.0000 -999.0000 
1640.4001    8.5000    8.8243   57.5164 17623.6074 -999.0000 -999.0000  177.5175 -999.0000 -999.0000 
1640.5001    8.5000    8.8372   59.1823 20000.0000 -999.0000 -999.0000  181.2774 -999.0000 -999.0000 
1640.6001    8.5000    8.8448   57.8789 14919.9111 -999.0000 -999.0000  180.1004 -999.0000 -999.0000 
1640.7001    8.5000    8.8345   57.0260 11173.7529 -999.0000 -999.0000  178.6855 -999.0000 -999.0000 
1640.8001    8.5000    8.8197   58.8054 8752.5645 -999.0000 -999.0000  176.4331 -999.0000 -999.0000 
1640.9001    8.5000    8.8292   59.6343 9302.6592 -999.0000 -999.0000  175.5887 -999.0000 -999.0000 
1641.0001    8.5000    8.8091   60.2717 11183.1377 -999.0000 -999.0000  175.5740 -999.0000 -999.0000 
1641.1001    8.5000    8.8212   56.3088 20000.0000 -999.0000 -999.0000  176.5796 -999.0000 -999.0000 
1641.2001    8.5000    8.8224   54.9479 20000.0000 -999.0000 -999.0000  177.3817 -999.0000 -999.0000 
1641.3001    8.5000    8.8151   53.5104 20000.0000 -999.0000 -999.0000  177.5610 -999.0000 -999.0000 
1641.4001    8.5000    8.8224   53.7260 20000.0000 -999.0000 -999.0000  177.7465 -999.0000 -999.0000 
1641.5001    8.5000    8.8170   53.8171 20000.0000 -999.0000 -999.0000  177.1363 -999.0000 -999.0000 
1641.6001    8.5000    8.8178   54.4975 8243.2861 -999.0000 -999.0000  177.1848 -999.0000 -999.0000 
1641.7001    8.5000    8.8155   55.9973 3545.7549 -999.0000 -999.0000  177.0418 -999.0000 -999.0000 
1641.8001    8.5000    8.8079   59.8691  885.7078 -999.0000 -999.0000  176.7619 -999.0000 -999.0000 
1641.9001    8.5000    8.8106   59.7110  511.0859 -999.0000 -999.0000  176.1298 -999.0000 -999.0000 
1642.0001    8.5000    8.8064   58.5993  321.7043 -999.0000 -999.0000  175.6218 -999.0000 -999.0000 
1642.1001    8.5000    8.8022   53.8794  159.3497 -999.0000 -999.0000  174.8191 -999.0000 -999.0000 
1642.2001    8.5000    8.8041   52.9162  122.7149 -999.0000 -999.0000  174.0172 -999.0000 -999.0000 
1642.3001    8.5000    8.8113   53.2708   98.9192 -999.0000 -999.0000  172.6861 -999.0000 -999.0000 
1642.4001    8.5000    8.8235   55.7098   71.2682 -999.0000 -999.0000  169.5579 -999.0000 -999.0000 
1642.5001    8.5000    8.8315   56.2034   62.9744 -999.0000 -999.0000  167.7839 -999.0000 -999.0000 
1642.6001    8.5000    8.8418   56.9845   56.8877 -999.0000 -999.0000  165.9775 -999.0000 -999.0000 
1642.7001    8.5000    8.8380   59.1264   49.1703 -999.0000 -999.0000  163.2104 -999.0000 -999.0000 
1642.8001    8.5000    8.8433   60.0081   46.8883 -999.0000 -999.0000  162.2616 -999.0000 -999.0000 
1642.9001    8.5000    8.8425   59.5337   45.3798 -999.0000 -999.0000  162.1516 -999.0000 -999.0000 
1643.0001    8.5000    8.8387   57.8997   44.4967 -999.0000 -999.0000  162.6273 -999.0000 -999.0000 
1643.1001    8.5000    8.8338   52.1543   44.1203 -999.0000 -999.0000  163.7507 -999.0000 -999.0000 
1643.2001    8.5000    8.8343   49.3511   44.4374 -999.0000 -999.0000  164.2570 -999.0000 -999.0000 
1643.3001    8.5000    8.8354   48.9773   45.0255 -999.0000 -999.0000  165.2071 -999.0000 -999.0000 
1643.4001    8.5000    8.8480   54.5933   47.1792 -999.0000 -999.0000  165.4870 -999.0000 -999.0000 
1643.5001    8.5000    8.8540   57.5164   49.0098 -999.0000 -999.0000  163.9800 -999.0000 -999.0000 
1643.6001    8.5000    8.8642   59.2893   51.6309 -999.0000 -999.0000  160.9509 -999.0000 -999.0000 
1643.7001    8.5000    8.8684   56.7353   60.4166 -999.0000 -999.0000  154.5883 -999.0000 -999.0000 
1643.8001    8.5000    8.8638   56.3663   67.3095 -999.0000 -999.0000  150.8264 -999.0000 -999.0000 
1643.9001    8.5000    8.8570   55.9398   76.5642 -999.0000 -999.0000  147.1791 -999.0000 -999.0000 
1644.0001    8.5000    8.8421   58.9204  106.6440 -999.0000 -999.0000  142.4260 -999.0000 -999.0000 
1644.1001    8.5000    8.8281   59.0402  132.3472 -999.0000 -999.0000  142.0704 -999.0000 -999.0000 
1644.2001    8.5000    8.8189   58.4028  172.2384 -999.0000 -999.0000  141.9330 -999.0000 -999.0000 
1644.3001    8.5000    8.8098   51.8476  352.8607 -999.0000 -999.0000  142.1488 -999.0000 -999.0000 
1644.4001    8.5000    8.7935   50.0938  564.4646 -999.0000 -999.0000  142.1057 -999.0000 -999.0000 
1644.5001    8.5000    8.7942   50.2376  957.4186 -999.0000 -999.0000  142.0440 -999.0000 -999.0000 
1644.6001    8.5000    8.8003   52.2262 1557.9082 -999.0000 -999.0000  141.5206 -999.0000 -999.0000 
1644.7001    8.5000    8.7965   54.9192 1391.7450 -999.0000 -999.0000  140.7029 -999.0000 -999.0000 
1644.8001    8.5000    8.8015   54.9767  832.7283 -999.0000 -999.0000  140.0211 -999.0000 -999.0000 
1644.9001    8.5000    8.8072   54.4208  493.6147 -999.0000 -999.0000  139.1953 -999.0000 -999.0000 
1645.0001    8.5000    8.8068   54.7227  203.8166 -999.0000 -999.0000  137.3539 -999.0000 -999.0000 
1645.1001    8.5000    8.8060   53.8937  142.0835 -999.0000 -999.0000  136.6650 -999.0000 -999.0000 
1645.2001    8.5000    8.8091   52.1303  103.7600 -999.0000 -999.0000  135.9649 -999.0000 -999.0000 
1645.3001    8.5000    8.8064   48.2825   62.6601 -999.0000 -999.0000  135.0451 -999.0000 -999.0000 
1645.4001    8.5000    8.8034   48.5365   51.6020 -999.0000 -999.0000  134.7726 -999.0000 -999.0000 
1645.5001    8.5000    8.7973   49.5619   44.0771 -999.0000 -999.0000  134.2561 -999.0000 -999.0000 
1645.6001    8.5000    8.7980   52.0249   35.6376 -999.0000 -999.0000  132.7789 -999.0000 -999.0000 
1645.7001    8.5000    8.8068   52.7916   33.6286 -999.0000 -999.0000  131.9579 -999.0000 -999.0000 
1645.8001    8.5000    8.8068   52.9066   32.7203 -999.0000 -999.0000  131.4376 -999.0000 -999.0000 
1645.9001    8.5000    8.8353   54.9767   33.8509 -999.0000 -999.0000  129.2915 -999.0000 -999.0000 
