~VERSION INFORMATION
 VERS.                 2.0:   CWLS LOG ASCII STANDARD - VERSION 2.0
 WRAP.                  NO:   SINGLE LINE PER DEPTH STEP
 CREA.                 28/08/2020 11:52:07
#CREATED USING IP VERSION 4.5.2019.2902 BY CANDIDO ON 28/08/2020 11:52:07
~WELL INFORMATION
#MNEM.UNIT       DATA                          DESCRIPTION MNEMONIC
#---------      ---------------------------   --------------------------
 STRT    .M         639.0000                  : START DEPTH
 STOP    .M         3007.1000                 : STOP DEPTH
 STEP    .M         0.1000                    : STEP VALUE
 NULL    .      -999.0000                     : NULL VALUE
 DATE    .      28/08/2020                    : LAS file Creation Date
 WELL   .      7-MP-55D-BA     : Well Name
 COMP   .      PETROBRAS       : Company
 FLD    .      MASSAPE         : Field
 STATE  .      BAHIA           : State
 COUNT  .      -999.25         : Country
 API    .      20240028408     : API Number
 UWI    .                      : Unique Well Identifier (UWI)
 LOC    .      -999.25         : Location
 TOWN   .      -999.25         : Township
 SCT    .      -999.25         : Section
 RANG   .      -999.25         : Range
 PDAT   .      NM              : Permanent Datum
 EPDAT  .      0.00            : Elevation of Permanent Datum
 LGMEA  .      MR              : Log Measured from
 DRMEA  .      MR              : Drill Measured From
 APDAT  .      65.67           : Elevation Above Permanent Datum
 KB     .      65.97           : KB Elevation
 DF     .      65.67           : DF Elevation
 GL     .      56.27           : GL Elevation
 RWS    .      -999            : Def_Rw
 WST    .      -999            : Def_Rwt
 PROV   .                      : Province
 SRVC   .                      : Contractor
 GDAT   .      WGS 84          : Geodatum
 LONG   .      -38.435231944455: Longitude
 LATI   .      0               : Latitude
 COORDIN.                      : Grid System
 XCOORD .                      : X or East-West Coordinate
 YCOORD .                      : Y or North-South Coordinate
~CURVE INFORMATION
#MNEM                UNIT       API CODE   Curve Type Comments
#----------    --------------- ----------  ---------- -----------
 DEPTH        .M                         : Depth       
 TVD          .M                         : Depth       
 TVDSS        .M                         : Depth       
 GR           .api                       : GammaRay    
 CAL          .in                        : Caliper     
 BS           .in                        : BitSize     
 Lith_new     .                          :             
 RT           .ohmm                      : DeepRes     
 NPHI         .decp                      : Neutron     
 RHOB         .g/cc                      : Density     
 Res          .                          :             
 N_Res        .                          :             
 VCLGR        .Dec                       : Vcl         
 Phi_Gaymard  .                          :             
 Phie_Gaymard .                          :             
 SwArch       .Dec                       :             
 SwSim        .Dec                       :             
~A  DEPTH    TVD      TVDSS       GR       CAL        BS     Lith_new     RT       NPHI      RHOB      Res      N_Res     VCLGR   Phi_Gaym~ Phie_Gay~   SwArch    SwSim   
# ...
2232.3000 2220.4084 -2154.7384   93.3024    8.5961    8.5000   57.0000    2.5126    0.2064    2.5937    0.0000    1.0000    0.6458    0.1483    0.0525    1.2787    0.9578 
2232.4000 2220.5076 -2154.8376   92.6307    8.6038    8.5000   57.0000    2.5263    0.2081    2.5904    0.0000    1.0000    0.6299    0.1498    0.0554    1.1827    0.9094 
2232.5000 2220.6068 -2154.9368   92.1574    8.6029    8.5000   57.0000    2.5265    0.2231    2.5910    0.0000    1.0000    0.6189    0.1602    0.0610    1.0135    0.8117 
2232.6000 2220.7061 -2155.0361   90.2949    8.6018    8.5000   57.0000    2.5174    0.2178    2.5940    0.0000    1.0000    0.5767    0.1562    0.0661    0.9594    0.7891 
2232.7000 2220.8053 -2155.1353   89.2033    8.6053    8.5000   57.0000    2.4763    0.2160    2.6017    0.0000    1.0000    0.5529    0.1544    0.0690    0.9469    0.7893 
2232.8000 2220.9045 -2155.2345   89.9895    8.6180    8.5000   57.0000    2.4571    0.2230    2.6006    0.0000    1.0000    0.5700    0.1594    0.0685    0.9334    0.7768 
2232.9000 2221.0037 -2155.3337   91.8750    8.6143    8.5000   57.0000    2.4493    0.2268    2.5996    0.0000    1.0000    0.6123    0.1621    0.0628    1.0111    0.8175 
2233.0000 2221.1029 -2155.4329   92.7223    8.6216    8.5000   57.0000    2.4572    0.2278    2.5958    0.0000    1.0000    0.6320    0.1631    0.0600    1.0417    0.8305 
2233.1000 2221.2022 -2155.5322   94.9512    8.6264    8.5000   57.0000    2.5162    0.2255    2.5992    0.0000    1.0000    0.6858    0.1612    0.0507    1.2705    0.9366 
2233.2000 2221.3014 -2155.6314   95.7451    8.6262    8.5000   57.0000    2.5584    0.2174    2.5973    0.0000    1.0000    0.7057    0.1557    0.0458    1.3000    0.9844 
2233.3000 2221.4006 -2155.7306   96.2870    8.6394    8.5000   57.0000    2.5993    0.2218    2.5928    0.0000    1.0000    0.7195    0.1591    0.0446    1.3000    0.9372 
2233.4000 2221.4998 -2155.8298   93.0505    8.6355    8.5000   57.0000    2.6438    0.2282    2.5874    0.0000    1.0000    0.6398    0.1640    0.0591    0.9854    0.7803 
2233.5000 2221.5990 -2155.9290   89.9208    8.6379    8.5000   57.0000    2.6383    0.2162    2.5881    0.0000    1.0000    0.5685    0.1556    0.0671    0.9095    0.7510 
2233.6000 2221.6983 -2156.0283   87.1499    8.6464    8.5000   57.0000    2.6164    0.2153    2.5910    0.0000    1.0000    0.5097    0.1547    0.0759    0.7996    0.6882 
2233.7000 2221.7975 -2156.1275   86.8064    8.6661    8.5000   57.0000    2.5549    0.2188    2.5948    0.0000    1.0000    0.5027    0.1569    0.0780    0.7837    0.6802 
2233.8000 2221.8967 -2156.2267   88.0888    8.6735    8.5000   57.0000    2.5262    0.2223    2.5939    0.0000    1.0000    0.5292    0.1594    0.0750    0.8152    0.6993 
2233.9000 2221.9959 -2156.3259   89.8597    8.6679    8.5000   57.0000    2.4974    0.2179    2.5948    0.0000    1.0000    0.5671    0.1562    0.0676    0.9399    0.7797 
2234.0000 2222.0952 -2156.4252   93.7604    8.6904    8.5000   57.0000    2.4361    0.2107    2.5993    0.0000    1.0000    0.6567    0.1509    0.0518    1.3000    1.0084 
2234.1000 2222.1944 -2156.5244   97.1954    8.6850    8.5000   57.0000    2.4259    0.2138    2.6088    0.0000    1.0000    0.7430    0.1524    0.0392    1.3000    1.1815 
2234.2000 2222.2936 -2156.6236  100.5388    8.6917    8.5000   57.0000    2.4499    0.2225    2.6150    0.0000    1.0000    0.8342    0.1582    0.0262    1.3000    1.3000 
2234.3000 2222.3928 -2156.7228  102.6990    8.7088    8.5000   57.0000    2.5757    0.2219    2.6197    0.0000    1.0000    0.8971    0.1575    0.0162    1.3000    1.3000 
2234.4000 2222.4921 -2156.8221  100.1571    8.6970    8.5000   57.0000    2.6444    0.2298    2.6166    0.0000    1.0000    0.8234    0.1632    0.0288    1.3000    1.3000 
2234.5000 2222.5913 -2156.9213   98.1572    8.7120    8.5000   57.0000    2.7062    0.2246    2.6173    0.0000    1.0000    0.7685    0.1596    0.0369    1.3000    1.1446 
2234.6000 2222.6905 -2157.0205   95.5848    8.7007    8.5000   57.0000    2.7637    0.2248    2.6231    0.0000    1.0000    0.7016    0.1595    0.0476    1.3000    1.0068 
2234.7000 2222.7898 -2157.1198   91.2490    8.7208    8.5000   57.0000    2.8926    0.2174    2.6233    0.0000    1.0000    0.5981    0.1542    0.0620    1.0788    0.8313 
2234.8000 2222.8890 -2157.2190   88.2873    8.7109    8.5000   57.0000    2.9648    0.2170    2.6173    0.0000    1.0000    0.5333    0.1542    0.0720    0.8556    0.7076 
2234.9000 2222.9882 -2157.3182   88.0812    8.7066    8.5000   57.0000    3.0347    0.2236    2.6088    0.0000    1.0000    0.5290    0.1593    0.0750    0.7690    0.6465 
2235.0000 2223.0874 -2157.4174   92.5314    8.7113    8.5000   57.0000    3.1354    0.2193    2.6023    0.0000    1.0000    0.6276    0.1567    0.0583    1.0208    0.7715 
2235.1000 2223.1867 -2157.5167   94.8901    8.7248    8.5000   57.0000    3.1552    0.2144    2.6088    0.0000    1.0000    0.6843    0.1528    0.0482    1.3000    0.9202 
2235.2000 2223.2859 -2157.6159   95.5771    8.7212    8.5000   57.0000    3.1621    0.2136    2.6146    0.0000    1.0000    0.7014    0.1519    0.0454    1.3000    0.9819 
2235.3000 2223.3851 -2157.7151   93.9360    8.7138    8.5000   57.0000    3.1946    0.2077    2.6265    0.0000    1.0000    0.6610    0.1473    0.0499    1.3000    0.9907 
2235.4000 2223.4844 -2157.8144   94.3405    8.7188    8.5000   57.0000    3.2226    0.2152    2.6285    0.0000    1.0000    0.6708    0.1525    0.0502    1.3000    0.9413 
2235.5000 2223.5836 -2157.9136   95.9054    8.7149    8.5000   57.0000    3.2344    0.2088    2.6317    0.0000    1.0000    0.7097    0.1479    0.0429    1.3000    1.1081 
2235.6000 2223.6828 -2158.0128   97.6916    8.7151    8.5000   57.0000    3.1503    0.1985    2.6271    0.0000    1.0000    0.7561    0.1408    0.0343    1.3000    1.2308 
2235.7000 2223.7821 -2158.1121   95.7680    8.7032    8.5000   57.0000    3.0699    0.2069    2.6211    0.0000    1.0000    0.7063    0.1469    0.0432    1.3000    1.0967 
2235.8000 2223.8813 -2158.2113   93.6383    8.7173    8.5000   57.0000    2.9882    0.2251    2.6168    0.0000    1.0000    0.6538    0.1599    0.0554    1.1495    0.8413 
2235.9000 2223.9805 -2158.3105   91.4093    8.7233    8.5000   57.0000    2.8518    0.2344    2.6151    0.0000    1.0000    0.6017    0.1665    0.0663    0.9015    0.7258 
2236.0000 2224.0798 -2158.4098   91.3177    8.7128    8.5000   57.0000    2.8072    0.2361    2.6158    0.0000    1.0000    0.5996    0.1677    0.0672    0.8918    0.7226 
2236.1000 2224.1790 -2158.5090   91.9742    8.7260    8.5000   57.0000    2.7866    0.2264    2.6098    0.0000    1.0000    0.6146    0.1612    0.0621    1.0008    0.7874 
2236.2000 2224.2783 -2158.6083   93.6688    8.7187    8.5000   57.0000    2.7926    0.2175    2.6026    0.0000    1.0000    0.6545    0.1554    0.0537    1.2122    0.8908 
2236.3000 2224.3775 -2158.7075  101.0731    8.7264    8.5000   57.0000    2.8633    0.2187    2.5798    0.0000    1.0000    0.8494    0.1581    0.0238    1.3000    1.3000 
2236.4000 2224.4767 -2158.8067  104.5539    8.7357    8.5000   57.0000    2.9075    0.2188    2.5745    0.0000    1.0000    0.9539    0.1587    0.0073    1.3000    1.2763 
2236.5000 2224.5760 -2158.9060  105.8440    8.7342    8.5000   57.0000    2.9425    0.2190    2.5686    0.0000    1.0000    0.9949    0.1595    0.0008    1.3000    1.2092 
2236.6000 2224.6752 -2159.0052  103.0120    8.7386    8.5000   57.0000    2.9540    0.2240    2.5738    0.0000    1.0000    0.9065    0.1624    0.0152    1.3000    1.3000 
2236.7000 2224.7744 -2159.1044  100.0350    8.7362    8.5000   57.0000    2.9341    0.2255    2.5781    0.0000    1.0000    0.8199    0.1630    0.0293    1.3000    1.3000 
2236.8000 2224.8737 -2159.2037   97.8977    8.7397    8.5000   57.0000    2.9071    0.2196    2.5878    0.0000    1.0000    0.7615    0.1580    0.0377    1.3000    0.9866 
2236.9000 2224.9729 -2159.3029   93.7986    8.7294    8.5000   57.0000    2.8881    0.2189    2.6046    0.0000    1.0000    0.6576    0.1562    0.0535    1.1972    0.8729 
