~VERSION INFORMATION
 VERS.                 2.0:   CWLS LOG ASCII STANDARD - VERSION 2.0
 WRAP.                  NO:   SINGLE LINE PER DEPTH STEP
 CREA.                 06/02/2020 16:08:49
#CREATED USING IP VERSION 4.5.2019.2902 BY RMOTA ON 06/02/2020 16:08:49
~WELL INFORMATION
#MNEM.UNIT       DATA                          DESCRIPTION MNEMONIC
#---------      ---------------------------   --------------------------
 STRT    .M         -0.4572                   : START DEPTH
 STOP    .M         3564.6360                 : STOP DEPTH
 STEP    .M         0.1524                    : STEP VALUE
 NULL    .      -999.0000                     : NULL VALUE
 DATE    .      06/02/2020                    : LAS file Creation Date
 WELL   .      7-MP-28D-BA        : Well Name
 COMP   .      PETROBRAS          : Company
 FLD    .      MASSAPE            : Field
 STATE  .      BAHIA              : State
 COUNT  .      BRASIL             : Country
 API    .      20240021354        : API Number
 UWI    .                         : Unique Well Identifier (UWI)
 LOC    .      N= 8.609.866,070 m : Location
 TOWN   .      CATU               : Township
 SCT    .      OH WIRELINE        : Section
 RANG   .      SCHLUMBERGER       : Range
 PDAT   .      NM                 : Permanent Datum
 EPDAT  .      0                  : Elevation of Permanent Datum
 LGMEA  .      MR                 : Log Measured from
 DRMEA  .      MR                 : Drill Measured From
 APDAT  .      105.72             : Elevation Above Permanent Datum
 KB     .      106.02             : KB Elevation
 DF     .      105.72             : DF Elevation
 GL     .      96.31999           : GL Elevation
 RWS    .      -999               : Def_Rw
 WST    .      -999               : Def_Rwt
 BHS    .      OPEN               : Completion Status
 PROV   .                         : Province
 SRVC   .                         : Contractor
 GDAT   .      WGS 84             : Geodatum
 LONG   .      -38.4270011107127  : Longitude
 LATI   .      -12.5743130556742  : Latitude
 COORDIN.                         : Grid System
 XCOORD .                         : X or East-West Coordinate
 YCOORD .                         : Y or North-South Coordinate
~CURVE INFORMATION
#MNEM              UNIT       API CODE   Curve Type Comments
#----------  --------------- ----------  ---------- -----------
 DEPTH      .M                         : Depth       
 BS         .in                        : BitSize     
 GR         .gAPI                      : GammaRay    
 CAL        .in                        : Caliper     
 RT         .ohm.m                     : DeepRes     
 NPHI       .m3/m3                     : Neutron     
 RHOB       .g/cm3                     :             
 DT         .us/ft                     : Sonic       
 SP         .mV                        : SP          Loaded from DLIS: 7-mp-28d-ba_raw-2p.dlis
 DRDN       .                          :             
 Lith_new   .                          :             
~A  DEPTH     BS        GR       CAL        RT       NPHI      RHOB       DT        SP       DRDN    Lith_new 
# ...
 956.3100   12.2500   89.6358   12.2738    3.8006    0.4127    2.4022  114.4448  195.0625    6.8297   57.0000 
 956.4624   12.2500   79.4082   12.2738    3.7652    0.3766    2.4037  114.9145  195.1875    5.6264   57.0000 
 956.6148   12.2500   79.7108   12.3221    3.7835    0.3999    2.4015  116.2850  194.8125    6.3065   57.0000 
 956.7672   12.2500   80.8674   12.2859    3.8637    0.4119    2.3871  116.7559  194.3750    6.3398   57.0000 
 956.9196   12.2500   88.9638   12.2979    3.8896    0.5173    2.3663  120.6079  194.6875    9.4211   57.0000 
 957.0720   12.2500   88.1529   12.2738    3.9781    0.4684    2.3461  120.7826  194.8125    7.4337   57.0000 
 957.2244   12.2500   85.8396   12.2617    4.2986    0.4765    2.3367  119.0256  194.5000    7.5914   57.0000 
 957.3768   12.2500   85.3770   12.2255    4.6472    0.4074    2.3392  117.3105  194.8750    5.4480   57.0000 
 957.5292   12.2500   84.4335   12.2255    4.8303    0.4164    2.3590  115.9076  195.3750    6.2322   57.0000 
 957.6816   12.2500   88.0385   12.2255    4.4721    0.4212    2.3851  114.8439  195.3125    6.9198   57.0000 
 957.8340   12.2500   87.3445   12.2255    3.9114    0.4199    2.4099  114.9478  195.0625    7.3238   57.0000 
 957.9864   12.2500   93.3590   12.2497    3.3655    0.4531    2.4220  117.1089  194.6875    8.5636   57.0000 
 958.1388   12.2500   90.3180   12.2738    3.1964    0.4386    2.4191  117.7000  194.1875    7.9569   57.0000 
 958.2912   12.2500   88.4674   12.2979    3.1757    0.4305    2.4206  115.6417  193.6875    7.8551   57.0000 
 958.4436   12.2500   80.7609   12.2497    3.3816    0.3778    2.4423  108.9553  192.6875    6.6392   57.0000 
 958.5960   12.2500   77.6523   12.2497    3.7316    0.3033    2.4757   97.5749  193.7500    4.8591   57.0000 
 958.7484   12.2500   69.5559   12.2497    4.3738    0.2050    2.5037   87.6383  193.0625    2.0138   57.0000 
 958.9008   12.2500   52.9317   12.1532    5.8883    0.1336    2.5143   76.1870  194.0000   -0.2413   54.0000 
 959.0532   12.2500   41.1342   12.3703    8.0921    0.1448    2.5006   70.1937  195.5000   -0.4220   25.0000 
 959.2056   12.2500   35.3510   12.4910    8.5168    0.1717    2.4428   73.7373  195.5000   -0.9344   25.0000 
 959.3580   12.2500   35.8781   12.0084    7.5591    0.2131    2.3533   81.4180  194.6875   -1.4918   49.0000 
 959.5104   12.2500   32.5215   12.0808    6.0097    0.2522    2.2616   89.9182  194.3125   -1.8738   49.0000 
 959.6628   12.2500   27.4323   12.0566    4.8333    0.2881    2.2020   94.8550  192.6250   -1.6116   49.0000 
 959.8152   12.2500   26.9687   12.0566    4.2142    0.2992    2.1751   96.0759  193.3750   -1.6327   49.0000 
 959.9676   12.2500   27.9805   12.1773    3.8916    0.2588    2.1723   95.2400  193.6250   -2.8420   49.0000 
 960.1200   12.2500   28.2118   12.1773    3.6616    0.2333    2.1871   94.2571  193.8125   -3.3922   49.0000 
 960.2724   12.2500   30.5300   12.1411    3.5411    0.2172    2.2034   93.4716  193.6250   -3.5500   49.0000 
 960.4248   12.2500   34.5771   12.1170    3.4624    0.2283    2.2255   92.4419  193.4375   -2.7440   49.0000 
 960.5772   12.2500   41.9795   12.1290    3.4242    0.2494    2.2458   93.6360  193.3125   -1.6144   49.0000 
 960.7296   12.2500   46.8477   12.1049    3.5201    0.2899    2.2747   96.2777  193.1250    0.3708   57.0000 
 960.8820   12.2500   54.4445   12.1652    3.5205    0.3128    2.3019   96.2438  193.7500    1.6053   57.0000 
 961.0344   12.2500   55.3365   12.1532    3.4930    0.2927    2.3124   96.5099  193.9375    0.9831   57.0000 
 961.1868   12.2500   47.4343   12.1532    3.5698    0.2527    2.2971   96.4142  193.3125   -0.8157   25.0000 
 961.3392   12.2500   36.5388   12.1532    3.6626    0.2151    2.2660   93.6043  192.0000   -2.7382   49.0000 
 961.4916   12.2500   31.0752   12.1532    3.6004    0.2290    2.2396   94.9428  191.8750   -2.6721   49.0000 
 961.6440   12.2500   35.4703   12.1290    3.5744    0.2308    2.2349   96.0873  191.6875   -2.5538   49.0000 
 961.7964   12.2500   38.0204   12.1652    3.5851    0.2418    2.2537   96.1879  191.3750   -1.6473   49.0000 
 961.9488   12.2500   49.3522   12.1773    3.6242    0.2535    2.2978   95.5729  191.1875   -0.2216   54.0000 
 962.1012   12.2500   60.2245   12.2014    3.7127    0.2665    2.3580   95.4327  190.6875    1.4669   57.0000 
 962.2536   12.2500   68.1064   12.1894    4.1107    0.2535    2.4207   89.7984  189.4375    2.2515   57.0000 
 962.4060   12.2500   67.2970   12.2255    4.8011    0.2152    2.4726   86.3178  190.6250    1.9258   57.0000 
 962.5584   12.2500   62.4818   12.4669    5.7501    0.1970    2.5064   83.2743  191.3125    1.8126   57.0000 
 962.7108   12.2500   66.3692   12.2497    6.4685    0.2082    2.5113   83.2551  190.7500    2.1064   57.0000 
 962.8632   12.2500   68.7975   12.3221    6.6599    0.2422    2.4979   88.3121  191.8750    2.9151   57.0000 
 963.0156   12.2500   71.5793   12.2979    6.9674    0.2459    2.4880   86.1939  191.4375    2.9659   57.0000 
 963.1680   12.2500   65.1022   12.3462    7.1604    0.2046    2.4918   81.1778  191.8750    1.6675   57.0000 
 963.3204   12.2500   54.3774   12.5755    7.1727    0.1644    2.4881   79.8831  192.3750    0.1750   54.0000 
 963.4728   12.2500   46.4955   12.6116    7.7975    0.1792    2.4634   78.6823  192.2500   -0.0574   54.0000 
 963.6252   12.2500   40.7124   12.4910    6.6912    0.2156    2.4107   83.7116  192.1250    0.0180   54.0000 
 963.7776   12.2500   45.3713   12.4789    5.1869    0.2395    2.3508   94.0804  191.4375   -0.4015   25.0000 
 963.9300   12.2500   46.3481   12.4910    4.4171    0.2476    2.3014   95.7693  191.3125   -0.9460   25.0000 
 964.0824   12.2500   49.3553   12.5634    3.9526    0.2676    2.2777   98.0340  191.4375   -0.6172   25.0000 
 964.2348   12.2500   42.2882   12.5634    3.5767    0.2683    2.2653   98.3212  191.1875   -0.8561   25.0000 
 964.3872   12.2500   38.5038   12.2738    3.3337    0.2577    2.2412   99.0261  191.0000   -1.7937   49.0000 
 964.5396   12.2500   34.8026   12.2738    3.1661    0.2537    2.2166  100.1602  189.5625   -2.2938   49.0000 
 964.6920   12.2500   42.7093   12.1773    3.0550    0.2520    2.2156   99.7318  189.8750   -2.1976   49.0000 
 964.8444   12.2500   45.9478   12.2497    3.0548    0.2424    2.2338   99.3862  188.7500   -2.1146   49.0000 
 964.9968   12.2500   51.0370   12.3462    3.1346    0.2343    2.2491   98.2573  188.7500   -2.1479   49.0000 
 965.1492   12.2500   45.3604   12.3945    3.1477    0.2032    2.2561   95.6434  189.1250   -3.0338   49.0000 
 965.3016   12.2500   46.0544   12.3583    3.5010    0.2088    2.2860   91.2828  188.8125   -1.9577   49.0000 
 965.4540   12.2500   46.9797   12.2738    4.1619    0.2032    2.3510   90.3635  188.8125   -0.6904   25.0000 
 965.6064   12.2500   54.8863   12.3462    5.1073    0.2231    2.4352   83.2753  187.4375    1.7168   57.0000 
 965.7588   12.2500   52.1104   12.2738    6.2542    0.1720    2.5085   75.6723  189.0000    1.2805   57.0000 
 965.9112   12.2500   46.5586   12.3703    8.0772    0.1325    2.5476   70.0910  188.5000    0.4604   57.0000 
 966.0636   12.2500   36.8274   12.2738    9.2046    0.1271    2.5354   65.5757  189.8750   -0.3681   25.0000 
 966.2160   12.2500   33.1262   12.1411    8.1834    0.1727    2.4700   66.7883  189.1250   -0.4044   25.0000 
 966.3684   12.2500   30.5816   12.1773    7.0640    0.2077    2.3864   73.3047  190.2500   -0.8633   25.0000 
 966.5208   12.2500   29.3782   12.1532    5.9823    0.2066    2.3221   78.8231  189.9375   -1.9876   49.0000 
 966.6732   12.2500   32.6661   12.1290    4.8726    0.2241    2.2850   80.1849  189.4375   -2.0023   49.0000 
 966.8256   12.2500   30.8155   12.2014    4.1640    0.2112    2.2668   81.1089  189.0000   -2.6942   49.0000 
 966.9780   12.2500   33.3601   12.2014    3.7471    0.2329    2.2569   82.2418  188.5625   -2.1524   49.0000 
 967.1304   12.2500   30.9273   12.2014    3.5048    0.2103    2.2521   82.7487  188.4375   -2.9745   49.0000 
 967.2828   12.2500   33.4719   12.2014    3.3534    0.2224    2.2426   83.0978  189.1250   -2.8318   49.0000 
