~VERSION INFORMATION
 VERS.                 2.0:   CWLS LOG ASCII STANDARD - VERSION 2.0
 WRAP.                  NO:   SINGLE LINE PER DEPTH STEP
 CREA.                 06/02/2020 16:35:30
#CREATED USING IP VERSION 4.5.2019.2902 BY RMOTA ON 06/02/2020 16:35:30
~WELL INFORMATION
#MNEM.UNIT       DATA                          DESCRIPTION MNEMONIC
#---------      ---------------------------   --------------------------
 STRT    .M         15.6972                   : START DEPTH
 STOP    .M         2951.2260                 : STOP DEPTH
 STEP    .M         0.1524                    : STEP VALUE
 NULL    .      -999.0000                     : NULL VALUE
 DATE    .      06/02/2020                    : LAS file Creation Date
 WELL   .      7-MP-36D-BA       : Well Name
 COMP   .      PETROBRAS         : Company
 FLD    .      MASSAPE           : Field
 STATE  .      20240022534       : State
 COUNT  .      BRASIL            : Country
 API    .      20240022534       : API Number
 UWI    .                        : Unique Well Identifier (UWI)
 LOC    .      N= 8607444.13 M   : Location
 PDAT   .      NM                : Permanent Datum
 EPDAT  .      0                 : Elevation of Permanent Datum
 LGMEA  .      MR                : Log Measured from
 DRMEA  .      MR                : Drill Measured From
 APDAT  .      65.81             : Elevation Above Permanent Datum
 KB     .      66.11             : KB Elevation
 DF     .      65.81             : DF Elevation
 GL     .      56.41             : GL Elevation
 RWS    .      -999              : Def_Rw
 WST    .      -999              : Def_Rwt
 BHS    .      OPEN              : Completion Status
 PROV   .                        : Province
 SRVC   .                        : Contractor
 GDAT   .      WGS 84            : Geodatum
 LONG   .      -38.4351329444514 : Longitude
 LATI   .      -12.5962309720781 : Latitude
 COORDIN.                        : Grid System
 XCOORD .                        : X or East-West Coordinate
 YCOORD .                        : Y or North-South Coordinate
~CURVE INFORMATION
#MNEM              UNIT       API CODE   Curve Type Comments
#----------  --------------- ----------  ---------- -----------
 DEPTH      .M                         : Depth       
 BS         .in                        : BitSize     Loaded from DLIS: 7-mp-36d-ba_raw-1.dlis
 DCAL       .in                        :             Loaded from DLIS: 7-mp-36d-ba_raw-1.dlis
 GR         .gAPI                      : GammaRay    Loaded from DLIS: 7-mp-36d-ba_raw-1.dlis
 RT         .ohm.m                     : DeepRes     Loaded from DLIS: 7-mp-36d-ba_raw-1.dlis
 NPHI       .m3/m3                     : Neutron     Loaded from DLIS: 7-mp-36d-ba_raw-1.dlis
 RHOB       .g/cm3                     : Density     Loaded from DLIS: 7-mp-36d-ba_raw-1.dlis
 DT         .us/ft                     : Sonic       Loaded from DLIS: 7-mp-36d-ba_raw-1.dlis
 SP         .mV                        : SP          Loaded from DLIS: 7-mp-36d-ba_raw-1.dlis
 DRDN       .                          :             
 Lith_new   .                          :             
~A  DEPTH     BS       DCAL       GR        RT       NPHI      RHOB       DT        SP       DRDN    Lith_new 
  15.6972   12.2500   -8.7444  283.7781    5.5574   -0.0080 -999.0000   45.3664 -180.5625 -20035.2676   49.0000 
  15.8496   12.2500   -8.7444  281.6944    5.5574   -0.0080    1.8560   45.3664 -180.5625  -18.1483   49.0000 
  16.0020   12.2500   -8.7444  282.9141    5.5574   -0.0081    1.8560   45.3664 -180.5625  -18.1497   49.0000 
  16.1544   12.2500   -8.7444  265.6353    5.5574   -0.0080    1.8560   45.3664 -180.5625  -18.1486   49.0000 
  16.3068   12.2500   -8.7444  269.0542    5.5574   -0.0080    1.8560   45.3664 -180.5625  -18.1464   49.0000 
  16.4592   12.2500   -8.7444  262.5832    5.5574   -0.0079    1.8560   45.3664 -180.5625  -18.1432   49.0000 
  16.6116   12.2500   -8.7444  271.9340    5.5574   -0.0078    1.8560   45.3664 -180.5625  -18.1412   49.0000 
  16.7640   12.2500   -8.7444  260.6381    5.5574   -0.0079    1.8560   45.3664 -180.5625  -18.1436   49.0000 
  16.9164   12.2500   -8.7444  268.3288    5.5574   -0.0081    1.8560   45.3664 -180.5625  -18.1512   49.0000 
  17.0688   12.2500   -8.7444  259.1860    5.5574   -0.0082    1.8560   45.3664 -180.5625  -18.1526   49.0000 
  17.2212   12.2500   -8.7444  260.6090    5.5574   -0.0083    1.8560   45.3664 -180.5625  -18.1559   49.0000 
  17.3736   12.2500   -8.7444  257.9663    5.5574   -0.0082    1.8560   45.3664 -180.5625  -18.1530   49.0000 
  17.5260   12.2500   -8.7444  261.6206    5.5574   -0.0081    1.8560   45.3664 -180.5625  -18.1504   49.0000 
  17.6784   12.2500   -8.7444  262.4062    5.5574   -0.0080    1.8560   45.3664 -180.5625  -18.1459   49.0000 
  17.8308   12.2500   -8.7444  262.4062    5.5574   -0.0081    1.8560   45.3664 -180.5625  -18.1512   49.0000 
  17.9832   12.2500   -8.7444  264.8455    5.5574   -0.0082    1.8560   45.3664 -180.5625  -18.1530   49.0000 
  18.1356   12.2500   -8.7444  265.8895    5.5574   -0.0083    1.8560   45.3664 -180.5625  -18.1572   49.0000 
  18.2880   12.2500   -8.7444  260.1442    5.5574   -0.0083    1.8560   45.3664 -180.5625  -18.1571   49.0000 
  18.4404   12.2500   -8.7444  265.2262    5.5574   -0.0083    1.8560   45.3664 -180.5625  -18.1584   49.0000 
  18.5928   12.2500   -8.7444  270.1049    5.5574   -0.0084    1.8560   45.3664 -180.5625  -18.1588   49.0000 
  18.7452   12.2500   -8.7444  279.3059    5.5574   -0.0081    1.8560   45.3664 -180.5625  -18.1510   49.0000 
  18.8976   12.2500   -8.7444  271.3781    5.5574   -0.0080    1.8560   45.3664 -180.5625  -18.1455   49.0000 
  19.0500   12.2500   -8.7444  265.6875    5.5574   -0.0079    1.8560   45.3664 -180.5625  -18.1439   49.0000 
  19.2024   12.2500   -8.7444  257.3531    5.5574   -0.0080    1.8560   45.3664 -180.5625  -18.1463   49.0000 
  19.3548   12.2500   -8.7444  255.3203    5.5574   -0.0081    1.8560   45.3664 -180.5625  -18.1500   49.0000 
  19.5072   12.2500   -8.7444  262.0272    5.5574   -0.0081    1.8560   45.3664 -180.5625  -18.1490   49.0000 
  19.6596   12.2500   -8.7444  266.5061    5.5574   -0.0081    1.8560   45.3664 -180.5625  -18.1497   49.0000 
  19.8120   12.2500   -8.7444  268.5388    5.5574   -0.0080    1.8560   45.3664 -180.5625  -18.1480   49.0000 
  19.9644   12.2500   -8.7444  268.3356    5.5574   -0.0080    1.8560   45.3664 -180.5625  -18.1475   49.0000 
  20.1168   12.2500   -8.7444  263.2469    5.5574   -0.0080    1.8560   45.3664 -180.5625  -18.1464   49.0000 
  20.2692   12.2500   -8.7444  265.2488    5.5574   -0.0080    1.8560   45.3664 -180.5625  -18.1472   49.0000 
  20.4216   12.2500   -8.7444  267.4849    5.5574   -0.0079    1.8560   45.3664 -180.5625  -18.1428   49.0000 
  20.5740   12.2500   -8.7444  270.3308    5.5574   -0.0079    1.8560   45.3664 -180.5625  -18.1436   49.0000 
  20.7264   12.2500   -8.7444  268.5674    5.5574   -0.0081    1.8560   45.3664 -180.5625  -18.1498   49.0000 
  20.8788   12.2500   -8.7444  266.9411    5.5574   -0.0082    1.8560   45.3664 -180.5625  -18.1546   49.0000 
  21.0312   12.2500   -8.7444  264.2985    5.5574   -0.0081    1.8560   45.3664 -180.5625  -18.1494   49.0000 
  21.1836   12.2500   -8.7444  266.0927    5.5574   -0.0082    1.8560   45.3664 -180.5625  -18.1528   49.0000 
  21.3360   12.2500   -8.7444  267.5157    5.5574   -0.0082    1.8560   45.3664 -180.5625  -18.1551   49.0000 
  21.4884   12.2500   -8.7444  266.8233    5.5574   -0.0086    1.8560   45.3664 -180.5625  -18.1660   49.0000 
  21.6408   12.2500   -8.7444  263.3675    5.5574   -0.0090    1.8560   45.3664 -180.5625  -18.1804   49.0000 
  21.7932   12.2500   -8.7444  260.1151    5.5574   -0.0098    1.8560   45.3664 -180.5625  -18.2079   49.0000 
  21.9456   12.2500   -8.7444  252.3642    5.5574   -0.0097    1.8560   45.3664 -180.5625  -18.2033   49.0000 
  22.0980   12.2500   -8.7444  259.8856    5.5574   -0.0081    1.8560   45.3664 -180.5625  -18.1516   49.0000 
  22.2504   12.2500   -8.7444  254.8036    5.5574   -0.0067    1.8560   45.3664 -180.5625  -18.1021   49.0000 
  22.4028   12.2500   -8.7444  269.1420    5.5574   -0.0065    1.8560   45.3664 -180.5625  -18.0955   49.0000 
  22.5552   12.2500   -8.7444  256.9452    5.5574   -0.0074    1.8560   45.3664 -180.5625  -18.1276   49.0000 
  22.7076   12.2500   -8.7444  259.3907    5.5574   -0.0078    1.8560   45.3664 -180.5625  -18.1388   49.0000 
  22.8600   12.2500   -8.7444  256.5447    5.5574   -0.0079    1.8560   45.3664 -180.5625  -18.1441   49.0000 
  23.0124   12.2500   -8.7444  268.9448    5.5574   -0.0079    1.8560   45.3664 -180.5625  -18.1429   49.0000 
  23.1648   12.2500   -8.7444  272.5977    5.5574   -0.0082    1.8560   45.3664 -180.5625  -18.1533   49.0000 
  23.3172   12.2500   -8.7444  282.6965    5.5574   -0.0082    1.8560   45.3664 -180.5625  -18.1548   49.0000 
  23.4696   12.2500   -8.7444  279.6473    5.5574   -0.0083    1.8560   45.3664 -180.5625  -18.1577   49.0000 
  23.6220   12.2500   -8.7444  271.3462    5.5574   -0.0082    1.8560   45.3664 -180.5625  -18.1540   49.0000 
  23.7744   12.2500   -8.7444  263.2801    5.5574   -0.0082    1.8560   45.3664 -180.5625  -18.1539   49.0000 
  23.9268   12.2500   -8.7444  256.7752    5.5574   -0.0082    1.8560   45.3664 -180.5625  -18.1528   49.0000 
  24.0792   12.2500   -8.7444  256.3354    5.5574   -0.0081    1.8560   45.3664 -180.5625  -18.1500   49.0000 
  24.2316   12.2500   -8.7444  255.3470    5.5574   -0.0079    1.8560   45.3664 -180.5625  -18.1436   49.0000 
  24.3840   12.2500   -8.7444  254.7371    5.5574   -0.0078    1.8560   45.3664 -180.5625  -18.1406   49.0000 
  24.5364   12.2500   -8.7444  266.5274    5.5574   -0.0078    1.8560   45.3664 -180.5625  -18.1407   49.0000 
  24.6888   12.2500   -8.7444  262.2061    5.5574   -0.0079    1.8560   45.3664 -180.5625  -18.1432   49.0000 
  24.8412   12.2500   -8.7444  261.5963    5.5574   -0.0079    1.8560   45.3664 -180.5625  -18.1431   49.0000 
  24.9936   12.2500   -8.7444  269.1176    5.5574   -0.0078    1.8560   45.3664 -180.5625  -18.1394   49.0000 
  25.1460   12.2500   -8.7444  260.6042    5.5574   -0.0078    1.8560   45.3664 -180.5625  -18.1392   49.0000 
  25.2984   12.2500   -8.7444  268.3363    5.5574   -0.0077    1.8560   45.3664 -180.5625  -18.1369   49.0000 
  25.4508   12.2500   -8.7444  257.4773    5.5574   -0.0079    1.8560   45.3664 -180.5625  -18.1433   49.0000 
  25.6032   12.2500   -8.7444  270.4872    5.5574   -0.0078    1.8560   45.3664 -180.5625  -18.1410   49.0000 
  25.7556   12.2500   -8.7444  267.4306    5.5574   -0.0080    1.8560   45.3664 -180.5625  -18.1471   49.0000 
  25.9080   12.2500   -8.7444  260.1151    5.5574   -0.0080    1.8560   45.3664 -180.5625  -18.1471   49.0000 
  26.0604   12.2500   -8.7444  258.8954    5.5574   -0.0079    1.8560   45.3664 -180.5625  -18.1442   49.0000 
  26.2128   12.2500   -8.7444  257.6757    5.5574   -0.0080    1.8560   45.3664 -180.5625  -18.1466   49.0000 
  26.3652   12.2500   -8.7444  268.1343    5.5574   -0.0079    1.8560   45.3664 -180.5625  -18.1428   49.0000 
  26.5176   12.2500   -8.7444  276.6720    5.5574   -0.0081    1.8560   45.3664 -180.5625  -18.1504   49.0000 
  26.6700   12.2500   -8.7444  276.6722    5.5574   -0.0082    1.8560   45.3664 -180.5625  -18.1534   49.0000 
