~VERSION INFORMATION
 VERS.                 2.0:   CWLS LOG ASCII STANDARD - VERSION 2.0
 WRAP.                  NO:   SINGLE LINE PER DEPTH STEP
 CREA.                 30/01/2020 17:28:45
#CREATED USING IP VERSION 4.5.2019.2902 BY RMOTA ON 30/01/2020 17:28:45
~WELL INFORMATION
#MNEM.UNIT       DATA                          DESCRIPTION MNEMONIC
#---------      ---------------------------   --------------------------
 STRT    .M         5.0000                    : START DEPTH
 STOP    .M         2977.0000                 : STOP DEPTH
 STEP    .M         0.1000                    : STEP VALUE
 NULL    .      -999.0000                     : NULL VALUE
 DATE    .      30/01/2020                    : LAS file Creation Date
 WELL   .      7-MP-53D-BA      : Well Name
 COMP   .      PETROBRAS        : Company
 FLD    .      MASSAPE          : Field
 STATE  .      BAHIA            : State
 API    .      20240027945      : API Number
 UWI    .                       : Unique Well Identifier (UWI)
 LOC    .                       : Location
 TOWN   .      -999.25          : Township
 SCT    .      -999.25          : Section
 RANG   .      -999.25          : Range
 PDAT   .      NM               : Permanent Datum
 EPDAT  .      0.00             : Elevation of Permanent Datum
 LGMEA  .      MR               : Log Measured from
 DRMEA  .      MR               : Drill Measured From
 APDAT  .      64.90            : Elevation Above Permanent Datum
 KB     .      -999.25          : KB Elevation
 DF     .      64.90            : DF Elevation
 GL     .      56.80            : GL Elevation
 RWS    .      -999             : Def_Rw
 WST    .      -999             : Def_Rwt
 PROV   .                       : Province
 SRVC   .                       : Contractor
 GDAT   .      WGS 84           : Geodatum
 LONG   .      -38.4325436115265: Longitude
 LATI   .      0                : Latitude
 COORDIN.                       : Grid System
 XCOORD .                       : X or East-West Coordinate
 YCOORD .                       : Y or North-South Coordinate
~CURVE INFORMATION
#MNEM              UNIT       API CODE   Curve Type Comments
#----------  --------------- ----------  ---------- -----------
 DEPTH      .M                         : Depth       
 DEPTH      .M                         : Depth       
 DRDN       .                          :             
 GR         .api                       : GammaRay    
 CAL        .in                        : Caliper     
 Res        .                          :             
 N_Res      .                          :             
 ILD        .ohmm                      : DeepRes     
 RHOB       .g/cc                      : Density     Loaded from DLIS: 7-mp-53d-ba_raw-3.dlis
 NPHI       .dec                       : Neutron     Loaded from DLIS: 7-mp-53d-ba_raw-3.dlis
 Lith_new   .                          :             
~A  DEPTH   DEPTH      DRDN       GR       CAL       Res      N_Res      ILD       RHOB      NPHI    Lith_new 
# ...
1895.7000 1895.7000 -999.0000   95.4896    8.8658 -999.0000 -999.0000    2.0427 -999.0000 -999.0000 -999.0000 
1895.8000 1895.8000 -999.0000   96.7377    8.8622 -999.0000 -999.0000    2.0651 -999.0000 -999.0000 -999.0000 
1895.9000 1895.9000 -999.0000   99.4457    8.8627 -999.0000 -999.0000    2.0841 -999.0000 -999.0000 -999.0000 
1896.0000 1896.0000 -999.0000  102.0282    8.8636 -999.0000 -999.0000    2.1042 -999.0000 -999.0000 -999.0000 
1896.1000 1896.1000 -999.0000  102.1146    8.8692 -999.0000 -999.0000    2.1351 -999.0000 -999.0000 -999.0000 
1896.2000 1896.2000 -999.0000   99.8147    8.8717 -999.0000 -999.0000    2.1411 -999.0000 -999.0000 -999.0000 
1896.3000 1896.3000 -999.0000   95.3326    8.8650 -999.0000 -999.0000    2.1395 -999.0000 -999.0000 -999.0000 
1896.4000 1896.4000 -999.0000   89.5004    8.8673 -999.0000 -999.0000    2.1084 -999.0000 -999.0000 -999.0000 
1896.5000 1896.5000 -999.0000   88.7704    8.8624 -999.0000 -999.0000    2.0814 -999.0000 -999.0000 -999.0000 
1896.6000 1896.6000 -999.0000   89.9400    8.8613 -999.0000 -999.0000    2.0564 -999.0000 -999.0000 -999.0000 
1896.7000 1896.7000 -999.0000   91.8474    8.8548 -999.0000 -999.0000    2.0444 -999.0000 -999.0000 -999.0000 
1896.8000 1896.8000 -999.0000   98.5901    8.8533 -999.0000 -999.0000    2.0858 -999.0000 -999.0000 -999.0000 
1896.9000 1896.9000 -999.0000  100.4348    8.8524 -999.0000 -999.0000    2.1464 -999.0000 -999.0000 -999.0000 
1897.0000 1897.0000 -999.0000  100.8744    8.8487 -999.0000 -999.0000    2.2353 -999.0000 -999.0000 -999.0000 
1897.1000 1897.1000 -999.0000   96.5650    8.8482 -999.0000 -999.0000    2.4656 -999.0000 -999.0000 -999.0000 
1897.2000 1897.2000 -999.0000   93.7705    8.8510 -999.0000 -999.0000    2.5781 -999.0000 -999.0000 -999.0000 
1897.3000 1897.3000 -999.0000   90.5208    8.8398 -999.0000 -999.0000    2.6692 -999.0000 -999.0000 -999.0000 
1897.4000 1897.4000 -999.0000   86.4155    8.8538 -999.0000 -999.0000    2.7839 -999.0000 -999.0000 -999.0000 
1897.5000 1897.5000 -999.0000   86.7609    8.8348 -999.0000 -999.0000    2.8115 -999.0000 -999.0000 -999.0000 
1897.6000 1897.6000 -999.0000   88.7704    8.8395 -999.0000 -999.0000    2.7787 -999.0000 -999.0000 -999.0000 
1897.7000 1897.7000 -999.0000   93.6842    8.8394 -999.0000 -999.0000    2.5323 -999.0000 -999.0000 -999.0000 
1897.8000 1897.8000 -999.0000   93.9118    8.8269 -999.0000 -999.0000    2.4172 -999.0000 -999.0000 -999.0000 
1897.9000 1897.9000 -999.0000   94.9009    8.8348 -999.0000 -999.0000    2.3505 -999.0000 -999.0000 -999.0000 
1898.0000 1898.0000 -999.0000   99.0690    8.8622 -999.0000 -999.0000    2.3787 -999.0000 -999.0000 -999.0000 
1898.1000 1898.1000 -999.0000  101.5337    8.8509 -999.0000 -999.0000    2.4770 -999.0000 -999.0000 -999.0000 
1898.2000 1898.2000 -999.0000  102.4129    8.8560 -999.0000 -999.0000    2.6255 -999.0000 -999.0000 -999.0000 
1898.3000 1898.3000 -999.0000  101.4866    8.8531 -999.0000 -999.0000    2.7924 -999.0000 -999.0000 -999.0000 
1898.4000 1898.4000 -999.0000   98.4096    8.8701 -999.0000 -999.0000    2.9505 -999.0000 -999.0000 -999.0000 
1898.5000 1898.5000 -999.0000   96.4080    8.8573 -999.0000 -999.0000    2.8895 -999.0000 -999.0000 -999.0000 
1898.6000 1898.6000 -999.0000   93.9746    8.8468 -999.0000 -999.0000    2.7696 -999.0000 -999.0000 -999.0000 
1898.7000 1898.7000 -999.0000   92.4911    8.8522 -999.0000 -999.0000    2.4801 -999.0000 -999.0000 -999.0000 
1898.8000 1898.8000 -999.0000   94.5241    8.8619 -999.0000 -999.0000    2.3577 -999.0000 -999.0000 -999.0000 
1898.9000 1898.9000 -999.0000   96.9339    8.8458 -999.0000 -999.0000    2.2807 -999.0000 -999.0000 -999.0000 
1899.0000 1899.0000 -999.0000   99.8539    8.8423 -999.0000 -999.0000    2.3064 -999.0000 -999.0000 -999.0000 
1899.1000 1899.1000    3.9106   99.6969    8.8458 -999.0000 -999.0000    2.3939    2.5486    0.2382   57.0000 
1899.2000 1899.2000    3.7719   99.5870    8.8463 -999.0000 -999.0000    2.4928    2.5580    0.2284   57.0000 
1899.3000 1899.3000    4.0114   95.7957    8.8536 -999.0000 -999.0000    2.5715    2.5850    0.2193   57.0000 
1899.4000 1899.4000    4.6032   94.3043    8.8404 -999.0000 -999.0000    2.5406    2.5918    0.2330   57.0000 
1899.5000 1899.5000    4.5159   94.1316    8.8383 -999.0000 -999.0000    2.5007    2.5929    0.2297   57.0000 
1899.6000 1899.6000    4.6417   95.2149    8.8649 -999.0000 -999.0000    2.4593    2.5882    0.2363   57.0000 
1899.7000 1899.7000    4.6524   93.5978    8.8684 -999.0000 -999.0000    2.4488    2.5860    0.2380   57.0000 
1899.8000 1899.8000    4.5015   91.3921    8.8713 -999.0000 -999.0000    2.4327    2.5861    0.2334   57.0000 
1899.9000 1899.9000    4.4415   90.3089    8.8724 -999.0000 -999.0000    2.4056    2.5890    0.2298   57.0000 
1900.0000 1900.0000    4.5243   95.8193    8.8760 -999.0000 -999.0000    2.3297    2.5891    0.2323   57.0000 
1900.1000 1900.1000    4.9414  100.3170    8.8762 -999.0000 -999.0000    2.2961    2.5851    0.2472   57.0000 
1900.2000 1900.2000    4.8770  105.2623    8.8926 -999.0000 -999.0000    2.2693    2.5747    0.2515   57.0000 
1900.3000 1900.3000    3.8896  108.3314    8.8882 -999.0000 -999.0000    2.2145    2.5540    0.2343   57.0000 
1900.4000 1900.4000    3.9896  107.7584    8.9433 -999.0000 -999.0000    2.1743    2.5483    0.2407   57.0000 
1900.5000 1900.5000    4.3672  105.3015    8.9482 -999.0000 -999.0000    2.1293    2.5479    0.2523   57.0000 
1900.6000 1900.6000    5.3963  104.7049    8.9462 -999.0000 -999.0000    2.0643    2.5628    0.2742   57.0000 
1900.7000 1900.7000    5.4777  105.4742    8.9589 -999.0000 -999.0000    2.0496    2.5695    0.2726   57.0000 
1900.8000 1900.8000    5.8056  107.1932    8.9858 -999.0000 -999.0000    2.0510    2.5788    0.2769   57.0000 
1900.9000 1900.9000    5.1272  105.3957    8.9852 -999.0000 -999.0000    2.1173    2.5856    0.2525   57.0000 
1901.0000 1901.0000    5.2333  102.7582    8.9470 -999.0000 -999.0000    2.1055    2.5853    0.2558   57.0000 
1901.1000 1901.1000    5.6137   99.7754    8.9492 -999.0000 -999.0000    2.0628    2.5760    0.2728   57.0000 
1901.2000 1901.2000    4.9221   95.7643    8.9419 -999.0000 -999.0000    1.9784    2.5494    0.2680   57.0000 
1901.3000 1901.3000    4.7682   96.1882    8.9378 -999.0000 -999.0000    1.9387    2.5422    0.2677   57.0000 
1901.4000 1901.4000    5.1380   97.2714    8.9464 -999.0000 -999.0000    1.9096    2.5403    0.2800   57.0000 
1901.5000 1901.5000    5.0414   98.5352    8.9658 -999.0000 -999.0000    1.8976    2.5389    0.2779   57.0000 
1901.6000 1901.6000    4.7261  100.3484    8.9607 -999.0000 -999.0000    1.9353    2.5360    0.2702   57.0000 
1901.7000 1901.7000    4.6721   99.4065    8.9404 -999.0000 -999.0000    1.9848    2.5313    0.2714   57.0000 
1901.8000 1901.8000    4.3664   98.1349    8.9512 -999.0000 -999.0000    2.0468    2.5335    0.2609   57.0000 
1901.9000 1901.9000    3.9507   94.7596    8.9552 -999.0000 -999.0000    2.1557    2.5438    0.2422   57.0000 
1902.0000 1902.0000    3.9722   95.1364    8.9523 -999.0000 -999.0000    2.1808    2.5486    0.2400   57.0000 
1902.1000 1902.1000    4.0748   95.7957    8.9594 -999.0000 -999.0000    2.1802    2.5483    0.2433   57.0000 
1902.2000 1902.2000    4.4975   97.5776    8.9434 -999.0000 -999.0000    2.1347    2.5505    0.2546   57.0000 
1902.3000 1902.3000    4.7753   98.2291    8.9218 -999.0000 -999.0000    2.1213    2.5568    0.2592   57.0000 
1902.4000 1902.4000    5.5602   98.9120    8.9134 -999.0000 -999.0000    2.1281    2.5694    0.2752   57.0000 
1902.5000 1902.5000    5.6974   99.8696    8.9055 -999.0000 -999.0000    2.1795    2.5807    0.2725   57.0000 
1902.6000 1902.6000    5.4702   98.4018    8.8990 -999.0000 -999.0000    2.2147    2.5792    0.2666   57.0000 
1902.7000 1902.7000    5.1588   97.1851    8.8927 -999.0000 -999.0000    2.2599    2.5691    0.2633   57.0000 
1902.8000 1902.8000    5.0812   96.5179    8.8998 -999.0000 -999.0000    2.3429    2.5551    0.2694   57.0000 
1902.9000 1902.9000    4.9967   99.2103    8.8979 -999.0000 -999.0000    2.3633    2.5513    0.2691   57.0000 
