~VERSION INFORMATION
 VERS.                 2.0:   CWLS LOG ASCII STANDARD - VERSION 2.0
 WRAP.                  NO:   SINGLE LINE PER DEPTH STEP
 CREA.                 06/02/2020 16:08:49
#CREATED USING IP VERSION 4.5.2019.2902 BY RMOTA ON 06/02/2020 16:08:49
~WELL INFORMATION
#MNEM.UNIT       DATA                          DESCRIPTION MNEMONIC
#---------      ---------------------------   --------------------------
 STRT    .M         -0.4572                   : START DEPTH
 STOP    .M         3564.6360                 : STOP DEPTH
 STEP    .M         0.1524                    : STEP VALUE
 NULL    .      -999.0000                     : NULL VALUE
 DATE    .      06/02/2020                    : LAS file Creation Date
 WELL   .      7-MP-28D-BA        : Well Name
 COMP   .      PETROBRAS          : Company
 FLD    .      MASSAPE            : Field
 STATE  .      BAHIA              : State
 COUNT  .      BRASIL             : Country
 API    .      20240021354        : API Number
 UWI    .                         : Unique Well Identifier (UWI)
 LOC    .      N= 8.609.866,070 m : Location
 TOWN   .      CATU               : Township
 SCT    .      OH WIRELINE        : Section
 RANG   .      SCHLUMBERGER       : Range
 PDAT   .      NM                 : Permanent Datum
 EPDAT  .      0                  : Elevation of Permanent Datum
 LGMEA  .      MR                 : Log Measured from
 DRMEA  .      MR                 : Drill Measured From
 APDAT  .      105.72             : Elevation Above Permanent Datum
 KB     .      106.02             : KB Elevation
 DF     .      105.72             : DF Elevation
 GL     .      96.31999           : GL Elevation
 RWS    .      -999               : Def_Rw
 WST    .      -999               : Def_Rwt
 BHS    .      OPEN               : Completion Status
 PROV   .                         : Province
 SRVC   .                         : Contractor
 GDAT   .      WGS 84             : Geodatum
 LONG   .      -38.4270011107127  : Longitude
 LATI   .      -12.5743130556742  : Latitude
 COORDIN.                         : Grid System
 XCOORD .                         : X or East-West Coordinate
 YCOORD .                         : Y or North-South Coordinate
~CURVE INFORMATION
#MNEM              UNIT       API CODE   Curve Type Comments
#----------  --------------- ----------  ---------- -----------
 DEPTH      .M                         : Depth       
 BS         .in                        : BitSize     
 GR         .gAPI                      : GammaRay    
 CAL        .in                        : Caliper     
 RT         .ohm.m                     : DeepRes     
 NPHI       .m3/m3                     : Neutron     
 RHOB       .g/cm3                     :             
 DT         .us/ft                     : Sonic       
 SP         .mV                        : SP          Loaded from DLIS: 7-mp-28d-ba_raw-2p.dlis
 DRDN       .                          :             
 Lith_new   .                          :             
~A  DEPTH     BS        GR       CAL        RT       NPHI      RHOB       DT        SP       DRDN    Lith_new 
# ...
3114.5988    8.5000   99.3150    9.2290    8.1808    0.2681    2.5688   67.2988 -999.0000    5.2740   57.0000 
3114.7512    8.5000   91.8376    8.9565    8.1573    0.2710    2.5660   66.3759 -999.0000    5.3648   57.0000 
3114.9036    8.5000  100.1774    9.1609    8.0147    0.2684    2.5675   70.5910 -999.0000    5.3223   57.0000 
3115.0560    8.5000  103.5871    9.0246    7.9955    0.2597    2.5784   72.0249 -999.0000    5.3324   57.0000 
3115.2084    8.5000  106.3529    9.4789    7.8897    0.2447    2.5914   72.2083 -999.0000    5.0463   57.0000 
3115.3608    8.5000  100.4337    9.0473    7.7393    0.2557    2.6058   74.3342 -999.0000    5.7664   57.0000 
3115.5132    8.5000   96.6795    8.7861    7.6491    0.2392    2.6198   72.7102 -999.0000    5.4155   57.0000 
3115.6656    8.5000   95.3283    8.7634    7.3068    0.2234    2.6247   74.2254 -999.0000    4.9619   57.0000 
3115.8180    8.5000   95.5300    8.8202    7.1078    0.2161    2.6215   74.6526 -999.0000    4.5459   57.0000 
3115.9704    8.5000   98.9002    9.0246    7.3188    0.2276    2.6001   72.0615 -999.0000    4.3696   57.0000 
3116.1228    8.5000   98.0919    8.9792    7.4375    0.2393    2.5659   67.9117 -999.0000    4.0906   57.0000 
3116.2752    8.5000   99.5991    8.9565    7.4076    0.2313    2.5449   66.5249 -999.0000    3.5741   57.0000 
3116.4276    8.5000   97.2393    8.8656    7.2992    0.2165    2.5579   65.7063 -999.0000    3.5926   57.0000 
3116.5800    8.5000  100.2707    8.8429    7.2455    0.2147    2.5874   67.7757 -999.0000    4.0463   57.0000 
3116.7324    8.5000   97.7549    8.8202    7.2328    0.2194    2.5997   67.7086 -999.0000    4.3319   57.0000 
3116.8848    8.5000   98.9044    8.8656    7.3872    0.2236    2.5999   69.1934 -999.0000    4.4426   57.0000 
3117.0372    8.5000   96.0751    8.9337    7.3985    0.2212    2.6004   73.3483 -999.0000    4.3791   57.0000 
3117.1896    8.5000  100.9823    9.0246    7.1225    0.2212    2.5915   73.2067 -999.0000    4.0760   57.0000 
3117.3420    8.5000  100.1755    9.0473    6.8401    0.2532    2.5707   75.6824 -999.0000    4.7274   57.0000 
3117.4944    8.5000  103.5449    8.9792    6.6931    0.2691    2.5609   75.8874 -999.0000    5.2155   57.0000 
3117.6468    8.5000  105.1616    9.0019    6.4494    0.3012    2.5755   76.0600 -999.0000    6.6949   57.0000 
3117.7992    8.5000  109.0629    8.9565    6.1545    0.2782    2.5920   76.0837 -999.0000    6.1678   57.0000 
3117.9516    8.5000  109.0435    9.0246    5.9635    0.3023    2.5942   77.1262 -999.0000    6.9340   57.0000 
3118.1040    8.5000  103.3264    9.0473    6.0262    0.2732    2.5898   74.7523 -999.0000    5.8961   57.0000 
3118.2564    8.5000   98.6183    9.2518    6.2004    0.2734    2.5853   75.2529 -999.0000    5.7297   57.0000 
3118.4088    8.5000  100.5226    8.8088    6.3462    0.2645    2.5712   74.4819 -999.0000    5.1913   57.0000 
3118.5612    8.5000  100.3791    8.8429    6.3914    0.2695    2.5683   74.5350 -999.0000    5.3216   57.0000 
3118.7136    8.5000   94.5294    8.8883    6.1299    0.2611    2.5688   77.0542 -999.0000    5.1338   57.0000 
3118.8660    8.5000   91.8376    8.9110    5.9582    0.2438    2.5677   75.9268 -999.0000    4.3418   57.0000 
3119.0184    8.5000   98.1024    9.0019    5.9497    0.2440    2.5397   76.0451 -999.0000    3.7460   57.0000 
3119.1708    8.5000  108.6603    8.9565    5.9831    0.2635    2.5241   76.0588 -999.0000    4.2756   57.0000 
3119.3232    8.5000  110.4757    8.9451    5.8854    0.2598    2.5383   75.8683 -999.0000    4.5791   57.0000 
3119.4756    8.5000  111.0109    9.0473    5.8437    0.2630    2.5500   75.4500 -999.0000    4.7548   57.0000 
3119.6280    8.5000  106.9691    9.0928    5.8096    0.2680    2.5410   77.4165 -999.0000    4.6286   57.0000 
3119.7804    8.5000  103.3995    9.0246    5.8111    0.2996    2.5234   75.6792 -999.0000    5.4311   57.0000 
3119.9328    8.5000   98.9618    8.9792    5.7709    0.3082    2.5419   74.5785 -999.0000    6.3397   57.0000 
3120.0852    8.5000  102.7332    9.0246    5.6958    0.3159    2.5642   74.2113 -999.0000    6.8900   57.0000 
3120.2376    8.5000  105.1582    8.9565    5.6316    0.3136    2.5764   72.5436 -999.0000    7.0057   57.0000 
3120.3900    8.5000  104.6147    8.7747    5.7703    0.2903    2.5668   75.7818 -999.0000    5.9165   57.0000 
3120.5424    8.5000  102.7993    8.7747    6.0775    0.2701    2.5690   73.3020 -999.0000    5.4956   57.0000 
3120.6948    8.5000   98.0941    8.9337    6.4083    0.2618    2.5741   76.8217 -999.0000    5.1492   57.0000 
3120.8472    8.5000   95.3699    9.0019    6.5365    0.2794    2.5685   76.2491 -999.0000    5.7035   57.0000 
3120.9996    8.5000   96.5802    9.1723    6.7918    0.2772    2.5752   71.3681 -999.0000    5.8041   57.0000 
3121.1520    8.5000   99.2025    9.0246    7.1952    0.2565    2.5942   70.0946 -999.0000    5.6769   57.0000 
3121.3044    8.5000   98.4911    8.9565    7.3157    0.2249    2.6370   66.9029 -999.0000    5.5124   57.0000 
3121.4568    8.5000   96.3354    8.9337    7.4670    0.2069    2.6661   68.4962 -999.0000    5.3311   57.0000 
3121.6092    8.5000   92.9062    9.0473    7.4186    0.1909    2.6775   71.3102 -999.0000    4.9105   57.0000 
3121.7616    8.5000   96.6836    9.1382    7.4124    0.2028    2.6635   74.0434 -999.0000    4.8717   57.0000 
3121.9140    8.5000   95.8753    9.2972    7.3566    0.2068    2.6424   75.4323 -999.0000    4.6271   57.0000 
3122.0664    8.5000  104.2165    9.3994    7.2622    0.2334    2.6254   75.0191 -999.0000    5.1848   57.0000 
3122.2188    8.5000  102.6028    9.4789    7.0896    0.2355    2.6102   76.1849 -999.0000    4.9362   57.0000 
3122.3712    8.5000  104.9618    9.5471    6.9906    0.2585    2.5883   77.1757 -999.0000    5.2051   57.0000 
3122.5236    8.5000  104.5576    9.6379    6.7556    0.2557    2.5642   76.6967 -999.0000    4.7131   57.0000 
3122.6760    8.5000  108.0243    9.7856    6.7276    0.2681    2.5645   76.7506 -999.0000    5.3144   57.0000 
3122.8284    8.5000  110.1113    9.7629    6.8948    0.2858    2.5764   77.1039 -999.0000    6.1127   57.0000 
3122.9808    8.5000  110.5155    9.8991    7.0212    0.2968    2.5817   76.3752 -999.0000    6.4906   57.0000 
3123.1332    8.5000  111.6882    9.8878    7.0987    0.2826    2.5654   76.1449 -999.0000    5.5772   57.0000 
3123.2856    8.5000  108.1892    9.8424    7.1888    0.2554    2.5506   78.4153 -999.0000    4.4893   57.0000 
3123.4380    8.5000  107.5829    9.8878    7.2248    0.2473    2.5484   76.3864 -999.0000    4.2392   57.0000 
3123.5904    8.5000  106.4384    9.8651    7.1212    0.2739    2.5561   76.5267 -999.0000    5.2913   57.0000 
3123.7428    8.5000  103.6144    9.8878    7.0306    0.2670    2.5561   77.2437 -999.0000    4.9803   57.0000 
3123.8952    8.5000  103.1411    9.8878    6.8689    0.2551    2.5494   75.7402 -999.0000    4.4348   57.0000 
3124.0476    8.5000  105.7481    9.9900    6.7625    0.2346    2.5419   76.6386 -999.0000    3.6394   57.0000 
3124.2000    8.5000  111.1943   10.0582    6.9816    0.2456    2.5434   75.4935 -999.0000    4.0830   57.0000 
3124.3524    8.5000  107.7165   10.0809    7.4938    0.2576    2.5515   75.0490 -999.0000    4.7023   57.0000 
3124.5048    8.5000   99.3958   10.0695    8.2826    0.2722    2.5659   73.4206 -999.0000    5.4824   57.0000 
3124.6572    8.5000   92.9225   10.1604    9.0456    0.2593    2.5740   72.4263 -999.0000    5.1357   57.0000 
3124.8096    8.5000   89.7438   10.1377    9.1901    0.2529    2.5691   73.7538 -999.0000    4.7216   57.0000 
3124.9620    8.5000   93.3747   10.0241    8.4335    0.2492    2.5462   74.9848 -999.0000    4.0067   57.0000 
3125.1144    8.5000  103.3519    9.9559    8.1526    0.2697    2.5150   73.4287 -999.0000    4.1378   57.0000 
3125.2668    8.5000  101.9939    9.8424    7.9274    0.2658    2.5029   73.8844 -999.0000    3.9335   57.0000 
3125.4192    8.5000  100.1785    9.7515    7.5729    0.2564    2.5172   72.7835 -999.0000    4.0857   57.0000 
3125.5716    8.5000   96.6746    9.7061    7.1603    0.2446    2.5509   72.3386 -999.0000    4.3949   57.0000 
