~VERSION INFORMATION
 VERS.                 2.0:   CWLS LOG ASCII STANDARD - VERSION 2.0
 WRAP.                  NO:   SINGLE LINE PER DEPTH STEP
 CREA.                 30/01/2020 17:31:38
#CREATED USING IP VERSION 4.5.2019.2902 BY RMOTA ON 30/01/2020 17:31:38
~WELL INFORMATION
#MNEM.UNIT       DATA                          DESCRIPTION MNEMONIC
#---------      ---------------------------   --------------------------
 STRT    .M         5.9400                    : START DEPTH
 STOP    .M         3362.3976                 : STOP DEPTH
 STEP    .M         0.1524                    : STEP VALUE
 NULL    .      -999.0000                     : NULL VALUE
 DATE    .      30/01/2020                    : LAS file Creation Date
 WELL   .      7-MP-31D-BA        : Well Name
 COMP   .      PETROBRAS          : Company
 FLD    .      MASSAPE            : Field
 STATE  .      BAHIA              : State
 COUNT  .      BRASIL             : Country
 API    .      20240021426        : API Number
 UWI    .                         : Unique Well Identifier (UWI)
 LOC    .      N= 8.608.492,720 m : Location
 TOWN   .      CATU               : Township
 SCT    .      OH WIRELINE        : Section
 RANG   .      SCHLUMBERGER       : Range
 PDAT   .      NM                 : Permanent Datum
 EPDAT  .      0                  : Elevation of Permanent Datum
 LGMEA  .      MR                 : Log Measured from
 DRMEA  .      MR                 : Drill Measured From
 APDAT  .      66.4               : Elevation Above Permanent Datum
 KB     .      66.7               : KB Elevation
 DF     .      66.4               : DF Elevation
 GL     .      57                 : GL Elevation
 RWS    .      -999               : Def_Rw
 WST    .      -999               : Def_Rwt
 BHS    .      OPEN               : Completion Status
 PROV   .                         : Province
 SRVC   .                         : Contractor
 GDAT   .      WGS 84             : Geodatum
 LONG   .      -38.4314536115858  : Longitude
 LATI   .      -12.5867413889037  : Latitude
 COORDIN.                         : Grid System
 XCOORD .                         : X or East-West Coordinate
 YCOORD .                         : Y or North-South Coordinate
~CURVE INFORMATION
#MNEM              UNIT       API CODE   Curve Type Comments
#----------  --------------- ----------  ---------- -----------
 DEPTH      .M                         : Depth       
 CALI       .inch                      : Caliper     
 BS         .in                        : BitSize     
 GR         .gAPI                      : GammaRay    
 RT         .ohm.m                     : DeepRes     
 NPHI       .m3/m3                     : Neutron     
 RHOB       .g/cm3                     :             
 DT         .us/ft                     : Sonic       
 SP         .mV                        : SP          
 N_Res      .                          :             
 Res        .                          :             
 DRDN       .                          :             
 Lith_new   .                          :             
 DEPTH      .M                         : Depth       
~A  DEPTH    CALI       BS        GR        RT       NPHI      RHOB       DT        SP      N_Res      Res       DRDN    Lith_new   DEPTH   
# ...
 266.5440   12.6548   12.2500   80.4892 -999.0000    0.6630    1.8213  101.1973  243.8125 -999.0000 -999.0000    3.5255   57.0000  266.5440 
 266.6964   12.6683   12.2500   82.4001 -999.0000    0.6630    1.8213  102.3763  243.8125 -999.0000 -999.0000    3.5255   57.0000  266.6964 
 266.8488   12.6910   12.2500   84.4536 -999.0000    0.6630    1.8213   99.8156  243.8125 -999.0000 -999.0000    3.5255   57.0000  266.8488 
 267.0012   12.6930   12.2500   84.1162 -999.0000    0.6630    1.8213  104.8235  243.8125 -999.0000 -999.0000    3.5255   57.0000  267.0012 
 267.1536   12.6707   12.2500   77.8572 -999.0000    0.6630    1.8213  106.5483  243.8125 -999.0000 -999.0000    3.5255   57.0000  267.1536 
 267.3060   12.6776   12.2500   75.7294 -999.0000    0.6630    1.8213  107.3510  243.8125 -999.0000 -999.0000    3.5255   57.0000  267.3060 
 267.4584   12.6778   12.2500   76.7285 -999.0000    0.6630    1.8213  111.2020  243.8125 -999.0000 -999.0000    3.5255   57.0000  267.4584 
 267.6108   12.6823   12.2500   77.6099 -999.0000    0.6630    1.8213  111.5621  243.8125 -999.0000 -999.0000    3.5256   57.0000  267.6108 
 267.7632   12.6510   12.2500   76.9955 -999.0000    0.6630    1.8213  115.5163  243.8125 -999.0000 -999.0000    3.5256   57.0000  267.7632 
 267.9156   12.6906   12.2500   77.7515 -999.0000    0.6630    1.8213  122.3778  243.8125 -999.0000 -999.0000    3.5257   57.0000  267.9156 
 268.0680   12.7341   12.2500   81.3463 -999.0000    0.6630    1.8213  128.9667  243.8125 -999.0000 -999.0000    3.5256   57.0000  268.0680 
 268.2204   12.6881   12.2500   84.9108 -999.0000    0.6630    1.8213  137.2995  243.8125 -999.0000 -999.0000    3.5256   57.0000  268.2204 
 268.3728   12.6601   12.2500   88.8594 -999.0000    0.6630    1.8213  -41.6838  243.8125 -999.0000 -999.0000    3.5255   57.0000  268.3728 
 268.5252   12.6774   12.2500   88.3461 -999.0000    0.6630    1.8213  -45.5896  243.8125 -999.0000 -999.0000    3.5255   57.0000  268.5252 
 268.6776   12.6599   12.2500   88.0492 -999.0000    0.6630    1.8213  -44.8245  243.8125 -999.0000 -999.0000    3.5255   57.0000  268.6776 
 268.8300   12.6146   12.2500   86.9328 -999.0000    0.6630    1.8213  -45.2674  243.8125 -999.0000 -999.0000    3.5255   57.0000  268.8300 
 268.9824   12.7155   12.2500   90.7108 -999.0000    0.6630    1.8213  -44.8474  243.8125 -999.0000 -999.0000    3.5255   57.0000  268.9824 
 269.1348   12.6922   12.2500   92.4007 -999.0000    0.6630    1.8213  -45.5364  243.8125 -999.0000 -999.0000    3.5256   57.0000  269.1348 
 269.2872   12.6736   12.2500   94.3679 -999.0000    0.6630    1.8213  -45.6219  243.8125 -999.0000 -999.0000    3.5256   57.0000  269.2872 
 269.4396   12.6373   12.2500   90.8370 -999.0000    0.6630    1.8213  -46.9468  243.8125 -999.0000 -999.0000    3.5256   57.0000  269.4396 
 269.5920   12.6454   12.2500   87.4445 -999.0000    0.6630    1.8213  -48.3616  243.8125 -999.0000 -999.0000    3.5256   57.0000  269.5920 
 269.7444   12.6681   12.2500   82.4056 -999.0000    0.6630    1.8213  -49.7681  243.8125 -999.0000 -999.0000    3.5255   57.0000  269.7444 
 269.8968   12.6955   12.2500   82.2236 -999.0000    0.6630    1.8213  -50.0979  243.8125 -999.0000 -999.0000    3.5255   57.0000  269.8968 
 270.0492   12.6917   12.2500   82.9935 -999.0000    0.6630    1.8213  -49.9953  243.8125 -999.0000 -999.0000    3.5255   57.0000  270.0492 
 270.2016   12.7364   12.2500   82.8468 -999.0000    0.6630    1.8213  -50.9064  243.8125 -999.0000 -999.0000    3.5255   57.0000  270.2016 
 270.3540   12.7509   12.2500   83.0711 -999.0000    0.6630    1.8213  -50.6212  243.8125 -999.0000 -999.0000    3.5255   57.0000  270.3540 
 270.5064   12.7019   12.2500   82.2501 -999.0000    0.6630    1.8213  -49.9712  243.8125 -999.0000 -999.0000    3.5256   57.0000  270.5064 
 270.6588   12.6783   12.2500   81.5689 -999.0000    0.6630    1.8213  -49.2876  243.8125 -999.0000 -999.0000    3.5256   57.0000  270.6588 
 270.8112   12.6778   12.2500   77.4737 -999.0000    0.6630    1.8213 -231.2387  243.8125 -999.0000 -999.0000    3.5256   57.0000  270.8112 
 270.9636   12.6823   12.2500   76.8240 -999.0000    0.6630    1.8213 -235.7847  243.8125 -999.0000 -999.0000    3.5256   57.0000  270.9636 
 271.1160   12.6734   12.2500   77.3617 -999.0000    0.6630    1.8213 -234.9303  243.8125 -999.0000 -999.0000    3.5255   57.0000  271.1160 
 271.2684   12.6777   12.2500   77.4792 -999.0000    0.6630    1.8213 -234.2582  243.8125 -999.0000 -999.0000    3.5255   57.0000  271.2684 
 271.4208   12.6643   12.2500   75.1676 -999.0000    0.6630    1.8213 -234.2742  243.8125 -999.0000 -999.0000    3.5255   57.0000  271.4208 
 271.5732   12.6326   12.2500   71.8607 -999.0000    0.6630    1.8213  -50.1473  243.8125 -999.0000 -999.0000    3.5255   57.0000  271.5732 
 271.7256   12.6677   12.2500   70.7886 -999.0000    0.6630    1.8213  136.9065  243.8125 -999.0000 -999.0000    3.5255   57.0000  271.7256 
 271.8780   12.6776   12.2500   70.1585 -999.0000    0.6630    1.8213  140.6169  243.8125 -999.0000 -999.0000    3.5256   57.0000  271.8780 
 272.0304   12.7136   12.2500   70.6455 -999.0000    0.6630    1.8213  139.1389  243.8125 -999.0000 -999.0000    3.5256   57.0000  272.0304 
 272.1828   12.6652   12.2500   69.3920 -999.0000    0.6630    1.8213  138.9437  243.8125 -999.0000 -999.0000    3.5257   57.0000  272.1828 
 272.3352   12.7088   12.2500   68.5349 -999.0000    0.6630    1.8213  137.8930  243.8125 -999.0000 -999.0000    3.5256   57.0000  272.3352 
 272.4876   12.6337   12.2500   67.9030 -999.0000    0.6630    1.8213  135.2072  243.8125 -999.0000 -999.0000    3.5256   57.0000  272.4876 
 272.6400   12.6140   12.2500   67.8882 -999.0000    0.6630    1.8213  136.1101  243.8125 -999.0000 -999.0000    3.5255   57.0000  272.6400 
 272.7924   12.5777   12.2500   67.4528 -999.0000    0.6630    1.8213  137.8119  243.8125 -999.0000 -999.0000    3.5255   57.0000  272.7924 
 272.9448   12.6171   12.2500   67.4423 -999.0000    0.6630    1.8213  142.3144  243.8125 -999.0000 -999.0000    3.5255   57.0000  272.9448 
 273.0972   12.5867   12.2500   67.2770 -999.0000    0.6630    1.8213  137.1454  243.8125 -999.0000 -999.0000    3.5255   57.0000  273.0972 
 273.2496   12.5546   12.2500   64.7881 -999.0000    0.6630    1.8213  -48.9629  243.8125 -999.0000 -999.0000    3.5255   57.0000  273.2496 
 273.4020   12.5449   12.2500   62.8346 -999.0000    0.6630    1.8213  128.0534  243.8125 -999.0000 -999.0000    3.5256   57.0000  273.4020 
 273.5544   12.5268   12.2500   64.4418 -999.0000    0.6630    1.8213  132.8219  243.8125 -999.0000 -999.0000    3.5256   57.0000  273.5544 
 273.7068   12.5218   12.2500   67.8429 -999.0000    0.6630    1.8213  140.1530  243.8125 -999.0000 -999.0000    3.5256   57.0000  273.7068 
 273.8592   12.4948   12.2500   71.9664 -999.0000    0.6630    1.8213  146.0183  243.8125 -999.0000 -999.0000    3.5256   57.0000  273.8592 
 274.0116   12.4897   12.2500   74.2682 -999.0000    0.6630    1.8213  146.2474  243.8125 -999.0000 -999.0000    3.5255   57.0000  274.0116 
 274.1640   12.4717   12.2500   75.9444 -999.0000    0.6630    1.8213  147.5509  243.8125 -999.0000 -999.0000    3.5255   57.0000  274.1640 
 274.3164   12.4668   12.2500   75.7082 -999.0000    0.6630    1.8213  146.5158  243.8125 -999.0000 -999.0000    3.5255   57.0000  274.3164 
 274.4688   12.4487   12.2500   72.7262 -999.0000    0.6630    1.8213  128.4917  243.8125 -999.0000 -999.0000    3.5255   57.0000  274.4688 
 274.6212   12.4528   12.2500   66.6829 -999.0000    0.6630    1.8213  125.6632  243.8125 -999.0000 -999.0000    3.5255   57.0000  274.6212 
 274.7736   12.5022   12.2500   64.6651 -999.0000    0.6630    1.8213  124.3682  243.8125 -999.0000 -999.0000    3.5256   57.0000  274.7736 
 274.9260   12.5571   12.2500   65.1157 -999.0000    0.6630    1.8213  124.6373  243.8125 -999.0000 -999.0000    3.5256   57.0000  274.9260 
 275.0784   12.5450   12.2500   69.3923 -999.0000    0.6630    1.8213  142.2138  243.8125 -999.0000 -999.0000    3.5256   57.0000  275.0784 
