~VERSION INFORMATION
 VERS.                 2.0:   CWLS LOG ASCII STANDARD - VERSION 2.0
 WRAP.                  NO:   SINGLE LINE PER DEPTH STEP
 CREA.                 30/01/2020 17:31:38
#CREATED USING IP VERSION 4.5.2019.2902 BY RMOTA ON 30/01/2020 17:31:38
~WELL INFORMATION
#MNEM.UNIT       DATA                          DESCRIPTION MNEMONIC
#---------      ---------------------------   --------------------------
 STRT    .M         5.9400                    : START DEPTH
 STOP    .M         3362.3976                 : STOP DEPTH
 STEP    .M         0.1524                    : STEP VALUE
 NULL    .      -999.0000                     : NULL VALUE
 DATE    .      30/01/2020                    : LAS file Creation Date
 WELL   .      7-MP-31D-BA        : Well Name
 COMP   .      PETROBRAS          : Company
 FLD    .      MASSAPE            : Field
 STATE  .      BAHIA              : State
 COUNT  .      BRASIL             : Country
 API    .      20240021426        : API Number
 UWI    .                         : Unique Well Identifier (UWI)
 LOC    .      N= 8.608.492,720 m : Location
 TOWN   .      CATU               : Township
 SCT    .      OH WIRELINE        : Section
 RANG   .      SCHLUMBERGER       : Range
 PDAT   .      NM                 : Permanent Datum
 EPDAT  .      0                  : Elevation of Permanent Datum
 LGMEA  .      MR                 : Log Measured from
 DRMEA  .      MR                 : Drill Measured From
 APDAT  .      66.4               : Elevation Above Permanent Datum
 KB     .      66.7               : KB Elevation
 DF     .      66.4               : DF Elevation
 GL     .      57                 : GL Elevation
 RWS    .      -999               : Def_Rw
 WST    .      -999               : Def_Rwt
 BHS    .      OPEN               : Completion Status
 PROV   .                         : Province
 SRVC   .                         : Contractor
 GDAT   .      WGS 84             : Geodatum
 LONG   .      -38.4314536115858  : Longitude
 LATI   .      -12.5867413889037  : Latitude
 COORDIN.                         : Grid System
 XCOORD .                         : X or East-West Coordinate
 YCOORD .                         : Y or North-South Coordinate
~CURVE INFORMATION
#MNEM              UNIT       API CODE   Curve Type Comments
#----------  --------------- ----------  ---------- -----------
 DEPTH      .M                         : Depth       
 CALI       .inch                      : Caliper     
 BS         .in                        : BitSize     
 GR         .gAPI                      : GammaRay    
 RT         .ohm.m                     : DeepRes     
 NPHI       .m3/m3                     : Neutron     
 RHOB       .g/cm3                     :             
 DT         .us/ft                     : Sonic       
 SP         .mV                        : SP          
 N_Res      .                          :             
 Res        .                          :             
 DRDN       .                          :             
 Lith_new   .                          :             
 DEPTH      .M                         : Depth       
~A  DEPTH    CALI       BS        GR        RT       NPHI      RHOB       DT        SP      N_Res      Res       DRDN    Lith_new   DEPTH   
# ...
 475.0272   12.0441   12.2500   96.6781   10.1588    0.3330    2.5045   99.1883  257.2500 -999.0000 -999.0000    6.2012   57.0000  475.0272 
 475.1796   12.0191   12.2500   90.3309    9.7919    0.3122    2.5016  102.2108  257.2500 -999.0000 -999.0000    5.3904   57.0000  475.1796 
 475.3320   12.0432   12.2500   90.5282    9.4808    0.2977    2.4942  104.0345  257.0669 -999.0000 -999.0000    4.7681   57.0000  475.3320 
 475.4844   12.0067   12.2500   84.7466    9.0810    0.3190    2.4890  105.0351  257.0015 -999.0000 -999.0000    5.3783   57.0000  475.4844 
 475.6368   12.0305   12.2500   92.0978    8.8405    0.3706    2.4848  104.5230  256.6949 -999.0000 -999.0000    7.0397   57.0000  475.6368 
 475.7892   12.0435   12.2500   87.1189    8.2387    0.3964    2.4824  105.9068  256.7485 -999.0000 -999.0000    7.8158   57.0000  475.7892 
 475.9416   12.0561   12.2500   88.3925    8.0846    0.3677    2.4735  101.1886  257.2992 -999.0000 -999.0000    6.6641   57.0000  475.9416 
 476.0940   12.0564   12.2500   77.2596    8.5279    0.3306    2.4637  100.0656  256.8853 -999.0000 -999.0000    5.2189   57.0000  476.0940 
 476.2464   12.0564   12.2500   71.6647   10.2673    0.3203    2.4561   98.9363  257.0581 -999.0000 -999.0000    4.7923   57.0000  476.2464 
 476.3988   12.1058   12.2500   72.1551   12.3542    0.3395    2.4552   96.6315  257.3676 -999.0000 -999.0000    5.4056   57.0000  476.3988 
 476.5512   12.0576   12.2500   78.9416   12.3714    0.3476    2.4553   96.1266  257.0699 -999.0000 -999.0000    5.7124   57.0000  476.5512 
 476.7036   12.0564   12.2500   82.8276   13.0334    0.3369    2.4610   94.6701  257.2456 -999.0000 -999.0000    5.5168   57.0000  476.7036 
 476.8560   12.0564   12.2500   84.8291   13.7209    0.3642    2.4779   94.0492  257.3110 -999.0000 -999.0000    6.8647   57.0000  476.8560 
 477.0084   12.0564   12.2500   84.8753   12.8426    0.3689    2.5001   98.6013  257.6786 -999.0000 -999.0000    7.3809   57.0000  477.0084 
 477.1608   12.0564   12.2500   89.5739   11.3556    0.3838    2.4975  102.4729  257.8095 -999.0000 -999.0000    7.6245   57.0000  477.1608 
 477.3132   12.0564   12.2500   94.0302    9.6513    0.3734    2.4768  105.2166  257.9345 -999.0000 -999.0000    6.8189   57.0000  477.3132 
 477.4656   12.0811   12.2500   90.4656    8.2290    0.3562    2.4506  105.7780  258.1206 -999.0000 -999.0000    5.7326   57.0000  477.4656 
 477.6180   12.3534   12.2500   85.8359    8.7108    0.3318    2.4326  103.7945  258.0640 -999.0000 -999.0000    4.5978   57.0000  477.6180 
 477.7704   12.3105   12.2500   73.2799   12.0413    0.3123    2.4042  100.7719  258.6117 -999.0000 -999.0000    3.2412   57.0000  477.7704 
 477.9228   12.3587   12.2500   61.8121   16.1717    0.3247    2.3776   99.8547  258.9911 -999.0000 -999.0000    3.3166   57.0000  477.9228 
 478.0752   12.3846   12.2500   46.2885   20.5084    0.2892    2.3823   92.1678  259.0610 -999.0000 -999.0000    2.4246   57.0000  478.0752 
 478.2276   12.4346   12.2500   35.5992   29.6416    0.2473    2.4161   84.8425  258.9405 -999.0000 -999.0000    1.8626   57.0000  478.2276 
 478.3800   12.1642   12.2500   33.6735   46.0579    0.2297    2.4449   79.2976  258.8155 -999.0000 -999.0000    1.5491   57.0000  478.3800 
 478.5324   12.0588   12.2500   30.1175   64.1319    0.2578    2.4194   76.7603  258.8125 -999.0000 -999.0000    1.6341   57.0000  478.5324 
 478.6848   12.0564   12.2500   28.3975   70.4514    0.2789    2.3500   84.9511  258.5074 -999.0000 -999.0000    0.7086   57.0000  478.6848 
 478.8372   12.0317   12.2500   25.6747   68.4550    0.2718    2.2633   93.2244  258.3780 -999.0000 -999.0000   -1.1765   49.0000  478.8372 
 478.9896   12.0064   12.2500   26.0086   62.6810    0.2915    2.1997   96.5965  258.1309 -999.0000 -999.0000   -1.6165   49.0000  478.9896 
 479.1420   12.2775   12.2500   29.3270   45.9588    0.2984    2.1692   97.7907  258.2470 -999.0000 -999.0000   -1.7182   49.0000  479.1420 
 479.2944   11.9877   12.2500   29.8372   34.7494    0.3109    2.1730   99.1501  258.2500 -999.0000 -999.0000   -1.0805   49.0000  479.2944 
 479.4468   12.2028   12.2500   32.3245   29.6319    0.2876    2.1954  101.4205  258.1280 -999.0000 -999.0000   -1.2967   49.0000  479.4468 
 479.5992   12.3563   12.2500   30.7107   27.1016    0.2796    2.2271  101.2529  258.3691 -999.0000 -999.0000   -0.9331   25.0000  479.5992 
 479.7516   12.2858   12.2500   31.9110   28.6306    0.2862    2.2510  100.3529  258.2530 -999.0000 -999.0000   -0.3674   25.0000  479.7516 
 479.9040   12.2594   12.2500   31.3400   31.1166    0.2819    2.2460  100.4999  258.3110 -999.0000 -999.0000   -0.8392   25.0000  479.9040 
 480.0564   12.4069   12.2500   35.0407   30.8189    0.2954    2.2195  101.6356  258.4956 -999.0000 -999.0000   -0.9480   25.0000  480.0564 
 480.2088   12.4229   12.2500   35.3173   29.2137    0.3175    2.1992  103.9065  258.6220 -999.0000 -999.0000   -0.4762   25.0000  480.2088 
 480.3612   12.4232   12.2500   40.2848   29.3868    0.3177    2.2084  104.3836  258.3199 -999.0000 -999.0000   -0.0685   54.0000  480.3612 
 480.5136   12.4849   12.2500   36.7089   29.8515    0.2873    2.2394  102.5803  258.3125 -999.0000 -999.0000   -0.4058   25.0000  480.5136 
 480.6660   12.4370   12.2500   37.2387   29.9288    0.2409    2.2679  101.5616  258.2515 -999.0000 -999.0000   -1.4914   49.0000  480.6660 
 480.8184   12.3864   12.2500   37.8454   28.7979    0.2287    2.2800   99.6841  257.7618 -999.0000 -999.0000   -1.7265   49.0000  480.8184 
 480.9708   12.4099   12.2500   43.2363   28.2591    0.2409    2.2809   99.6339  257.1398 -999.0000 -999.0000   -1.4228   49.0000  480.9708 
 481.1232   12.5834   12.2500   49.3846   26.4380    0.2598    2.2677  100.1846  256.3927 -999.0000 -999.0000   -1.0372   49.0000  481.1232 
 481.2756   12.6616   12.2500   48.4716   25.2893    0.2566    2.2733   98.4697  255.5207 -999.0000 -999.0000   -0.8655   25.0000  481.2756 
 481.4280   12.2189   12.2500   43.4830   22.3744    0.2385    2.3011   95.9378  254.7067 -999.0000 -999.0000   -0.7183   25.0000  481.4280 
 481.5804   12.0600   12.2500   38.4000   26.1094    0.2038    2.3564   92.8210  254.1383 -999.0000 -999.0000   -0.6990   25.0000  481.5804 
 481.7328   12.1799   12.2500   39.5449   31.8120    0.1999    2.3964   93.7572  253.8809 -999.0000 -999.0000   -0.2843   54.0000  481.7328 
 481.8852   12.2323   12.2500   57.3062   19.5909    0.2225    2.3980   99.7003  253.7530 -999.0000 -999.0000    0.2433   54.0000  481.8852 
 482.0376   12.3322   12.2500   76.5532    9.7878    0.3211    2.3675  111.0503  253.9941 -999.0000 -999.0000    2.8089   57.0000  482.0376 
 482.1900   12.3593   12.2500   89.4449    7.2857    0.4008    2.3391  122.8425  254.5492 -999.0000 -999.0000    5.0384   57.0000  482.1900 
 482.3424   12.2611   12.2500   87.0625    5.6904    0.4308    2.3363  129.6148  254.4405 -999.0000 -999.0000    6.1717   57.0000  482.3424 
 482.4948   12.1600   12.2500   84.4624    4.4832    0.4272    2.3572  132.3385  253.8883 -999.0000 -999.0000    6.5652   57.0000  482.4948 
 482.6472   12.1206   12.2500   83.1603    3.5091    0.4260    2.3823  126.8039  253.5699 -999.0000 -999.0000    6.9924   57.0000  482.6472 
 482.7996   12.1320   12.2500   82.3514    3.1396    0.4721    2.3985  130.3522  253.5015 -999.0000 -999.0000    8.7462   57.0000  482.7996 
 482.9520   12.1200   12.2500   73.4625    2.9169    0.4758    2.4012  130.9361  253.7441 -999.0000 -999.0000    8.8944   57.0000  482.9520 
 483.1044   12.1073   12.2500   73.8683    2.8228    0.4849    2.4036  129.9219  253.5059 -999.0000 -999.0000    9.2451   57.0000  483.1044 
 483.2568   12.1194   12.2500   75.4877    2.8124    0.4606    2.4064  129.0905  253.4390 -999.0000 -999.0000    8.5116   57.0000  483.2568 
 483.4092   12.1320   12.2500   82.5390    2.8035    0.4481    2.4053  130.1007  253.9257 -999.0000 -999.0000    7.9653   57.0000  483.4092 
 483.5616   12.1323   12.2500   89.5328    2.8125    0.4188    2.3884  130.4438  254.3036 -999.0000 -999.0000    6.5941   57.0000  483.5616 
