~VERSION INFORMATION
 VERS.                 2.0:   CWLS LOG ASCII STANDARD - VERSION 2.0
 WRAP.                  NO:   SINGLE LINE PER DEPTH STEP
 CREA.                 06/02/2020 16:07:36
#CREATED USING IP VERSION 4.5.2019.2902 BY RMOTA ON 06/02/2020 16:07:36
~WELL INFORMATION
#MNEM.UNIT       DATA                          DESCRIPTION MNEMONIC
#---------      ---------------------------   --------------------------
 STRT    .M         18.4404                   : START DEPTH
 STOP    .M         3544.2144                 : STOP DEPTH
 STEP    .M         0.1524                    : STEP VALUE
 NULL    .      -999.0000                     : NULL VALUE
 DATE    .      06/02/2020                    : LAS file Creation Date
 WELL   .      7-MP-25-BA         : Well Name
 COMP   .      PETROBRAS          : Company
 FLD    .      MASSAPE            : Field
 STATE  .      20240021268        : State
 COUNT  .      BRASIL             : Country
 API    .      20240021268        : API Number
 UWI    .                         : Unique Well Identifier (UWI)
 LOC    .      N= 8.607.478,570 m : Location
 TOWN   .      CTU                : Township
 SCT    .      OH WIRELINE        : Section
 RANG   .      SCHLUMBERGER       : Range
 PDAT   .      NM                 : Permanent Datum
 EPDAT  .      0                  : Elevation of Permanent Datum
 LGMEA  .      MR                 : Log Measured from
 DRMEA  .      MR                 : Drill Measured From
 APDAT  .      65.76              : Elevation Above Permanent Datum
 KB     .      66.06              : KB Elevation
 DF     .      65.76              : DF Elevation
 GL     .      56.36              : GL Elevation
 RWS    .      -999               : Def_Rw
 WST    .      -999               : Def_Rwt
 BHS    .      OPEN               : Completion Status
 PROV   .                         : Province
 MDEC   .      -23.10323          : Magnetic Declination
 SRVC   .                         : Contractor
 GDAT   .      WGS 84             : Geodatum
 LONG   .      -38.4344958333174  : Longitude
 LATI   .      -12.5959183332655  : Latitude
 COORDIN.                         : Grid System
 XCOORD .                         : X or East-West Coordinate
 YCOORD .                         : Y or North-South Coordinate
~CURVE INFORMATION
#MNEM              UNIT       API CODE   Curve Type Comments
#----------  --------------- ----------  ---------- -----------
 DEPTH      .M                         : Depth       
 BS         .in                        : BitSize     
 GR         .gAPI                      : GammaRay    
 CAL        .inch                      : Caliper     
 RT         .ohm.m                     : DeepRes     
 NPHI       .m3/m3                     : Neutron     
 RHOB       .g/cm3                     : Density     
 DT         .us/ft                     : Sonic       
 SP         .mV                        : SP          
 DRDN       .                          :             
 Lith_new   .                          :             
~A  DEPTH     BS        GR       CAL        RT       NPHI      RHOB       DT        SP       DRDN    Lith_new 
# ...
3322.6248    8.5000   78.4524 -999.0000   74.3877    0.2325    2.5848  131.8145  345.4375    4.4454   57.0000 
3322.7772    8.5000   85.6706 -999.0000   83.3626    0.2016    2.5680  127.0594  344.0625    3.0808   57.0000 
3322.9296    8.5000   91.6103 -999.0000   89.4051    0.1995    2.5527  134.1091  344.1875    2.7037   57.0000 
3323.0820    8.5000   89.8829 -999.0000   68.5139    0.1889    2.5513  129.4227  343.8125    2.3228   57.0000 
3323.2344    8.5000   88.3206 -999.0000   57.4466    0.2204    2.5710  127.3084  343.4375    3.7672   57.0000 
3323.3868    8.5000   91.8865 -999.0000   57.5265    0.2545    2.5836  148.5316  342.6250    5.1541   57.0000 
3323.5392    8.5000   93.9626 -999.0000   53.3810    0.2847    2.5724  153.1211  341.7500    5.9395   57.0000 
3323.6916    8.5000   90.0046 -999.0000   50.0912    0.2809    2.5417  136.8003  340.7500    5.1987   57.0000 
3323.8440    8.5000   77.7110 -999.0000   43.1593    0.2529    2.5378  150.6458  341.5625    4.1856   57.0000 
3323.9964    8.5000   78.3812 -999.0000   37.8583    0.2392    2.5543  151.7532  340.6250    4.0587   57.0000 
3324.1488    8.5000   77.6287 -999.0000   45.5303    0.2257    2.5709  149.9754  340.4375    3.9414   57.0000 
3324.3012    8.5000   82.9604 -999.0000   52.0963    0.2087    2.5889  148.6372  340.3750    3.7353   57.0000 
3324.4536    8.5000   82.2450 -999.0000   62.1209    0.2007    2.5931  150.6712  341.4375    3.5516   57.0000 
3324.6060    8.5000   80.9600 -999.0000   50.3741    0.1922    2.6032  145.9973  340.5625    3.4714   57.0000 
3324.7584    8.5000   80.0147 -999.0000   45.3601    0.1920    2.5866  145.9961  341.6875    3.1306   57.0000 
3324.9108    8.5000   80.6884 -999.0000   42.2891    0.2006    2.5773  145.5503  342.5000    3.2335   57.0000 
3325.0632    8.5000   85.7927 -999.0000   35.9521    0.2184    2.5657  148.0659  341.6875    3.5922   57.0000 
3325.2156    8.5000   84.8701 -999.0000   30.0422    0.2391    2.5791  149.0971  343.1250    4.5531   57.0000 
3325.3680    8.5000   92.6752 -999.0000   25.3743    0.2541    2.5973  150.1155  342.4375    5.4159   57.0000 
3325.5204    8.5000   92.6651 -999.0000   22.2273    0.2605    2.6139  148.5932  343.8125    5.9605   57.0000 
3325.6728    8.5000   99.5815 -999.0000   20.1311    0.2475    2.6043  146.5204  345.8125    5.3359   57.0000 
3325.8252    8.5000   93.6013 -999.0000   18.7048    0.2437    2.5969  144.0496  346.0625    5.0611   57.0000 
3325.9776    8.5000   90.7147 -999.0000   20.1043    0.2279    2.5960  142.5260  344.5000    4.5181   57.0000 
3326.1300    8.5000   83.6877 -999.0000   23.3088    0.2168    2.6039  139.9868  345.8750    4.3042   57.0000 
3326.2824    8.5000   83.7721 -999.0000   27.8312    0.1926    2.6145  137.5574  347.0000    3.7101   57.0000 
3326.4348    8.5000   87.0464 -999.0000   35.3049    0.1893    2.6311  136.5869  346.8125    3.9319   57.0000 
3326.5872    8.5000   88.1347 -999.0000   31.6152    0.2096    2.6472  144.8059  348.6875    4.9287   57.0000 
3326.7396    8.5000   84.6967 -999.0000   29.9051    0.2293    2.6400  151.9993  349.7500    5.4456   57.0000 
3326.8920    8.5000   80.5734 -999.0000   27.8210    0.2164    2.6272  151.4001  348.8750    4.7563   57.0000 
3327.0444    8.5000   77.2242 -999.0000   25.4528    0.2006    2.6086  152.6909  351.6250    3.8587   57.0000 
3327.1968    8.5000   78.9641 -999.0000   25.0372    0.1991    2.5999  126.0664  350.0625    3.6356   57.0000 
3327.3492    8.5000   78.5139 -999.0000   25.2266    0.2239    2.6086  126.7703  351.0000    4.6350   57.0000 
3327.5016    8.5000   81.9971 -999.0000   23.8851    0.2394    2.6158  130.3757  351.3125    5.2978   57.0000 
3327.6540    8.5000   85.3462 -999.0000   21.8384    0.2464    2.6077  136.5603  351.3125    5.3659   57.0000 
3327.8064    8.5000   94.6380 -999.0000   21.9093    0.2477    2.5755  138.9390  350.4375    4.7666   57.0000 
3327.9588    8.5000   93.8660 -999.0000   22.4776    0.2604    2.5007  145.1064  346.8125    3.6934   57.0000 
3328.1112    8.5000   95.6612 -999.0000   22.3886    0.2404    2.4795  145.2916  348.3750    2.6030   57.0000 
3328.2636    8.5000   91.4042 -999.0000   20.7725    0.2289    2.4865  143.1551  345.5625    2.3588   57.0000 
3328.4160    8.5000   93.6402 -999.0000   20.4653    0.2115    2.5577  143.0721  343.8750    3.2024   57.0000 
3328.5684    8.5000   90.8731 -999.0000   20.8809    0.2087    2.6330  143.4093  342.3125    4.6168   57.0000 
3328.7208    8.5000   88.1470 -999.0000   21.4195    0.1997    2.6661  136.4795  342.6250    4.9801   57.0000 
3328.8732    8.5000   86.5902 -999.0000   19.2528    0.1935    2.6797  137.2124  341.3750    5.0453   57.0000 
3329.0256    8.5000   85.5889 -999.0000   16.9955    0.2040    2.6527  135.5974  340.8750    4.8540   57.0000 
3329.1780    8.5000   78.9759 -999.0000   17.6163    0.1964    2.6310  133.8683  340.0000    4.1651   57.0000 
3329.3304    8.5000   74.4550 -999.0000   19.0718    0.1730    2.6346  132.5488  341.3125    3.4572   57.0000 
3329.4828    8.5000   73.0791 -999.0000   20.6064    0.1608    2.6465  128.9398  340.6250    3.2907   57.0000 
3329.6352    8.5000   79.9289 -999.0000   20.7901    0.1680    2.6675  125.7836  339.3750    3.9512   57.0000 
3329.7876    8.5000   81.8655 -999.0000   20.0057    0.1882    2.6816  124.2168  340.6875    4.9052   57.0000 
3329.9400    8.5000   78.5720 -999.0000   20.7026    0.1792    2.7013  124.1369  339.3125    4.9989   57.0000 
3330.0924    8.5000   73.0806 -999.0000   22.2618    0.1744    2.7075  124.2311  342.8125    4.9625   57.0000 
3330.2448    8.5000   72.4629 -999.0000   24.1018    0.1732    2.6895  125.6568  341.6250    4.5621   57.0000 
3330.3972    8.5000   75.0772 -999.0000   25.1715    0.1914    2.6609  126.3532  342.3125    4.5979   57.0000 
3330.5496    8.5000   77.1233 -999.0000   25.9889    0.2013    2.6487  143.9492  342.5000    4.6826   57.0000 
3330.7020    8.5000   81.8535 -999.0000   24.1143    0.2059    2.6427  144.6364  342.9375    4.7163   57.0000 
3330.8544    8.5000   79.2393 -999.0000   22.3714    0.2163    2.6425  143.2140  344.6875    5.0589   57.0000 
3331.0068    8.5000   82.1174 -999.0000   21.9151    0.2197    2.6396  141.6219  342.6250    5.1164   57.0000 
3331.1592    8.5000   83.4166 -999.0000   22.5739    0.2243    2.6518  138.1299  342.9375    5.5118   57.0000 
3331.3116    8.5000   87.3893 -999.0000   22.8992    0.2299    2.6596  144.0087  343.7500    5.8565   57.0000 
3331.4640    8.5000   84.8457 -999.0000   22.1260    0.2344    2.6730  137.6543  344.5000    6.2714   57.0000 
3331.6164    8.5000   85.4143 -999.0000   20.1750    0.2494    2.6741  184.2891  346.0625    6.7963   57.0000 
3331.7688    8.5000   85.6418 -999.0000   17.8300    0.2466    2.6786  181.0190  346.8125    6.7922   57.0000 
3331.9212    8.5000   88.6518 -999.0000   15.8689    0.2449    2.6875  166.1270  346.3125    6.9155   57.0000 
3332.0736    8.5000   80.7730 -999.0000   15.4525    0.2300    2.6924  161.5939  345.7500    6.5127   57.0000 
3332.2260    8.5000   82.4133 -999.0000   16.9893    0.2091    2.6804  157.7444  346.9375    5.5802   57.0000 
3332.3784    8.5000   77.8960 -999.0000   18.4120    0.1905    2.6624  152.8531  347.2500    4.5984   57.0000 
3332.5308    8.5000   81.8693 -999.0000   19.8805    0.1925    2.6503  145.9026  347.4375    4.4237   57.0000 
3332.6832    8.5000   72.8203 -999.0000   21.6313    0.1833    2.6504  140.3916  346.8125    4.1182   57.0000 
3332.8356    8.5000   72.4565 -999.0000   23.7157    0.1787    2.6421  137.9841  348.3125    3.7994   57.0000 
3332.9880    8.5000   71.5029 -999.0000   22.5142    0.1649    2.6446  135.0165  349.3750    3.3873   57.0000 
3333.1404    8.5000   78.3445 -999.0000   21.2349    0.1594    2.6412  128.8038  351.3125    3.1369   57.0000 
3333.2928    8.5000   78.7083 -999.0000   19.8596    0.1699    2.6457  127.0806  350.1875    3.5778   57.0000 
3333.4452    8.5000   85.7748 -999.0000   17.6075    0.1776    2.6360  127.3141  350.6250    3.6403   57.0000 
3333.5976    8.5000   84.9269 -999.0000   14.8083    0.1898    2.6372  128.5555  349.3750    4.0704   57.0000 
