~VERSION INFORMATION
 VERS.                 2.0:   CWLS LOG ASCII STANDARD - VERSION 2.0
 WRAP.                  NO:   SINGLE LINE PER DEPTH STEP
 CREA.                 06/02/2020 16:33:07
#CREATED USING IP VERSION 4.5.2019.2902 BY RMOTA ON 06/02/2020 16:33:07
~WELL INFORMATION
#MNEM.UNIT       DATA                          DESCRIPTION MNEMONIC
#---------      ---------------------------   --------------------------
 STRT    .M         500.8250                  : START DEPTH
 STOP    .M         3050.8250                 : STOP DEPTH
 STEP    .M         0.1000                    : STEP VALUE
 NULL    .      -999.0000                     : NULL VALUE
 DATE    .      06/02/2020                    : LAS file Creation Date
 WELL   .      7-MP-34D-BA     : Well Name
 COMP   .      PETROBRAS       : Company
 FLD    .      MASSAPE         : Field
 STATE  .      BAHIA           : State
 API    .      20240022160     : API Number
 UWI    .                      : Unique Well Identifier (UWI)
 LOC    .                      : Location
 PDAT   .      NM              : Permanent Datum
 EPDAT  .      0.0             : Elevation of Permanent Datum
 LGMEA  .      MR              : Log Measured from
 DRMEA  .      MR              : Drill Measured From
 APDAT  .      65.65           : Elevation Above Permanent Datum
 KB     .      65.95           : KB Elevation
 DF     .      65.65           : DF Elevation
 RWS    .      -999            : Def_Rw
 WST    .      -999            : Def_Rwt
 PROV   .                      : Province
 SRVC   .                      : Contractor
 GDAT   .      WGS 84          : Geodatum
 LONG   .      -38.435477499961: Longitude
 LATI   .      0               : Latitude
 COORDIN.                      : Grid System
 XCOORD .                      : X or East-West Coordinate
 YCOORD .                      : Y or North-South Coordinate
~CURVE INFORMATION
#MNEM              UNIT       API CODE   Curve Type Comments
#----------  --------------- ----------  ---------- -----------
 DEPTH      .M                         : Depth       
 CAL        .inch                      : Caliper     
 BS         .in                        : BitSize     
 GR         .gAPI                      : GammaRay    
 ILD        .ohm.m                     : DeepRes     
 RHOB       .G/CC                      : Density     
 NPHI       .dec                       : Neutron     
 DT         .uS/ft                     : Sonic       
 DRDN       .                          :             
 Lith_new   .                          :             
~A  DEPTH    CAL        BS        GR       ILD       RHOB      NPHI       DT       DRDN    Lith_new 
# ...
 668.8250   13.0319   12.2500   84.3514   10.5024 -999.0000 -999.0000   93.2781 -999.0000 -999.0000 
 668.9250   13.0279   12.2500   94.2391    8.5645 -999.0000 -999.0000   95.5393 -999.0000 -999.0000 
 669.0250   13.0252   12.2500  101.6830    7.1149 -999.0000 -999.0000   98.7260 -999.0000 -999.0000 
 669.1250   13.0226   12.2500  106.5008    5.9994 -999.0000 -999.0000  102.5403 -999.0000 -999.0000 
 669.2250   13.0227   12.2500  108.7418    5.1119 -999.0000 -999.0000  107.0046 -999.0000 -999.0000 
 669.3250   13.0258   12.2500  111.2677    4.4430 -999.0000 -999.0000  111.6383 -999.0000 -999.0000 
 669.4250   13.0328   12.2500  113.3982    4.0339 -999.0000 -999.0000  115.6872 -999.0000 -999.0000 
 669.5250   13.0387   12.2500  114.3271    3.9122 -999.0000 -999.0000  118.2525 -999.0000 -999.0000 
 669.6250   13.0429   12.2500  113.6641    4.0778 -999.0000 -999.0000  119.1056 -999.0000 -999.0000 
 669.7250   13.0443   12.2500  111.9963    4.5026 -999.0000 -999.0000  118.7148 -999.0000 -999.0000 
 669.8250   13.0445   12.2500  108.2679    5.1171 -999.0000 -999.0000  117.1673 -999.0000 -999.0000 
 669.9250   13.0454   12.2500  103.9059    5.8347 -999.0000 -999.0000  114.6893 -999.0000 -999.0000 
 670.0250   13.0518   12.2500   99.2391    6.6598 -999.0000 -999.0000  111.2821 -999.0000 -999.0000 
 670.1250   13.0611   12.2500   92.0344    7.7692 -999.0000 -999.0000  107.6643 -999.0000 -999.0000 
 670.2250   13.0712   12.2500   83.8429    9.4354 -999.0000 -999.0000  104.5577 -999.0000 -999.0000 
 670.3250   13.0745   12.2500   75.3493   11.8606 -999.0000 -999.0000  101.9755 -999.0000 -999.0000 
 670.4250   13.0715   12.2500   68.2275   14.8477 -999.0000 -999.0000   99.7714 -999.0000 -999.0000 
 670.5250   13.0649   12.2500   63.7161   17.5851 -999.0000 -999.0000   97.5811 -999.0000 -999.0000 
 670.6250   13.0591   12.2500   62.0224   19.2052 -999.0000 -999.0000   95.2969 -999.0000 -999.0000 
 670.7250   13.0592   12.2500   62.5438   19.7229 -999.0000 -999.0000   93.0969 -999.0000 -999.0000 
 670.8250   13.0593   12.2500   63.5538   19.6676 -999.0000 -999.0000   90.9883 -999.0000 -999.0000 
 670.9250   13.0613   12.2500   65.1111   19.3734 -999.0000 -999.0000   89.2189 -999.0000 -999.0000 
 671.0250   13.0624   12.2500   67.0957   18.8600 -999.0000 -999.0000   87.9025 -999.0000 -999.0000 
 671.1250   13.0611   12.2500   68.9198   18.1333 -999.0000 -999.0000   87.0893 -999.0000 -999.0000 
 671.2250   13.0572   12.2500   71.0762   17.4177 -999.0000 -999.0000   86.8898 -999.0000 -999.0000 
 671.3250   13.0528   12.2500   71.8342   17.0988 -999.0000 -999.0000   87.1944 -999.0000 -999.0000 
 671.4250   13.0491   12.2500   70.1292   17.5703 -999.0000 -999.0000   87.8041 -999.0000 -999.0000 
 671.5250   13.0517   12.2500   65.7542   19.1405 -999.0000 -999.0000   88.2872 -999.0000 -999.0000 
 671.6250   13.0552   12.2500   58.7170   21.9239 -999.0000 -999.0000   88.3184 -999.0000 -999.0000 
 671.7250   13.0565   12.2500   52.1925   25.4851 -999.0000 -999.0000   87.7464 -999.0000 -999.0000 
 671.8250   13.0535   12.2500   47.4316   28.3688 -999.0000 -999.0000   86.9648 -999.0000 -999.0000 
 671.9250   13.0470   12.2500   45.2502   28.9834 -999.0000 -999.0000   86.3898 -999.0000 -999.0000 
 672.0250   13.0430   12.2500   46.0357   27.3091 -999.0000 -999.0000   86.2133 -999.0000 -999.0000 
 672.1250   13.0415   12.2500   47.5637   24.6595 -999.0000 -999.0000   87.0010 -999.0000 -999.0000 
 672.2250   13.0458   12.2500   50.5419   22.0296 -999.0000 -999.0000   88.5653 -999.0000 -999.0000 
 672.3250   13.0505   12.2500   54.6079   19.7947 -999.0000 -999.0000   90.7459 -999.0000 -999.0000 
 672.4250   13.0522   12.2500   59.4974   18.0078 -999.0000 -999.0000   92.9153 -999.0000 -999.0000 
 672.5250   13.0530   12.2500   65.5522   16.6758 -999.0000 -999.0000   94.3918 -999.0000 -999.0000 
 672.6250   13.0511   12.2500   70.5583   15.8203 -999.0000 -999.0000   95.3434 -999.0000 -999.0000 
 672.7250   13.0502   12.2500   73.7255   15.4310 -999.0000 -999.0000   95.7628 -999.0000 -999.0000 
 672.8250   13.0511   12.2500   74.1321   15.3899 -999.0000 -999.0000   96.0265 -999.0000 -999.0000 
 672.9250   13.0522   12.2500   73.7696   15.5011 -999.0000 -999.0000   96.2566 -999.0000 -999.0000 
 673.0250   13.0528   12.2500   73.3449   15.5835 -999.0000 -999.0000   96.6061 -999.0000 -999.0000 
 673.1250   13.0537   12.2500   74.1632   15.5933 -999.0000 -999.0000   97.2199 -999.0000 -999.0000 
 673.2250   13.0588   12.2500   76.7478   15.6007 -999.0000 -999.0000   97.9429 -999.0000 -999.0000 
 673.3250   13.0627   12.2500   77.8821   15.6801 -999.0000 -999.0000   98.5908 -999.0000 -999.0000 
 673.4250   13.0682   12.2500   78.2188   15.8743 -999.0000 -999.0000   98.9418 -999.0000 -999.0000 
 673.5250   13.0662   12.2500   76.7478   16.1780 -999.0000 -999.0000   99.1582 -999.0000 -999.0000 
 673.6250   13.0682   12.2500   73.7385   16.5704 -999.0000 -999.0000   99.3138 -999.0000 -999.0000 
 673.7250   13.0694   12.2500   71.4051   16.9842 -999.0000 -999.0000   99.4699 -999.0000 -999.0000 
 673.8250   13.0713   12.2500   69.6751   17.3768 -999.0000 -999.0000   99.5383 -999.0000 -999.0000 
 673.9250   13.0740   12.2500   69.5198   17.6945 -999.0000 -999.0000   99.3163 -999.0000 -999.0000 
 674.0250   13.0691   12.2500   69.6493   17.8335 -999.0000 -999.0000   98.9628 -999.0000 -999.0000 
 674.1250   13.0605   12.2500   70.2190   17.5478 -999.0000 -999.0000   98.4536 -999.0000 -999.0000 
 674.2250   13.0566   12.2500   71.8713   16.6639 -999.0000 -999.0000   98.0490 -999.0000 -999.0000 
 674.3250   13.0559   12.2500   73.8395   15.3313 -999.0000 -999.0000   97.8026 -999.0000 -999.0000 
 674.4250   13.0583   12.2500   77.3797   13.9707 -999.0000 -999.0000   97.7781 -999.0000 -999.0000 
 674.5250   13.0629   12.2500   81.0650   12.9026 -999.0000 -999.0000   97.9260 -999.0000 -999.0000 
 674.6250   13.0662   12.2500   83.6185   12.1487 -999.0000 -999.0000   98.0025 -999.0000 -999.0000 
 674.7250   13.0661   12.2500   85.5556   11.4996 -999.0000 -999.0000   97.8903 -999.0000 -999.0000 
 674.8250   13.0655   12.2500   87.8363   10.7162 -999.0000 -999.0000   97.8102 -999.0000 -999.0000 
 674.9250   13.0642   12.2500   91.1133    9.7402 -999.0000 -999.0000   98.0704 -999.0000 -999.0000 
 675.0250   13.0622   12.2500   95.7058    8.7178 -999.0000 -999.0000   98.9796 -999.0000 -999.0000 
 675.1250   13.0604   12.2500  100.0177    7.8254 -999.0000 -999.0000  100.5566 -999.0000 -999.0000 
 675.2250   13.0596   12.2500  103.3879    7.1488 -999.0000 -999.0000  102.6092 -999.0000 -999.0000 
 675.3250   13.0580   12.2500  104.6388    6.6910 -999.0000 -999.0000  104.8725 -999.0000 -999.0000 
 675.4250   13.0594   12.2500  104.4264    6.4166 -999.0000 -999.0000  106.8480 -999.0000 -999.0000 
 675.5250   13.0597   12.2500  104.7493    6.2932 -999.0000 -999.0000  108.5138 -999.0000 -999.0000 
 675.6250   13.0600   12.2500  103.6460    6.3245 -999.0000 -999.0000  109.6107 -999.0000 -999.0000 
 675.7250   13.0627   12.2500  101.3532    6.5891 -999.0000 -999.0000  110.1051 -999.0000 -999.0000 
 675.8250   13.0616   12.2500   95.9760    7.2660 -999.0000 -999.0000  109.6429 -999.0000 -999.0000 
 675.9250   13.0620   12.2500   86.1616    8.6541 -999.0000 -999.0000  107.9255 -999.0000 -999.0000 
 676.0250   13.0635   12.2500   73.9612   11.2038 -999.0000 -999.0000  105.0857 -999.0000 -999.0000 
 676.1250   13.0657   12.2500   62.0768   15.4018 -999.0000 -999.0000  101.6214 -999.0000 -999.0000 
 676.2250   13.0695   12.2500   52.4307   20.7030 -999.0000 -999.0000   99.8490 -999.0000 -999.0000 
 676.3250   13.0729   12.2500   46.7937   23.4562 -999.0000 -999.0000   99.5025 -999.0000 -999.0000 
 676.4250   13.0731   12.2500   45.9529   22.2838 -999.0000 -999.0000   99.6898 -999.0000 -999.0000 
 676.5250   13.0702   12.2500   48.9527   16.2908 -999.0000 -999.0000   99.6719 -999.0000 -999.0000 
 676.6250   13.0692   12.2500   56.6745   11.0111 -999.0000 -999.0000   96.7128 -999.0000 -999.0000 
 676.7250   13.0663   12.2500   67.6724    7.5894 -999.0000 -999.0000   95.4684 -999.0000 -999.0000 
