~VERSION INFORMATION
 VERS.                 2.0:   CWLS LOG ASCII STANDARD - VERSION 2.0
 WRAP.                  NO:   SINGLE LINE PER DEPTH STEP
 CREA.                 06/02/2020 16:35:30
#CREATED USING IP VERSION 4.5.2019.2902 BY RMOTA ON 06/02/2020 16:35:30
~WELL INFORMATION
#MNEM.UNIT       DATA                          DESCRIPTION MNEMONIC
#---------      ---------------------------   --------------------------
 STRT    .M         15.6972                   : START DEPTH
 STOP    .M         2951.2260                 : STOP DEPTH
 STEP    .M         0.1524                    : STEP VALUE
 NULL    .      -999.0000                     : NULL VALUE
 DATE    .      06/02/2020                    : LAS file Creation Date
 WELL   .      7-MP-36D-BA       : Well Name
 COMP   .      PETROBRAS         : Company
 FLD    .      MASSAPE           : Field
 STATE  .      20240022534       : State
 COUNT  .      BRASIL            : Country
 API    .      20240022534       : API Number
 UWI    .                        : Unique Well Identifier (UWI)
 LOC    .      N= 8607444.13 M   : Location
 PDAT   .      NM                : Permanent Datum
 EPDAT  .      0                 : Elevation of Permanent Datum
 LGMEA  .      MR                : Log Measured from
 DRMEA  .      MR                : Drill Measured From
 APDAT  .      65.81             : Elevation Above Permanent Datum
 KB     .      66.11             : KB Elevation
 DF     .      65.81             : DF Elevation
 GL     .      56.41             : GL Elevation
 RWS    .      -999              : Def_Rw
 WST    .      -999              : Def_Rwt
 BHS    .      OPEN              : Completion Status
 PROV   .                        : Province
 SRVC   .                        : Contractor
 GDAT   .      WGS 84            : Geodatum
 LONG   .      -38.4351329444514 : Longitude
 LATI   .      -12.5962309720781 : Latitude
 COORDIN.                        : Grid System
 XCOORD .                        : X or East-West Coordinate
 YCOORD .                        : Y or North-South Coordinate
~CURVE INFORMATION
#MNEM              UNIT       API CODE   Curve Type Comments
#----------  --------------- ----------  ---------- -----------
 DEPTH      .M                         : Depth       
 BS         .in                        : BitSize     Loaded from DLIS: 7-mp-36d-ba_raw-1.dlis
 DCAL       .in                        :             Loaded from DLIS: 7-mp-36d-ba_raw-1.dlis
 GR         .gAPI                      : GammaRay    Loaded from DLIS: 7-mp-36d-ba_raw-1.dlis
 RT         .ohm.m                     : DeepRes     Loaded from DLIS: 7-mp-36d-ba_raw-1.dlis
 NPHI       .m3/m3                     : Neutron     Loaded from DLIS: 7-mp-36d-ba_raw-1.dlis
 RHOB       .g/cm3                     : Density     Loaded from DLIS: 7-mp-36d-ba_raw-1.dlis
 DT         .us/ft                     : Sonic       Loaded from DLIS: 7-mp-36d-ba_raw-1.dlis
 SP         .mV                        : SP          Loaded from DLIS: 7-mp-36d-ba_raw-1.dlis
 DRDN       .                          :             
 Lith_new   .                          :             
~A  DEPTH     BS       DCAL       GR        RT       NPHI      RHOB       DT        SP       DRDN    Lith_new 
# ...
2941.6248    8.5000   -5.4328   50.0207   18.1544    0.1141    2.0295   67.3950  140.5000  -10.6069   49.0000 
2941.7772    8.5000   -5.4328   50.0207   21.3644    0.1141    2.0295   67.3715  138.3125  -10.6069   49.0000 
2941.9296    8.5000   -5.4328   50.0207   25.3739    0.1141    2.0295   67.3842  136.0625  -10.6069   49.0000 
2942.0820    8.5000   -5.4328   50.0207   27.1653    0.1141    2.0295   67.3476  134.3750  -10.6069   49.0000 
2942.2344    8.5000   -5.4328   50.0207   29.5713    0.1141    2.0295   67.3639  131.3750  -10.6069   49.0000 
2942.3868    8.5000   -5.4328   50.0207   24.1995    0.1141    2.0295   67.3651  128.1250  -10.6069   49.0000 
2942.5392    8.5000   -5.4328   50.0207   21.9751    0.1141    2.0295   67.3616  124.6250  -10.6069   49.0000 
2942.6916    8.5000   -5.4328   50.0207   20.5531    0.1141    2.0295   67.3581  120.6875  -10.6069   49.0000 
2942.8440    8.5000   -5.4328   50.0207   19.0181    0.1141    2.0295   67.3600  117.0625  -10.6069   49.0000 
2942.9964    8.5000   -5.4328   50.0207   17.7033    0.1141    2.0295   67.3565  113.4375  -10.6069   49.0000 
2943.1488    8.5000   -5.4328   50.0207   17.5260    0.1141    2.0295   67.3559  109.3125  -10.6069   49.0000 
2943.3012    8.5000   -5.4328   50.0207   17.6700    0.1141    2.0295   67.3625  106.3125  -10.6069   49.0000 
2943.4536    8.5000   -5.4328   50.0207   18.1472    0.1141    2.0295   67.3486  102.0625  -10.6069   49.0000 
2943.6060    8.5000   -5.4328   50.0207   18.6030    0.1141    2.0295   67.3458   97.6875  -10.6069   49.0000 
2943.7584    8.5000   -5.4328   50.0207   19.0746    0.1141    2.0295   67.3557   93.2500  -10.6069   49.0000 
2943.9108    8.5000   -5.4328   50.0207   19.4285    0.1141    2.0295   67.3611   90.5000  -10.6069   49.0000 
2944.0632    8.5000   -5.4328   50.0207   19.8144    0.1141    2.0295   67.3555   88.5000  -10.6069   49.0000 
2944.2156    8.5000   -5.4328   50.0207   19.9443    0.1141    2.0295   67.3555   87.1250  -10.6069   49.0000 
2944.3680    8.5000   -5.4328   50.0207   19.8817    0.1141    2.0295   67.3497   88.6875  -10.6069   49.0000 
2944.5204    8.5000   -5.4328   50.0207   19.9229    0.1141    2.0295   67.3508   93.2500  -10.6069   49.0000 
2944.6728    8.5000   -5.4328   50.0207   20.0571    0.1141    2.0295   67.3607   94.5625  -10.6069   49.0000 
2944.8252    8.5000   -5.4328   50.0207   20.2479    0.1141    2.0295   67.2333   95.8750  -10.6069   49.0000 
2944.9776    8.5000   -5.4328   50.0207   20.1857    0.1141    2.0295   67.2333   98.3125  -10.6069   49.0000 
2945.1300    8.5000   -5.4328   50.0207   20.1072    0.1141    2.0295   67.2333  100.6250  -10.6069   49.0000 
2945.2824    8.5000   -5.4328   50.0207   20.1581    0.1141    2.0295   67.2333  103.6250  -10.6069   49.0000 
2945.4348    8.5000   -5.4328   50.0207   20.1747    0.1141    2.0295   67.2333  107.9375  -10.6069   49.0000 
2945.5872    8.5000   -5.4328   50.0207   20.0447    0.1141    2.0295   67.2333  113.1250  -10.6069   49.0000 
2945.7396    8.5000   -5.4328   50.0207   19.9557    0.1141    2.0295   67.2333  117.8125  -10.6069   49.0000 
2945.8920    8.5000   -5.4328   50.0207   19.6955    0.1141    2.0295   67.2333  121.5625  -10.6069   49.0000 
2946.0444    8.5000   -5.4328   50.0207   19.9093    0.1141    2.0295   67.2333  125.1875  -10.6069   49.0000 
2946.1968    8.5000   -5.4328   50.0207   19.7444    0.1141    2.0295   67.2333  128.3750  -10.6069   49.0000 
2946.3492    8.5000   -5.4328   50.0207   19.5887    0.1141    2.0295   67.2333  129.0625  -10.6070   49.0000 
2946.5016    8.5000   -5.4328   50.0207   19.6494    0.1141    2.0295   67.2333  124.8125  -10.6070   49.0000 
2946.6540    8.5000   -5.4328   50.0207   19.9693    0.1141    2.0295   67.2333  119.1875  -10.6070   49.0000 
2946.8064    8.5000   -5.4328   50.0207   19.8822    0.1141    2.0295   67.2333  111.0625  -10.6071   49.0000 
2946.9588    8.5000   -5.4328   50.0207   19.8819    0.1141    2.0294   67.2333  100.5000  -10.6072   49.0000 
2947.1112    8.5000   -5.4328   50.0207   19.7409    0.1141    2.0294   67.2333   90.2500  -10.6074   49.0000 
2947.2636    8.5000   -5.4328   50.0207   20.0218    0.1141    2.0294   67.2333   81.3750  -10.6077   49.0000 
2947.4160    8.5000   -5.4328   50.0207   20.1229    0.1141    2.0294   67.2333   77.3125  -10.6081   49.0000 
2947.5684    8.5000   -5.4328   50.0207   19.8567    0.1141    2.0294   67.2333   74.5625  -10.6088   49.0000 
2947.7208    8.5000   -5.4328   50.0207   20.1997    0.1141    2.0293   67.2333   73.0000  -10.6098   49.0000 
2947.8732    8.5000   -5.4328   50.0207   20.2427    0.1141    2.0293   67.2333   71.0625  -10.6115   49.0000 
2948.0256    8.5000   -5.4328   50.0207   20.1274    0.1141    2.0292   67.2333   69.0000  -10.6136   49.0000 
2948.1780    8.5000   -5.4328   50.0207   20.1085    0.1141    2.0290   67.2333   67.5000  -10.6168   49.0000 
2948.3304    8.5000   -5.4328   50.0207   20.0517    0.1141    2.0287   67.2333   66.2500  -10.6232   49.0000 
2948.4828    8.5000   -5.4328   50.0207   19.9097    0.1141    2.0283   67.2333   65.5000  -10.6327   49.0000 
2948.6352    8.5000   -5.4328   50.0207   19.8559    0.1141    2.0276   67.2333   64.8125  -10.6545   49.0000 
2948.7876    8.5000   -5.4328   50.0207   19.8510    0.1141    2.0265   67.2333   64.4375 -20031.1953   49.0000 
2948.9400    8.5000   -5.4328   50.0207   19.9097    0.1141 -999.0000   67.2333   64.1875 -20031.1953   49.0000 
2949.0924    8.5000   -5.4328   50.0207   19.9155    0.1141 -999.0000   67.2333   63.7500 -20031.1953   49.0000 
2949.2448    8.5000   -5.4328   50.0207   19.9228    0.1141 -999.0000   67.2333   63.5000 -20031.1953   49.0000 
2949.3972    8.5000   -5.4328   50.0207   19.9429    0.1141 -999.0000   67.2333   63.3125 -20031.1953   49.0000 
2949.5496    8.5000   -5.4328   50.0207   19.9499    0.1141 -999.0000   67.9101   63.3750 -20031.1953   49.0000 
2949.7020    8.5000   -5.4328   50.0207   19.9450    0.1141 -999.0000   67.9101   63.4375 -20031.1953   49.0000 
2949.8544    8.5000   -5.4328   50.0207   19.9423    0.1141 -999.0000   67.5764   63.3750 -20031.1953   49.0000 
2950.0068    8.5000   -5.4328   50.0207   19.9411    0.1141 -999.0000   67.5764   63.6875 -20031.1953   49.0000 
2950.1592    8.5000   -5.4328   50.0207   19.9384    0.1141 -999.0000   67.5764   63.6250 -20031.1953   49.0000 
2950.3116    8.5000   -5.4328   50.0207    2.2807    0.1141 -999.0000   67.5764   63.4375 -20031.1953   49.0000 
2950.4640 -999.0000 -999.0000 -999.0000 -999.0000 -999.0000 -999.0000 -999.0000 -999.0000 -53335.0000   49.0000 
2950.6164 -999.0000 -999.0000 -999.0000 -999.0000 -999.0000 -999.0000 -999.0000 -999.0000 -53335.0000   49.0000 
2950.7688 -999.0000 -999.0000 -999.0000 -999.0000 -999.0000 -999.0000 -999.0000 -999.0000 -53335.0000   49.0000 
2950.9212 -999.0000 -999.0000 -999.0000 -999.0000 -999.0000 -999.0000 -999.0000 -999.0000 -53335.0000   49.0000 
2951.0736 -999.0000 -999.0000 -999.0000 -999.0000 -999.0000 -999.0000 -999.0000 -999.0000 -53335.0000   49.0000 
2951.2260 -999.0000 -999.0000 -999.0000 -999.0000 -999.0000 -999.0000 -999.0000 -999.0000 -53335.0000   49.0000 
