~VERSION INFORMATION
 VERS.                 2.0:   CWLS LOG ASCII STANDARD - VERSION 2.0
 WRAP.                  NO:   SINGLE LINE PER DEPTH STEP
 CREA.                 28/08/2020 11:52:07
#CREATED USING IP VERSION 4.5.2019.2902 BY CANDIDO ON 28/08/2020 11:52:07
~WELL INFORMATION
#MNEM.UNIT       DATA                          DESCRIPTION MNEMONIC
#---------      ---------------------------   --------------------------
 STRT    .M         639.0000                  : START DEPTH
 STOP    .M         3007.1000                 : STOP DEPTH
 STEP    .M         0.1000                    : STEP VALUE
 NULL    .      -999.0000                     : NULL VALUE
 DATE    .      28/08/2020                    : LAS file Creation Date
 WELL   .      7-MP-55D-BA     : Well Name
 COMP   .      PETROBRAS       : Company
 FLD    .      MASSAPE         : Field
 STATE  .      BAHIA           : State
 COUNT  .      -999.25         : Country
 API    .      20240028408     : API Number
 UWI    .                      : Unique Well Identifier (UWI)
 LOC    .      -999.25         : Location
 TOWN   .      -999.25         : Township
 SCT    .      -999.25         : Section
 RANG   .      -999.25         : Range
 PDAT   .      NM              : Permanent Datum
 EPDAT  .      0.00            : Elevation of Permanent Datum
 LGMEA  .      MR              : Log Measured from
 DRMEA  .      MR              : Drill Measured From
 APDAT  .      65.67           : Elevation Above Permanent Datum
 KB     .      65.97           : KB Elevation
 DF     .      65.67           : DF Elevation
 GL     .      56.27           : GL Elevation
 RWS    .      -999            : Def_Rw
 WST    .      -999            : Def_Rwt
 PROV   .                      : Province
 SRVC   .                      : Contractor
 GDAT   .      WGS 84          : Geodatum
 LONG   .      -38.435231944455: Longitude
 LATI   .      0               : Latitude
 COORDIN.                      : Grid System
 XCOORD .                      : X or East-West Coordinate
 YCOORD .                      : Y or North-South Coordinate
~CURVE INFORMATION
#MNEM                UNIT       API CODE   Curve Type Comments
#----------    --------------- ----------  ---------- -----------
 DEPTH        .M                         : Depth       
 TVD          .M                         : Depth       
 TVDSS        .M                         : Depth       
 GR           .api                       : GammaRay    
 CAL          .in                        : Caliper     
 BS           .in                        : BitSize     
 Lith_new     .                          :             
 RT           .ohmm                      : DeepRes     
 NPHI         .decp                      : Neutron     
 RHOB         .g/cc                      : Density     
 Res          .                          :             
 N_Res        .                          :             
 VCLGR        .Dec                       : Vcl         
 Phi_Gaymard  .                          :             
 Phie_Gaymard .                          :             
 SwArch       .Dec                       :             
 SwSim        .Dec                       :             
~A  DEPTH    TVD      TVDSS       GR       CAL        BS     Lith_new     RT       NPHI      RHOB      Res      N_Res     VCLGR   Phi_Gaym~ Phie_Gay~   SwArch    SwSim   
# ...
2570.7000 2557.4241 -2491.7541   68.0055    8.7051    8.5000   54.0000    8.9747    0.1220    2.5611    0.0000    1.0000    0.0849    0.0958    0.0877    0.3034    0.2936 
2570.8000 2557.5240 -2491.8540   67.4940    8.7121    8.5000   54.0000    9.2416    0.1194    2.5601    0.0000    1.0000    0.0796    0.0943    0.0868    0.3010    0.2917 
2570.9000 2557.6239 -2491.9539   68.7688    8.7152    8.5000   54.0000    9.4596    0.1212    2.5613    0.0000    1.0000    0.0931    0.0952    0.0864    0.3024    0.2912 
2571.0000 2557.7238 -2492.0538   71.7840    8.7210    8.5000   54.0000    9.5374    0.1189    2.5634    0.0000    1.0000    0.1267    0.0933    0.0815    0.3310    0.3129 
2571.1000 2557.8237 -2492.1537   74.8755    8.7232    8.5000   54.0000    9.3792    0.1188    2.5640    0.0000    1.0000    0.1640    0.0932    0.0779    0.3678    0.3396 
2571.2000 2557.9236 -2492.2536   82.2798    8.7100    8.5000   57.0000    9.1128    0.1228    2.5703    0.0000    1.0000    0.2661    0.0945    0.0694    0.4512    0.3868 
2571.3000 2558.0235 -2492.3535   86.7377    8.7087    8.5000   57.0000    8.4168    0.1237    2.5748    0.0000    1.0000    0.3373    0.0943    0.0625    0.5607    0.4486 
2571.4000 2558.1233 -2492.4533   89.5926    8.7087    8.5000   57.0000    8.2292    0.1288    2.5818    0.0000    1.0000    0.3874    0.0965    0.0591    0.6427    0.4831 
2571.5000 2558.2232 -2492.5532   89.7682    8.7002    8.5000   57.0000    8.2475    0.1348    2.5912    0.0000    1.0000    0.3906    0.0992    0.0605    0.6487    0.4849 
2571.6000 2558.3231 -2492.6531   87.7529    8.7018    8.5000   57.0000    8.5893    0.1386    2.5963    0.0000    1.0000    0.3547    0.1012    0.0653    0.5779    0.4518 
2571.7000 2558.4230 -2492.7530   87.9056    8.7024    8.5000   57.0000    8.7769    0.1322    2.5958    0.0000    1.0000    0.3574    0.0969    0.0622    0.6079    0.4658 
2571.8000 2558.5229 -2492.8529   86.5163    8.7157    8.5000   57.0000    8.9446    0.1237    2.5931    0.0000    1.0000    0.3336    0.0914    0.0609    0.6024    0.4686 
2571.9000 2558.6228 -2492.9528   84.4019    8.7224    8.5000   57.0000    9.4325    0.1186    2.5874    0.0000    1.0000    0.2990    0.0888    0.0623    0.5430    0.4381 
2572.0000 2558.7227 -2493.0527   81.0890    8.7101    8.5000   57.0000    9.7613    0.1187    2.5837    0.0000    1.0000    0.2483    0.0895    0.0673    0.4632    0.3956 
2572.1000 2558.8226 -2493.1526   75.8602    8.7181    8.5000   57.0000   10.0560    0.1181    2.5744    0.0000    1.0000    0.1765    0.0907    0.0747    0.3806    0.3460 
2572.2000 2558.9224 -2493.2524   74.5549    8.7006    8.5000   57.0000   10.2843    0.1166    2.5725    0.0000    1.0000    0.1600    0.0901    0.0757    0.3575    0.3291 
2572.3000 2559.0223 -2493.3523   71.9443    8.7237    8.5000   54.0000   10.6326    0.1068    2.5745    0.0000    1.0000    0.1286    0.0834    0.0727    0.3558    0.3322 
2572.4000 2559.1222 -2493.4522   69.5779    8.6915    8.5000   57.0000   10.6695    0.1058    2.5915    0.0000    1.0000    0.1018    0.0797    0.0716    0.3623    0.3427 
2572.5000 2559.2221 -2493.5521   69.5856    8.6947    8.5000   57.0000   10.5755    0.1076    2.6022    0.0000    1.0000    0.1019    0.0793    0.0712    0.3640    0.3444 
2572.6000 2559.3220 -2493.6520   71.3260    8.6888    8.5000   57.0000    9.9904    0.1141    2.6091    0.0000    1.0000    0.1215    0.0829    0.0729    0.3747    0.3514 
2572.7000 2559.4219 -2493.7519   72.4252    8.6861    8.5000   57.0000    9.5010    0.1177    2.6072    0.0000    1.0000    0.1342    0.0856    0.0741    0.3825    0.3571 
2572.8000 2559.5218 -2493.8518   75.4175    8.6984    8.5000   57.0000    9.0585    0.1160    2.6014    0.0000    1.0000    0.1709    0.0851    0.0706    0.4362    0.3966 
2572.9000 2559.6216 -2493.9517   76.7609    8.6928    8.5000   57.0000    8.5861    0.1137    2.5949    0.0000    1.0000    0.1882    0.0844    0.0685    0.4737    0.4252 
2573.0000 2559.7215 -2494.0515   77.5319    8.6986    8.5000   57.0000    8.4991    0.1166    2.5903    0.0000    1.0000    0.1985    0.0871    0.0698    0.4663    0.4174 
2573.1000 2559.8214 -2494.1514   75.8831    8.7010    8.5000   57.0000    8.5048    0.1174    2.5704    0.0000    1.0000    0.1768    0.0910    0.0749    0.4074    0.3736 
2573.2000 2559.9213 -2494.2513   75.5549    8.6968    8.5000   54.0000    8.5845    0.1202    2.5631    0.0000    1.0000    0.1726    0.0942    0.0780    0.3844    0.3547 
2573.3000 2560.0212 -2494.3512   76.5167    8.6937    8.5000   54.0000    8.5769    0.1189    2.5607    0.0000    1.0000    0.1850    0.0939    0.0765    0.3919    0.3590 
2573.4000 2560.1211 -2494.4511   84.7454    8.7045    8.5000   54.0000    8.5284    0.1189    2.5649    0.0000    1.0000    0.3045    0.0930    0.0647    0.5083    0.4223 
2573.5000 2560.2210 -2494.5510   88.0964    8.7146    8.5000   57.0000    8.4481    0.1222    2.5682    0.0000    1.0000    0.3607    0.0945    0.0604    0.5798    0.4529 
2573.6000 2560.3209 -2494.6509   89.2491    8.7068    8.5000   57.0000    8.4574    0.1315    2.5677    0.0000    1.0000    0.3812    0.1007    0.0623    0.5557    0.4326 
2573.7000 2560.4207 -2494.7507   82.4020    8.7144    8.5000   57.0000    8.5345    0.1289    2.5742    0.0000    1.0000    0.2679    0.0978    0.0716    0.4559    0.3937 
2573.8000 2560.5206 -2494.8506   79.4326    8.7190    8.5000   57.0000    8.6924    0.1236    2.5772    0.0000    1.0000    0.2246    0.0938    0.0727    0.4364    0.3870 
2573.9000 2560.6205 -2494.9505   79.3105    8.7227    8.5000   57.0000    9.0796    0.1130    2.5809    0.0000    1.0000    0.2228    0.0862    0.0670    0.4670    0.4088 
2574.0000 2560.7204 -2495.0504   82.9363    8.7164    8.5000   54.0000    9.2704    0.1088    2.5800    0.0000    1.0000    0.2761    0.0836    0.0605    0.5427    0.4466 
2574.1000 2560.8203 -2495.1503   82.4554    8.7137    8.5000   54.0000    9.4536    0.1066    2.5832    0.0000    1.0000    0.2687    0.0816    0.0597    0.5486    0.4511 
2574.2000 2560.9202 -2495.2502   80.4249    8.7241    8.5000   57.0000    9.7611    0.1091    2.5857    0.0000    1.0000    0.2387    0.0828    0.0630    0.4950    0.4209 
2574.3000 2561.0201 -2495.3501   77.1350    8.7252    8.5000   57.0000    9.8672    0.1069    2.5892    0.0000    1.0000    0.1932    0.0808    0.0652    0.4587    0.4055 
2574.4000 2561.1200 -2495.4500   71.8756    8.7233    8.5000   57.0000    9.9502    0.1049    2.5959    0.0000    1.0000    0.1278    0.0784    0.0684    0.4096    0.3806 
2574.5000 2561.2198 -2495.5498   70.0665    8.7173    8.5000   57.0000   10.0733    0.1033    2.5992    0.0000    1.0000    0.1072    0.0768    0.0686    0.3932    0.3703 
2574.6000 2561.3197 -2495.6497   68.7306    8.7233    8.5000   57.0000   10.1383    0.1043    2.6011    0.0000    1.0000    0.0927    0.0772    0.0701    0.3740    0.3559 
2574.7000 2561.4196 -2495.7496   71.2496    8.7564    8.5000   57.0000   10.2120    0.1071    2.6015    0.0000    1.0000    0.1206    0.0791    0.0695    0.3913    0.3656 
2574.8000 2561.5195 -2495.8495   73.8755    8.7523    8.5000   57.0000   10.4362    0.1061    2.5986    0.0000    1.0000    0.1516    0.0788    0.0668    0.4260    0.3874 
2574.9000 2561.6194 -2495.9494   74.5778    8.7553    8.5000   57.0000   10.6232    0.1011    2.5975    0.0000    1.0000    0.1603    0.0756    0.0635    0.4477    0.4021 
2575.0000 2561.7193 -2496.0493   69.5856    8.7656    8.5000   54.0000   10.8714    0.1006    2.5838    0.0000    1.0000    0.1019    0.0776    0.0697    0.3702    0.3494 
2575.1000 2561.8192 -2496.1492   66.3490    8.7654    8.5000   54.0000   11.4809    0.0987    2.5746    0.0000    1.0000    0.0678    0.0782    0.0729    0.3203    0.3092 
2575.2000 2561.9190 -2496.2490   64.5705    8.7614    8.5000   25.0000   11.7605    0.1000    2.5649    0.0000    1.0000    0.0502    0.0812    0.0771    0.2950    0.2879 
2575.3000 2562.0189 -2496.3489   59.8302    8.7679    8.5000   25.0000   11.9811    0.0946    2.5517    0.0000    1.0000    0.0070    0.0812    0.0806    0.2710    0.2701 
