~VERSION INFORMATION
 VERS.                 2.0:   CWLS LOG ASCII STANDARD - VERSION 2.0
 WRAP.                  NO:   SINGLE LINE PER DEPTH STEP
 CREA.                 30/01/2020 17:31:38
#CREATED USING IP VERSION 4.5.2019.2902 BY RMOTA ON 30/01/2020 17:31:38
~WELL INFORMATION
#MNEM.UNIT       DATA                          DESCRIPTION MNEMONIC
#---------      ---------------------------   --------------------------
 STRT    .M         5.9400                    : START DEPTH
 STOP    .M         3362.3976                 : STOP DEPTH
 STEP    .M         0.1524                    : STEP VALUE
 NULL    .      -999.0000                     : NULL VALUE
 DATE    .      30/01/2020                    : LAS file Creation Date
 WELL   .      7-MP-31D-BA        : Well Name
 COMP   .      PETROBRAS          : Company
 FLD    .      MASSAPE            : Field
 STATE  .      BAHIA              : State
 COUNT  .      BRASIL             : Country
 API    .      20240021426        : API Number
 UWI    .                         : Unique Well Identifier (UWI)
 LOC    .      N= 8.608.492,720 m : Location
 TOWN   .      CATU               : Township
 SCT    .      OH WIRELINE        : Section
 RANG   .      SCHLUMBERGER       : Range
 PDAT   .      NM                 : Permanent Datum
 EPDAT  .      0                  : Elevation of Permanent Datum
 LGMEA  .      MR                 : Log Measured from
 DRMEA  .      MR                 : Drill Measured From
 APDAT  .      66.4               : Elevation Above Permanent Datum
 KB     .      66.7               : KB Elevation
 DF     .      66.4               : DF Elevation
 GL     .      57                 : GL Elevation
 RWS    .      -999               : Def_Rw
 WST    .      -999               : Def_Rwt
 BHS    .      OPEN               : Completion Status
 PROV   .                         : Province
 SRVC   .                         : Contractor
 GDAT   .      WGS 84             : Geodatum
 LONG   .      -38.4314536115858  : Longitude
 LATI   .      -12.5867413889037  : Latitude
 COORDIN.                         : Grid System
 XCOORD .                         : X or East-West Coordinate
 YCOORD .                         : Y or North-South Coordinate
~CURVE INFORMATION
#MNEM              UNIT       API CODE   Curve Type Comments
#----------  --------------- ----------  ---------- -----------
 DEPTH      .M                         : Depth       
 CALI       .inch                      : Caliper     
 BS         .in                        : BitSize     
 GR         .gAPI                      : GammaRay    
 RT         .ohm.m                     : DeepRes     
 NPHI       .m3/m3                     : Neutron     
 RHOB       .g/cm3                     :             
 DT         .us/ft                     : Sonic       
 SP         .mV                        : SP          
 N_Res      .                          :             
 Res        .                          :             
 DRDN       .                          :             
 Lith_new   .                          :             
 DEPTH      .M                         : Depth       
~A  DEPTH    CALI       BS        GR        RT       NPHI      RHOB       DT        SP      N_Res      Res       DRDN    Lith_new   DEPTH   
# ...
1291.5864   12.9046   12.2500   72.6872    3.0365    0.2092    2.4784   82.6452  116.0920 -999.0000 -999.0000    1.3698   57.0000 1291.5864 
1291.7388   12.9778   12.2500   65.7595    3.0004    0.2188    2.4488   83.2716  118.0153 -999.0000 -999.0000    1.0440   57.0000 1291.7388 
1291.8912   13.0413   12.2500   58.7545    2.8625    0.2477    2.4106   83.1783  118.7338 -999.0000 -999.0000    1.2064   57.0000 1291.8912 
1292.0436   13.0922   12.2500   57.5561    2.6089    0.2552    2.3891   81.1238  119.1772 -999.0000 -999.0000    1.3180   57.0000 1292.0436 
1292.1960   13.0440   12.2500   55.8783    2.4182    0.2229    2.4063   77.1172  119.3095 -999.0000 -999.0000    0.7430   57.0000 1292.1960 
1292.3484   13.0181   12.2500   53.3814    2.2343    0.1701    2.4316   76.7385  119.6176 -999.0000 -999.0000   -0.5581   25.0000 1292.3484 
1292.5008   12.9681   12.2500   50.6362    2.1182    0.1543    2.4386   76.9645  119.7470 -999.0000 -999.0000   -1.1701   49.0000 1292.5008 
1292.6532   12.8681   12.2500   45.6129    2.0321    0.1681    2.4211   75.9276  120.1772 -999.0000 -999.0000   -1.0806   49.0000 1292.6532 
1292.8056   12.7423   12.2500   45.4929    2.0534    0.1876    2.4167   80.2694  120.3706 -999.0000 -999.0000   -0.3475   25.0000 1292.8056 
1292.9580   12.5664   12.2500   52.1041    2.1139    0.1854    2.4381   79.2685  120.4360 -999.0000 -999.0000    0.1525   54.0000 1292.9580 
1293.1104   12.5005   12.2500   60.1147    2.2817    0.1956    2.4602   79.2260  120.6816 -999.0000 -999.0000    0.7514   57.0000 1293.1104 
1293.2628   12.4867   12.2500   64.6432    2.2465    0.2198    2.4502   81.2408  121.2367 -999.0000 -999.0000    1.1615   57.0000 1293.2628 
1293.4152   12.5358   12.2500   57.3107    2.0681    0.2376    2.4175   81.6724  120.2126 -999.0000 -999.0000    1.0192   57.0000 1293.4152 
1293.5676   12.5617   12.2500   55.8911    1.9047    0.2398    2.3860   82.1680  121.1029 -999.0000 -999.0000    0.6014   57.0000 1293.5676 
1293.7200   12.5869   12.2500   52.9688    1.8272    0.2292    2.3839   82.2583  121.0030 -999.0000 -999.0000    0.4104   57.0000 1293.7200 
1293.8724   12.5628   12.2500   59.5099    1.8364    0.2232    2.4041   82.1106  121.3661 -999.0000 -999.0000    0.7007   57.0000 1293.8724 
1294.0248   12.4635   12.2500   61.0430    1.9043    0.2123    2.4323   82.3042  118.4459 -999.0000 -999.0000    0.9108   57.0000 1294.0248 
1294.1772   12.4364   12.2500   67.6873    1.9797    0.2061    2.4563   81.2339  120.0837 -999.0000 -999.0000    1.1042   57.0000 1294.1772 
1294.3296   12.4605   12.2500   68.4671    2.1778    0.2057    2.4628   81.3278  119.8199 -999.0000 -999.0000    1.0774   57.0000 1294.3296 
1294.4820   12.4611   12.2500   66.0760    2.1460    0.2197    2.4489   82.2538  119.4464 -999.0000 -999.0000    1.1388   57.0000 1294.4820 
1294.6344   12.4858   12.2500   64.3650    1.9994    0.2261    2.4248   83.4753  119.3155 -999.0000 -999.0000    0.9139   57.0000 1294.6344 
1294.7868   12.5111   12.2500   64.3250    1.8578    0.2414    2.4221   83.8882  119.4956 -999.0000 -999.0000    1.5997   57.0000 1294.7868 
1294.9392   12.4870   12.2500   70.3163    1.7850    0.2303    2.4498   82.8276  119.5000 -999.0000 -999.0000    1.8974   57.0000 1294.9392 
1295.0916   12.4370   12.2500   72.8912    1.9029    0.2349    2.4714   82.2473  118.1575 -999.0000 -999.0000    2.2759   57.0000 1295.0916 
1295.2440   12.3864   12.2500   68.6114    2.0646    0.2216    2.4603   82.5977  118.4301 -999.0000 -999.0000    1.4280   57.0000 1295.2440 
1295.3964   12.3976   12.2500   65.6141    2.0824    0.2244    2.4329   82.8427  117.0340 -999.0000 -999.0000    0.9659   57.0000 1295.3964 
1295.5488   12.3608   12.2500   65.1802    2.0153    0.2268    2.4147   84.3255  117.0000 -999.0000 -999.0000    0.7856   57.0000 1295.5488 
1295.7012   12.2858   12.2500   69.7165    2.0014    0.2357    2.4031   83.9068  116.7559 -999.0000 -999.0000    0.8184   57.0000 1295.7012 
1295.8536   12.2470   12.2500   68.3803    2.0040    0.2349    2.3885   83.2334  115.7126 -999.0000 -999.0000    0.5305   57.0000 1295.8536 
1296.0060   12.2091   12.2500   62.7672    2.0560    0.2282    2.3775   84.6915  116.1757 -999.0000 -999.0000    0.0711   54.0000 1296.0060 
1296.1584   12.1835   12.2500   63.2520    2.1601    0.2144    2.3691   84.7691  115.8824 -999.0000 -999.0000   -0.4707   25.0000 1296.1584 
1296.3108   12.2323   12.2500   62.4406    2.2267    0.2133    2.3707   84.6649  116.0581 -999.0000 -999.0000   -0.4503   25.0000 1296.3108 
1296.4632   12.2829   12.2500   66.1394    2.1696    0.2269    2.3816   84.9332  115.9405 -999.0000 -999.0000    0.3118   57.0000 1296.4632 
1296.6156   12.3087   12.2500   61.6842    2.1052    0.2295    2.3943   85.0155  115.9375 -999.0000 -999.0000    0.5871   57.0000 1296.6156 
1296.7680   12.2846   12.2500   60.0866    2.0648    0.2221    2.4005   83.0602  115.8155 -999.0000 -999.0000    0.4258   57.0000 1296.7680 
1296.9204   12.2840   12.2500   57.0533    2.0717    0.1943    2.3962   82.4086  115.3243 -999.0000 -999.0000   -0.6527   25.0000 1296.9204 
1297.0728   12.2840   12.2500   54.9038    2.1020    0.2091    2.3938   82.6497  114.8853 -999.0000 -999.0000   -0.1311   54.0000 1297.0728 
1297.2252   12.3334   12.2500   56.3413    2.0455    0.2181    2.3973   82.4174  114.9360 -999.0000 -999.0000    0.2292   54.0000 1297.2252 
1297.3776   12.4334   12.2500   58.5481    1.9177    0.2231    2.3995   82.9666  116.1580 -999.0000 -999.0000    0.4632   57.0000 1297.3776 
1297.5300   12.4852   12.2500   60.8842    1.8425    0.2249    2.4061   83.0503  115.8214 -999.0000 -999.0000    0.6423   57.0000 1297.5300 
1297.6824   12.4864   12.2500   59.9434    1.8561    0.2321    2.4067   83.5362  113.9818 -999.0000 -999.0000    0.8780   57.0000 1297.6824 
1297.8348   12.5111   12.2500   55.5295    1.8756    0.2525    2.4118   83.4541  113.7544 -999.0000 -999.0000    1.7108   57.0000 1297.8348 
1297.9872   12.5857   12.2500   54.3384    1.9704    0.2390    2.4214   83.6281  113.8110 -999.0000 -999.0000    1.4721   57.0000 1297.9872 
1298.1396   12.5875   12.2500   58.6138    2.0561    0.2283    2.4348   83.9691  113.4464 -999.0000 -999.0000    1.3996   57.0000 1298.1396 
1298.2920   12.6493   12.2500   64.7604    2.0998    0.2078    2.4481   83.2540  113.4375 -999.0000 -999.0000    0.9592   57.0000 1298.2920 
1298.4444   12.7742   12.2500   70.1235    2.0990    0.1946    2.4508   82.2428  113.8036 -999.0000 -999.0000    0.4615   57.0000 1298.4444 
1298.5968   12.7896   12.2500   70.6629    2.0768    0.2049    2.4451   83.2074  113.6294 -999.0000 -999.0000    0.7012   57.0000 1298.5968 
1298.7492   12.8022   12.2500   72.7388    2.0217    0.2144    2.4366   83.0158  113.9911 -999.0000 -999.0000    0.7891   57.0000 1298.7492 
1298.9016   12.8025   12.2500   73.8218    1.9982    0.2333    2.4222   83.5600  115.9528 -999.0000 -999.0000    1.1087   57.0000 1298.9016 
1299.0540   12.7902   12.2500   70.9544    1.9244    0.2299    2.4003   85.2154  115.2677 -999.0000 -999.0000    0.5095   57.0000 1299.0540 
1299.2064   12.7899   12.2500   64.6865    1.9177    0.2216    2.3860   85.7616  115.1890 -999.0000 -999.0000    0.1088   54.0000 1299.2064 
1299.3588   12.8146   12.2500   64.3300    1.9223    0.2275    2.4066   85.1331  114.6993 -999.0000 -999.0000    1.0349   57.0000 1299.3588 
1299.5112   12.8645   12.2500   70.1097    1.9443    0.2086    2.4709   82.2794  114.5044 -999.0000 -999.0000    1.8990   57.0000 1299.5112 
1299.6636   12.7670   12.2500   72.7288    2.0669    0.1733    2.5505   76.1792  114.6220 -999.0000 -999.0000    2.2837   57.0000 1299.6636 
1299.8160   12.7646   12.2500   66.0188    2.2345    0.1169    2.6037   68.2894  115.6014 -999.0000 -999.0000    1.1077   57.0000 1299.8160 
1299.9684   12.5917   12.2500   60.8966    2.6365    0.1028    2.5989   67.7072  115.8081 -999.0000 -999.0000    0.1710   54.0000 1299.9684 
1300.1208   12.4888   12.2500   57.2645    2.7272    0.1395    2.5446   69.8120  115.5684 -999.0000 -999.0000    0.0604   54.0000 1300.1208 
