~VERSION INFORMATION
 VERS.                 2.0:   CWLS LOG ASCII STANDARD - VERSION 2.0
 WRAP.                  NO:   SINGLE LINE PER DEPTH STEP
 CREA.                 28/08/2020 11:52:07
#CREATED USING IP VERSION 4.5.2019.2902 BY CANDIDO ON 28/08/2020 11:52:07
~WELL INFORMATION
#MNEM.UNIT       DATA                          DESCRIPTION MNEMONIC
#---------      ---------------------------   --------------------------
 STRT    .M         639.0000                  : START DEPTH
 STOP    .M         3007.1000                 : STOP DEPTH
 STEP    .M         0.1000                    : STEP VALUE
 NULL    .      -999.0000                     : NULL VALUE
 DATE    .      28/08/2020                    : LAS file Creation Date
 WELL   .      7-MP-55D-BA     : Well Name
 COMP   .      PETROBRAS       : Company
 FLD    .      MASSAPE         : Field
 STATE  .      BAHIA           : State
 COUNT  .      -999.25         : Country
 API    .      20240028408     : API Number
 UWI    .                      : Unique Well Identifier (UWI)
 LOC    .      -999.25         : Location
 TOWN   .      -999.25         : Township
 SCT    .      -999.25         : Section
 RANG   .      -999.25         : Range
 PDAT   .      NM              : Permanent Datum
 EPDAT  .      0.00            : Elevation of Permanent Datum
 LGMEA  .      MR              : Log Measured from
 DRMEA  .      MR              : Drill Measured From
 APDAT  .      65.67           : Elevation Above Permanent Datum
 KB     .      65.97           : KB Elevation
 DF     .      65.67           : DF Elevation
 GL     .      56.27           : GL Elevation
 RWS    .      -999            : Def_Rw
 WST    .      -999            : Def_Rwt
 PROV   .                      : Province
 SRVC   .                      : Contractor
 GDAT   .      WGS 84          : Geodatum
 LONG   .      -38.435231944455: Longitude
 LATI   .      0               : Latitude
 COORDIN.                      : Grid System
 XCOORD .                      : X or East-West Coordinate
 YCOORD .                      : Y or North-South Coordinate
~CURVE INFORMATION
#MNEM                UNIT       API CODE   Curve Type Comments
#----------    --------------- ----------  ---------- -----------
 DEPTH        .M                         : Depth       
 TVD          .M                         : Depth       
 TVDSS        .M                         : Depth       
 GR           .api                       : GammaRay    
 CAL          .in                        : Caliper     
 BS           .in                        : BitSize     
 Lith_new     .                          :             
 RT           .ohmm                      : DeepRes     
 NPHI         .decp                      : Neutron     
 RHOB         .g/cc                      : Density     
 Res          .                          :             
 N_Res        .                          :             
 VCLGR        .Dec                       : Vcl         
 Phi_Gaymard  .                          :             
 Phie_Gaymard .                          :             
 SwArch       .Dec                       :             
 SwSim        .Dec                       :             
~A  DEPTH    TVD      TVDSS       GR       CAL        BS     Lith_new     RT       NPHI      RHOB      Res      N_Res     VCLGR   Phi_Gaym~ Phie_Gay~   SwArch    SwSim   
# ...
1898.6000 1890.6529 -1824.9829   79.8448    8.5336    8.5000   57.0000    6.4481    0.1227    2.6368 -999.0000 -999.0000 -999.0000 -999.0000 -999.0000 -999.0000 -999.0000 
1898.7000 1890.7517 -1825.0817   79.4555    8.5368    8.5000   57.0000    6.6637    0.1227    2.6434 -999.0000 -999.0000 -999.0000 -999.0000 -999.0000 -999.0000 -999.0000 
1898.8000 1890.8505 -1825.1805   79.8372    8.5313    8.5000   57.0000    7.1639    0.1216    2.6499 -999.0000 -999.0000 -999.0000 -999.0000 -999.0000 -999.0000 -999.0000 
1898.9000 1890.9493 -1825.2793   78.3792    8.5279    8.5000   57.0000    7.4206    0.1236    2.6489 -999.0000 -999.0000 -999.0000 -999.0000 -999.0000 -999.0000 -999.0000 
1899.0000 1891.0481 -1825.3781   76.8144    8.4985    8.5000   57.0000    7.7730    0.1109    2.6467 -999.0000 -999.0000 -999.0000 -999.0000 -999.0000 -999.0000 -999.0000 
1899.1000 1891.1469 -1825.4769   72.1199    8.4934    8.5000   57.0000    8.8376    0.1096    2.6364 -999.0000 -999.0000 -999.0000 -999.0000 -999.0000 -999.0000 -999.0000 
1899.2000 1891.2457 -1825.5757   69.9062    8.4849    8.5000   57.0000    9.3383    0.1091    2.6363 -999.0000 -999.0000 -999.0000 -999.0000 -999.0000 -999.0000 -999.0000 
1899.3000 1891.3445 -1825.6745   65.9292    8.4816    8.5000   57.0000    9.7137    0.0913    2.6353 -999.0000 -999.0000 -999.0000 -999.0000 -999.0000 -999.0000 -999.0000 
1899.4000 1891.4433 -1825.7733   60.5859    8.4695    8.5000   57.0000    9.6864    0.0928    2.6368 -999.0000 -999.0000 -999.0000 -999.0000 -999.0000 -999.0000 -999.0000 
1899.5000 1891.5421 -1825.8721   60.1813    8.4673    8.5000   57.0000    8.8689    0.0945    2.6333 -999.0000 -999.0000 -999.0000 -999.0000 -999.0000 -999.0000 -999.0000 
1899.6000 1891.6409 -1825.9709   64.7766    8.4734    8.5000   57.0000    7.7075    0.1134    2.6280 -999.0000 -999.0000 -999.0000 -999.0000 -999.0000 -999.0000 -999.0000 
1899.7000 1891.7397 -1826.0697   71.5397    8.4455    8.5000   57.0000    6.6483    0.1267    2.6189 -999.0000 -999.0000 -999.0000 -999.0000 -999.0000 -999.0000 -999.0000 
1899.8000 1891.8385 -1826.1685   86.8293    8.4920    8.5000   57.0000    5.6085    0.1422    2.5920 -999.0000 -999.0000 -999.0000 -999.0000 -999.0000 -999.0000 -999.0000 
1899.9000 1891.9373 -1826.2674   90.8979    8.4825    8.5000   57.0000    5.6135    0.1605    2.5856 -999.0000 -999.0000 -999.0000 -999.0000 -999.0000 -999.0000 -999.0000 
1900.0000 1892.0362 -1826.3662   91.1116    8.4608    8.5000   57.0000    5.9069    0.1556    2.5809 -999.0000 -999.0000 -999.0000 -999.0000 -999.0000 -999.0000 -999.0000 
1900.1000 1892.1350 -1826.4650   82.0508    8.4842    8.5000   57.0000    7.1491    0.1356    2.5909 -999.0000 -999.0000 -999.0000 -999.0000 -999.0000 -999.0000 -999.0000 
1900.2000 1892.2338 -1826.5638   74.9442    8.4423    8.5000   57.0000    7.8929    0.1164    2.5922 -999.0000 -999.0000 -999.0000 -999.0000 -999.0000 -999.0000 -999.0000 
1900.3000 1892.3326 -1826.6626   69.4634    8.4355    8.5000   57.0000    8.5612    0.1140    2.5951 -999.0000 -999.0000 -999.0000 -999.0000 -999.0000 -999.0000 -999.0000 
1900.4000 1892.4314 -1826.7614   61.9828    8.4108    8.5000   54.0000    9.4876    0.1104    2.5751 -999.0000 -999.0000 -999.0000 -999.0000 -999.0000 -999.0000 -999.0000 
1900.5000 1892.5302 -1826.8602   59.8989    8.4227    8.5000   54.0000    9.7400    0.1049    2.5629 -999.0000 -999.0000 -999.0000 -999.0000 -999.0000 -999.0000 -999.0000 
1900.6000 1892.6290 -1826.9590   56.8303    8.4262    8.5000   25.0000    9.8343    0.0919    2.5490 -999.0000 -999.0000 -999.0000 -999.0000 -999.0000 -999.0000 -999.0000 
1900.7000 1892.7278 -1827.0578   55.0212    8.4233    8.5000   25.0000    9.5058    0.0903    2.5510 -999.0000 -999.0000 -999.0000 -999.0000 -999.0000 -999.0000 -999.0000 
1900.8000 1892.8266 -1827.1566   57.2577    8.4293    8.5000   25.0000    9.1402    0.0949    2.5562 -999.0000 -999.0000 -999.0000 -999.0000 -999.0000 -999.0000 -999.0000 
1900.9000 1892.9254 -1827.2554   61.0897    8.4230    8.5000   25.0000    8.7379    0.0996    2.5642 -999.0000 -999.0000 -999.0000 -999.0000 -999.0000 -999.0000 -999.0000 
1901.0000 1893.0242 -1827.3542   70.2726    8.4003    8.5000   54.0000    8.1437    0.1055    2.5734 -999.0000 -999.0000 -999.0000 -999.0000 -999.0000 -999.0000 -999.0000 
1901.1000 1893.1230 -1827.4530   73.7916    8.4158    8.5000   57.0000    7.9631    0.1148    2.5794 -999.0000 -999.0000 -999.0000 -999.0000 -999.0000 -999.0000 -999.0000 
1901.2000 1893.2218 -1827.5518   75.5549    8.4130    8.5000   57.0000    7.7532    0.1306    2.5825 -999.0000 -999.0000 -999.0000 -999.0000 -999.0000 -999.0000 -999.0000 
1901.3000 1893.3206 -1827.6506   76.9136    8.4039    8.5000   57.0000    7.4452    0.1361    2.5833 -999.0000 -999.0000 -999.0000 -999.0000 -999.0000 -999.0000 -999.0000 
1901.4000 1893.4194 -1827.7494   82.4859    8.3990    8.5000   57.0000    6.6801    0.1421    2.5782 -999.0000 -999.0000 -999.0000 -999.0000 -999.0000 -999.0000 -999.0000 
1901.5000 1893.5182 -1827.8482   87.6384    8.4231    8.5000   57.0000    6.3722    0.1673    2.5795 -999.0000 -999.0000 -999.0000 -999.0000 -999.0000 -999.0000 -999.0000 
1901.6000 1893.6170 -1827.9470   92.7146    8.4132    8.5000   57.0000    6.1619    0.1753    2.5842 -999.0000 -999.0000 -999.0000 -999.0000 -999.0000 -999.0000 -999.0000 
1901.7000 1893.7158 -1828.0458   95.8748    8.4386    8.5000   57.0000    5.8634    0.1748    2.6012 -999.0000 -999.0000 -999.0000 -999.0000 -999.0000 -999.0000 -999.0000 
1901.8000 1893.8145 -1828.1445   95.7374    8.4373    8.5000   57.0000    5.6346    0.1790    2.6066 -999.0000 -999.0000 -999.0000 -999.0000 -999.0000 -999.0000 -999.0000 
1901.9000 1893.9133 -1828.2433   95.2794    8.4476    8.5000   57.0000    5.3356    0.1840    2.6079 -999.0000 -999.0000 -999.0000 -999.0000 -999.0000 -999.0000 -999.0000 
1902.0000 1894.0121 -1828.3421   97.0198    8.4541    8.5000   57.0000    4.7822    0.1934    2.5953 -999.0000 -999.0000 -999.0000 -999.0000 -999.0000 -999.0000 -999.0000 
1902.1000 1894.1109 -1828.4409   98.2412    8.4624    8.5000   57.0000    4.6301    0.2081    2.5850 -999.0000 -999.0000 -999.0000 -999.0000 -999.0000 -999.0000 -999.0000 
1902.2000 1894.2097 -1828.5397   99.8442    8.4545    8.5000   57.0000    4.5870    0.2134    2.5733 -999.0000 -999.0000 -999.0000 -999.0000 -999.0000 -999.0000 -999.0000 
1902.3000 1894.3085 -1828.6385   99.8900    8.4392    8.5000   57.0000    4.8538    0.2119    2.5594 -999.0000 -999.0000 -999.0000 -999.0000 -999.0000 -999.0000 -999.0000 
1902.4000 1894.4073 -1828.7373   97.7221    8.4128    8.5000   57.0000    5.2197    0.2006    2.5588 -999.0000 -999.0000 -999.0000 -999.0000 -999.0000 -999.0000 -999.0000 
1902.5000 1894.5061 -1828.8361   93.7528    8.4485    8.5000   57.0000    5.8044    0.1800    2.5634 -999.0000 -999.0000 -999.0000 -999.0000 -999.0000 -999.0000 -999.0000 
1902.6000 1894.6049 -1828.9349   81.7684    8.4144    8.5000   57.0000    8.0782    0.1548    2.5812 -999.0000 -999.0000 -999.0000 -999.0000 -999.0000 -999.0000 -999.0000 
1902.7000 1894.7037 -1829.0337   74.0053    8.4254    8.5000   57.0000   10.3057    0.1342    2.5918 -999.0000 -999.0000 -999.0000 -999.0000 -999.0000 -999.0000 -999.0000 
1902.8000 1894.8025 -1829.1325   64.5018    8.4327    8.5000   57.0000   13.8003    0.0999    2.6034 -999.0000 -999.0000 -999.0000 -999.0000 -999.0000 -999.0000 -999.0000 
1902.9000 1894.9013 -1829.2313   56.5020    8.4126    8.5000   54.0000   18.7874    0.0790    2.6135 -999.0000 -999.0000 -999.0000 -999.0000 -999.0000 -999.0000 -999.0000 
1903.0000 1895.0001 -1829.3301   48.6855    8.4061    8.5000   54.0000   29.7211    0.0635    2.6329 -999.0000 -999.0000 -999.0000 -999.0000 -999.0000 -999.0000 -999.0000 
1903.1000 1895.0989 -1829.4289   48.8381    8.4045    8.5000   25.0000   32.0002    0.0511    2.6335 -999.0000 -999.0000 -999.0000 -999.0000 -999.0000 -999.0000 -999.0000 
1903.2000 1895.1977 -1829.5277   49.2503    8.3878    8.5000   25.0000   31.3936    0.0539    2.6289 -999.0000 -999.0000 -999.0000 -999.0000 -999.0000 -999.0000 -999.0000 
