~VERSION INFORMATION
 VERS.                 2.0:   CWLS LOG ASCII STANDARD - VERSION 2.0
 WRAP.                  NO:   SINGLE LINE PER DEPTH STEP
 CREA.                 28/08/2020 11:52:07
#CREATED USING IP VERSION 4.5.2019.2902 BY CANDIDO ON 28/08/2020 11:52:07
~WELL INFORMATION
#MNEM.UNIT       DATA                          DESCRIPTION MNEMONIC
#---------      ---------------------------   --------------------------
 STRT    .M         639.0000                  : START DEPTH
 STOP    .M         3007.1000                 : STOP DEPTH
 STEP    .M         0.1000                    : STEP VALUE
 NULL    .      -999.0000                     : NULL VALUE
 DATE    .      28/08/2020                    : LAS file Creation Date
 WELL   .      7-MP-55D-BA     : Well Name
 COMP   .      PETROBRAS       : Company
 FLD    .      MASSAPE         : Field
 STATE  .      BAHIA           : State
 COUNT  .      -999.25         : Country
 API    .      20240028408     : API Number
 UWI    .                      : Unique Well Identifier (UWI)
 LOC    .      -999.25         : Location
 TOWN   .      -999.25         : Township
 SCT    .      -999.25         : Section
 RANG   .      -999.25         : Range
 PDAT   .      NM              : Permanent Datum
 EPDAT  .      0.00            : Elevation of Permanent Datum
 LGMEA  .      MR              : Log Measured from
 DRMEA  .      MR              : Drill Measured From
 APDAT  .      65.67           : Elevation Above Permanent Datum
 KB     .      65.97           : KB Elevation
 DF     .      65.67           : DF Elevation
 GL     .      56.27           : GL Elevation
 RWS    .      -999            : Def_Rw
 WST    .      -999            : Def_Rwt
 PROV   .                      : Province
 SRVC   .                      : Contractor
 GDAT   .      WGS 84          : Geodatum
 LONG   .      -38.435231944455: Longitude
 LATI   .      0               : Latitude
 COORDIN.                      : Grid System
 XCOORD .                      : X or East-West Coordinate
 YCOORD .                      : Y or North-South Coordinate
~CURVE INFORMATION
#MNEM                UNIT       API CODE   Curve Type Comments
#----------    --------------- ----------  ---------- -----------
 DEPTH        .M                         : Depth       
 TVD          .M                         : Depth       
 TVDSS        .M                         : Depth       
 GR           .api                       : GammaRay    
 CAL          .in                        : Caliper     
 BS           .in                        : BitSize     
 Lith_new     .                          :             
 RT           .ohmm                      : DeepRes     
 NPHI         .decp                      : Neutron     
 RHOB         .g/cc                      : Density     
 Res          .                          :             
 N_Res        .                          :             
 VCLGR        .Dec                       : Vcl         
 Phi_Gaymard  .                          :             
 Phie_Gaymard .                          :             
 SwArch       .Dec                       :             
 SwSim        .Dec                       :             
~A  DEPTH    TVD      TVDSS       GR       CAL        BS     Lith_new     RT       NPHI      RHOB      Res      N_Res     VCLGR   Phi_Gaym~ Phie_Gay~   SwArch    SwSim   
# ...
1983.2000 1974.2409 -1908.5709  101.0426    8.5278    8.5000   57.0000    2.6624    0.2490    2.5450 -999.0000 -999.0000 -999.0000 -999.0000 -999.0000 -999.0000 -999.0000 
1983.3000 1974.3396 -1908.6696  103.2792    8.5353    8.5000   57.0000    2.7052    0.2541    2.5446 -999.0000 -999.0000 -999.0000 -999.0000 -999.0000 -999.0000 -999.0000 
1983.4000 1974.4383 -1908.7683  105.2409    8.5325    8.5000   57.0000    2.6877    0.2609    2.5538 -999.0000 -999.0000 -999.0000 -999.0000 -999.0000 -999.0000 -999.0000 
1983.5000 1974.5370 -1908.8670  104.6074    8.5268    8.5000   57.0000    2.6436    0.2604    2.5635 -999.0000 -999.0000 -999.0000 -999.0000 -999.0000 -999.0000 -999.0000 
1983.6000 1974.6357 -1908.9657  103.5616    8.5203    8.5000   57.0000    2.5805    0.2595    2.5710 -999.0000 -999.0000 -999.0000 -999.0000 -999.0000 -999.0000 -999.0000 
1983.7000 1974.7344 -1909.0644   99.2030    8.5234    8.5000   57.0000    2.4462    0.2507    2.5768 -999.0000 -999.0000 -999.0000 -999.0000 -999.0000 -999.0000 -999.0000 
1983.8000 1974.8331 -1909.1631   96.6840    8.5234    8.5000   57.0000    2.3959    0.2382    2.5763 -999.0000 -999.0000 -999.0000 -999.0000 -999.0000 -999.0000 -999.0000 
1983.9000 1974.9318 -1909.2618   94.0505    8.5290    8.5000   57.0000    2.3599    0.2407    2.5756 -999.0000 -999.0000 -999.0000 -999.0000 -999.0000 -999.0000 -999.0000 
1984.0000 1975.0305 -1909.3606   95.7909    8.5232    8.5000   57.0000    2.3240    0.2481    2.5823 -999.0000 -999.0000 -999.0000 -999.0000 -999.0000 -999.0000 -999.0000 
1984.1000 1975.1293 -1909.4593   98.8213    8.5274    8.5000   57.0000    2.3295    0.2467    2.5840 -999.0000 -999.0000 -999.0000 -999.0000 -999.0000 -999.0000 -999.0000 
1984.2000 1975.2280 -1909.5580  102.0731    8.5201    8.5000   57.0000    2.3509    0.2485    2.5807 -999.0000 -999.0000 -999.0000 -999.0000 -999.0000 -999.0000 -999.0000 
1984.3000 1975.3267 -1909.6567  102.2868    8.5068    8.5000   57.0000    2.4039    0.2585    2.5608 -999.0000 -999.0000 -999.0000 -999.0000 -999.0000 -999.0000 -999.0000 
1984.4000 1975.4254 -1909.7554  101.3479    8.5188    8.5000   57.0000    2.4257    0.2674    2.5544 -999.0000 -999.0000 -999.0000 -999.0000 -999.0000 -999.0000 -999.0000 
1984.5000 1975.5241 -1909.8541  100.4243    8.5250    8.5000   57.0000    2.4502    0.2631    2.5521 -999.0000 -999.0000 -999.0000 -999.0000 -999.0000 -999.0000 -999.0000 
1984.6000 1975.6228 -1909.9528  102.1342    8.5241    8.5000   57.0000    2.5223    0.2661    2.5600 -999.0000 -999.0000 -999.0000 -999.0000 -999.0000 -999.0000 -999.0000 
1984.7000 1975.7215 -1910.0515  103.6837    8.5269    8.5000   57.0000    2.5510    0.2641    2.5638 -999.0000 -999.0000 -999.0000 -999.0000 -999.0000 -999.0000 -999.0000 
1984.8000 1975.8202 -1910.1502  103.7601    8.5276    8.5000   57.0000    2.5464    0.2655    2.5677 -999.0000 -999.0000 -999.0000 -999.0000 -999.0000 -999.0000 -999.0000 
1984.9000 1975.9189 -1910.2489  104.1646    8.5258    8.5000   57.0000    2.3978    0.2693    2.5676 -999.0000 -999.0000 -999.0000 -999.0000 -999.0000 -999.0000 -999.0000 
1985.0000 1976.0176 -1910.3476  103.2028    8.5224    8.5000   57.0000    2.2773    0.2592    2.5633 -999.0000 -999.0000 -999.0000 -999.0000 -999.0000 -999.0000 -999.0000 
1985.1000 1976.1163 -1910.4463  104.6303    8.5228    8.5000   57.0000    2.1552    0.2489    2.5592 -999.0000 -999.0000 -999.0000 -999.0000 -999.0000 -999.0000 -999.0000 
1985.2000 1976.2150 -1910.5450  104.7448    8.5199    8.5000   57.0000    2.0475    0.2512    2.5545 -999.0000 -999.0000 -999.0000 -999.0000 -999.0000 -999.0000 -999.0000 
1985.3000 1976.3137 -1910.6437  106.3630    8.5121    8.5000   57.0000    1.9027    0.2621    2.5499 -999.0000 -999.0000 -999.0000 -999.0000 -999.0000 -999.0000 -999.0000 
1985.4000 1976.4124 -1910.7424  104.6303    8.5257    8.5000   57.0000    1.8687    0.2809    2.5475 -999.0000 -999.0000 -999.0000 -999.0000 -999.0000 -999.0000 -999.0000 
1985.5000 1976.5111 -1910.8411  101.3098    8.5287    8.5000   57.0000    1.8650    0.2706    2.5470 -999.0000 -999.0000 -999.0000 -999.0000 -999.0000 -999.0000 -999.0000 
1985.6000 1976.6098 -1910.9398   95.7909    8.5070    8.5000   57.0000    1.9964    0.2750    2.5447 -999.0000 -999.0000 -999.0000 -999.0000 -999.0000 -999.0000 -999.0000 
1985.7000 1976.7085 -1911.0385   95.4092    8.5119    8.5000   57.0000    2.1731    0.2584    2.5449 -999.0000 -999.0000 -999.0000 -999.0000 -999.0000 -999.0000 -999.0000 
1985.8000 1976.8072 -1911.1372   96.8519    8.5264    8.5000   57.0000    2.4647    0.2429    2.5438 -999.0000 -999.0000 -999.0000 -999.0000 -999.0000 -999.0000 -999.0000 
1985.9000 1976.9059 -1911.2359   94.4779    8.5026    8.5000   57.0000    3.5554    0.2162    2.5557 -999.0000 -999.0000 -999.0000 -999.0000 -999.0000 -999.0000 -999.0000 
1986.0000 1977.0046 -1911.3346   91.6536    8.5035    8.5000   57.0000    4.4388    0.2130    2.5700 -999.0000 -999.0000 -999.0000 -999.0000 -999.0000 -999.0000 -999.0000 
1986.1000 1977.1033 -1911.4333   87.3484    8.4773    8.5000   57.0000    5.6099    0.1827    2.5908 -999.0000 -999.0000 -999.0000 -999.0000 -999.0000 -999.0000 -999.0000 
1986.2000 1977.2020 -1911.5320   81.5241    8.4639    8.5000   57.0000    8.8383    0.1646    2.6239 -999.0000 -999.0000 -999.0000 -999.0000 -999.0000 -999.0000 -999.0000 
1986.3000 1977.3007 -1911.6307   78.6922    8.4570    8.5000   57.0000   10.6599    0.1519    2.6299 -999.0000 -999.0000 -999.0000 -999.0000 -999.0000 -999.0000 -999.0000 
1986.4000 1977.3994 -1911.7294   76.8754    8.4681    8.5000   57.0000   12.3102    0.1234    2.6292 -999.0000 -999.0000 -999.0000 -999.0000 -999.0000 -999.0000 -999.0000 
1986.5000 1977.4981 -1911.8281   73.6771    8.4697    8.5000   57.0000   14.3184    0.1178    2.6197 -999.0000 -999.0000 -999.0000 -999.0000 -999.0000 -999.0000 -999.0000 
1986.6000 1977.5968 -1911.9268   72.1351    8.4819    8.5000   57.0000   14.6451    0.1177    2.6125 -999.0000 -999.0000 -999.0000 -999.0000 -999.0000 -999.0000 -999.0000 
1986.7000 1977.6955 -1912.0255   70.2421    8.4690    8.5000   57.0000   14.7034    0.1190    2.6098 -999.0000 -999.0000 -999.0000 -999.0000 -999.0000 -999.0000 -999.0000 
1986.8000 1977.7942 -1912.1242   68.5780    8.4704    8.5000   57.0000   14.6183    0.1212    2.6117 -999.0000 -999.0000 -999.0000 -999.0000 -999.0000 -999.0000 -999.0000 
1986.9000 1977.8929 -1912.2229   70.3947    8.4661    8.5000   57.0000   14.1635    0.1255    2.6343 -999.0000 -999.0000 -999.0000 -999.0000 -999.0000 -999.0000 -999.0000 
1987.0000 1977.9916 -1912.3216   73.7763    8.4712    8.5000   57.0000   13.7801    0.1380    2.6440 -999.0000 -999.0000 -999.0000 -999.0000 -999.0000 -999.0000 -999.0000 
1987.1000 1978.0903 -1912.4203   76.8525    8.4689    8.5000   57.0000   13.2206    0.1476    2.6540 -999.0000 -999.0000 -999.0000 -999.0000 -999.0000 -999.0000 -999.0000 
1987.2000 1978.1890 -1912.5190   80.6234    8.4504    8.5000   57.0000   11.0918    0.1606    2.6380 -999.0000 -999.0000 -999.0000 -999.0000 -999.0000 -999.0000 -999.0000 
1987.3000 1978.2876 -1912.6177   82.9287    8.4494    8.5000   57.0000    9.6099    0.1846    2.6181 -999.0000 -999.0000 -999.0000 -999.0000 -999.0000 -999.0000 -999.0000 
1987.4000 1978.3863 -1912.7163   85.3866    8.4679    8.5000   57.0000    8.1268    0.1909    2.5885 -999.0000 -999.0000 -999.0000 -999.0000 -999.0000 -999.0000 -999.0000 
1987.5000 1978.4850 -1912.8150   93.3711    8.4712    8.5000   57.0000    5.8490    0.1964    2.5557 -999.0000 -999.0000 -999.0000 -999.0000 -999.0000 -999.0000 -999.0000 
1987.6000 1978.5837 -1912.9137   95.9206    8.4771    8.5000   57.0000    5.1491    0.2065    2.5513 -999.0000 -999.0000 -999.0000 -999.0000 -999.0000 -999.0000 -999.0000 
1987.7000 1978.6824 -1913.0124   96.8595    8.4745    8.5000   57.0000    4.6690    0.2050    2.5502 -999.0000 -999.0000 -999.0000 -999.0000 -999.0000 -999.0000 -999.0000 
1987.8000 1978.7811 -1913.1111   97.1191    8.4620    8.5000   57.0000    4.0164    0.2057    2.5497 -999.0000 -999.0000 -999.0000 -999.0000 -999.0000 -999.0000 -999.0000 
