~VERSION INFORMATION
 VERS.                 2.0:   CWLS LOG ASCII STANDARD - VERSION 2.0
 WRAP.                  NO:   SINGLE LINE PER DEPTH STEP
 CREA.                 06/02/2020 16:07:36
#CREATED USING IP VERSION 4.5.2019.2902 BY RMOTA ON 06/02/2020 16:07:36
~WELL INFORMATION
#MNEM.UNIT       DATA                          DESCRIPTION MNEMONIC
#---------      ---------------------------   --------------------------
 STRT    .M         18.4404                   : START DEPTH
 STOP    .M         3544.2144                 : STOP DEPTH
 STEP    .M         0.1524                    : STEP VALUE
 NULL    .      -999.0000                     : NULL VALUE
 DATE    .      06/02/2020                    : LAS file Creation Date
 WELL   .      7-MP-25-BA         : Well Name
 COMP   .      PETROBRAS          : Company
 FLD    .      MASSAPE            : Field
 STATE  .      20240021268        : State
 COUNT  .      BRASIL             : Country
 API    .      20240021268        : API Number
 UWI    .                         : Unique Well Identifier (UWI)
 LOC    .      N= 8.607.478,570 m : Location
 TOWN   .      CTU                : Township
 SCT    .      OH WIRELINE        : Section
 RANG   .      SCHLUMBERGER       : Range
 PDAT   .      NM                 : Permanent Datum
 EPDAT  .      0                  : Elevation of Permanent Datum
 LGMEA  .      MR                 : Log Measured from
 DRMEA  .      MR                 : Drill Measured From
 APDAT  .      65.76              : Elevation Above Permanent Datum
 KB     .      66.06              : KB Elevation
 DF     .      65.76              : DF Elevation
 GL     .      56.36              : GL Elevation
 RWS    .      -999               : Def_Rw
 WST    .      -999               : Def_Rwt
 BHS    .      OPEN               : Completion Status
 PROV   .                         : Province
 MDEC   .      -23.10323          : Magnetic Declination
 SRVC   .                         : Contractor
 GDAT   .      WGS 84             : Geodatum
 LONG   .      -38.4344958333174  : Longitude
 LATI   .      -12.5959183332655  : Latitude
 COORDIN.                         : Grid System
 XCOORD .                         : X or East-West Coordinate
 YCOORD .                         : Y or North-South Coordinate
~CURVE INFORMATION
#MNEM              UNIT       API CODE   Curve Type Comments
#----------  --------------- ----------  ---------- -----------
 DEPTH      .M                         : Depth       
 BS         .in                        : BitSize     
 GR         .gAPI                      : GammaRay    
 CAL        .inch                      : Caliper     
 RT         .ohm.m                     : DeepRes     
 NPHI       .m3/m3                     : Neutron     
 RHOB       .g/cm3                     : Density     
 DT         .us/ft                     : Sonic       
 SP         .mV                        : SP          
 DRDN       .                          :             
 Lith_new   .                          :             
~A  DEPTH     BS        GR       CAL        RT       NPHI      RHOB       DT        SP       DRDN    Lith_new 
# ...
1920.8496   12.2500   72.7299   12.3506    9.2002    0.1403    2.5977   73.3377  922.7500    1.6305   57.0000 
1921.0020   12.2500   73.5158   12.3544   11.9865    0.1458    2.6002   70.7725  923.2500    1.8650   57.0000 
1921.1544   12.2500   71.1604   12.4145   13.3548    0.1104    2.6055   67.6283  925.9375    0.7905   57.0000 
1921.3068   12.2500   58.1367   12.3168   15.6041    0.0690    2.6006   64.7470  924.3750   -0.6883   25.0000 
1921.4592   12.2500   44.3271   12.3393   20.1036    0.0355    2.5871   62.6037  924.6250   -2.0765   49.0000 
1921.6116   12.2500   35.3662   12.3468   23.8849    0.0356    2.5540   64.2120  929.3750   -2.7340   49.0000 
1921.7640   12.2500   36.8258   12.3093   18.9922    0.0437    2.5229   65.8678  930.0000   -3.0830   49.0000 
1921.9164   12.2500   42.1026   12.2717   11.1031    0.0567    2.5114   69.0151  928.6250   -2.8805   49.0000 
1922.0688   12.2500   51.0845   12.2830    7.1834    0.0891    2.5108   70.9093  926.3750   -1.8131   49.0000 
1922.2212   12.2500   56.7921   12.3055    5.9376    0.1194    2.5098   72.8313  923.1250   -0.8228   25.0000 
1922.3736   12.2500   57.8026   12.3055    5.0195    0.1323    2.4779   73.0182  932.0625   -1.0330   49.0000 
1922.5260   12.2500   49.0329   12.2830    4.2162    0.1262    2.4549   72.7541  922.0625   -1.6945   49.0000 
1922.6784   12.2500   41.4167   12.2830    3.5840    0.1110    2.4377   71.3914  920.4375   -2.5459   49.0000 
1922.8308   12.2500   35.9153   12.2604    3.3915    0.1027    2.4424   70.2928  918.7500   -2.7295   49.0000 
1922.9832   12.2500   36.4890   12.2379    3.2441    0.0945    2.4415   69.0316  912.5000   -3.0205   49.0000 
1923.1356   12.2500   38.8467   12.2491    3.1751    0.1031    2.4416   69.8334  925.2500   -2.7325   49.0000 
1923.2880   12.2500   40.7554   12.2642    3.0482    0.1006    2.4342   70.5892  925.9375   -2.9636   49.0000 
1923.4404   12.2500   42.8886   12.2642    2.9618    0.0981    2.4353   71.6130  922.5000   -3.0236   49.0000 
1923.5928   12.2500   39.1741   12.2792    2.8958    0.0879    2.4359   72.3487  924.5000   -3.3512   49.0000 
1923.7452   12.2500   36.5918   12.2867    2.8690    0.0981    2.4373   72.4959  928.6250   -2.9831   49.0000 
1923.8976   12.2500   33.7850   12.2942    2.8906    0.1009    2.4278   72.7371  922.6875   -3.0817   49.0000 
1924.0500   12.2500   38.3836   12.2830    3.0033    0.1019    2.4198   71.9369  919.6875   -3.2080   49.0000 
1924.2024   12.2500   39.8432   12.3017    3.3176    0.0871    2.4251   70.6392  930.2500   -3.5937   49.0000 
1924.3548   12.2500   40.9659   12.2942    3.6863    0.0708    2.4520   68.8671  935.5625   -3.5992   49.0000 
1924.5072   12.2500   38.9590   12.2642    4.1495    0.0661    2.4964   66.8201  931.6875   -2.8688   49.0000 
1924.6596   12.2500   40.5308   12.1589    4.8037    0.0660    2.5373   65.2191  932.1250   -2.0546   49.0000 
1924.8120   12.2500   49.7372   12.1289    5.9369    0.1111    2.5633   69.3651  932.5625   -0.0325   54.0000 
1924.9644   12.2500   68.1501   12.1439    5.7344    0.1759    2.5754   76.5297  932.4375    2.3700   57.0000 
1925.1168   12.2500   84.0619   12.1289    4.1773    0.2501    2.5817   85.0270  935.4375    4.9698   57.0000 
1925.2692   12.2500   96.4120   12.1439    3.2597    0.2971    2.5779   87.0154  938.0000    6.4607   57.0000 
1925.4216   12.2500   98.7370   12.1589    2.8230    0.3033    2.5698   90.1044  937.0625    6.5056   57.0000 
1925.5740   12.2500  103.3712   12.1702    2.7052    0.2967    2.5638   88.7720  935.1875    6.1669   57.0000 
1925.7264   12.2500   96.6348   12.1364    2.6586    0.2708    2.5696   87.5400  937.1875    5.4193   57.0000 
1925.8788   12.2500   98.2393   12.1138    2.5761    0.2623    2.5657   86.5930  930.6875    5.0577   57.0000 
1926.0312   12.2500   93.0748   12.0988    2.6495    0.2629    2.5635   85.9473  933.9375    5.0321   57.0000 
1926.1836   12.2500   94.6466   12.0612    2.7141    0.2672    2.5580   84.8741  931.1875    5.0682   57.0000 
1926.3360   12.2500   89.0329   12.0612    2.8132    0.2537    2.5599   83.3242  929.3750    4.6554   57.0000 
1926.4884   12.2500   86.5349   12.0311    3.0237    0.2312    2.5750   82.2065  934.8125    4.2072   57.0000 
1926.6408   12.2500   85.2999   12.0462    3.2999    0.2324    2.5878   81.4700  936.3750    4.5014   57.0000 
1926.7932   12.2500   88.6361   12.0838    3.2203    0.2421    2.6007   82.7677  933.8125    5.0836   57.0000 
1926.9456   12.2500   87.7659   12.0913    2.9960    0.2799    2.5937   85.6557  935.6250    6.2029   57.0000 
1927.0980   12.2500   88.8886   12.0988    2.7596    0.2800    2.5900   85.5093  936.0000    6.1337   57.0000 
1927.2504   12.2500   85.1034   12.1138    2.5973    0.2985    2.5882   87.0185  935.6875    6.7146   57.0000 
1927.4028   12.2500   85.6647   12.1364    2.5576    0.2815    2.5806   87.1814  934.9375    5.9952   57.0000 
1927.5552   12.2500   87.6857   12.1364    2.3608    0.2919    2.5716   88.8654  935.4375    6.1627   57.0000 
1927.7076   12.2500   88.9207   12.1251    2.1049    0.3118    2.5543   91.9322  938.5625    6.4788   57.0000 
1927.8600   12.2500   94.6466   12.1251    1.9598    0.3298    2.5526   93.5810  935.8125    7.0458   57.0000 
1928.0124   12.2500   92.1475   12.1364    1.8747    0.3448    2.5538   95.3962  933.9375    7.5679   57.0000 
1928.1648   12.2500   92.7089   12.1928    1.8087    0.3295    2.5550   95.9624  935.8750    7.0810   57.0000 
1928.3172   12.2500   89.6471   12.1477    1.8324    0.3499    2.5382   96.5013  938.1250    7.4261   57.0000 
1928.4696   12.2500   89.7885   12.1138    1.8671    0.3495    2.5168   96.6504  933.5625    6.9856   57.0000 
1928.6220   12.2500   91.1358   12.0800    1.8800    0.3546    2.5137   97.4847  936.8125    7.0928   57.0000 
1928.7744   12.2500   88.2470   12.0913    1.8849    0.3511    2.5154   97.4301  935.9375    7.0130   57.0000 
1928.9268   12.2500   90.3802   12.2379    1.9500    0.3378    2.5115   97.5580  937.1875    6.4915   57.0000 
1929.0792   12.2500   87.6857   12.0913    1.9924    0.3473    2.5098   97.0516  936.1875    6.7723   57.0000 
1929.2316   12.2500   89.0329   11.9898    2.0133    0.3368    2.5217   95.8490  935.0000    6.6595   57.0000 
1929.3840   12.2500   89.7867   12.0236    2.0491    0.3714    2.5395   95.9669  934.7500    8.1680   57.0000 
1929.5364   12.2500   96.8599   12.1063    1.9848    0.3803    2.5392   96.5081  937.7500    8.4603   57.0000 
1929.6888   12.2500   99.7474   12.1138    1.9428    0.3559    2.5315   98.3602  935.6250    7.4916   57.0000 
1929.8412   12.2500  100.5654   12.1063    1.7830    0.3336    2.5186  100.2403  935.4375    6.4926   57.0000 
1929.9936   12.2500   95.1921   12.1063    1.8286    0.3110    2.5071  100.4169  932.5625    5.5102   57.0000 
1930.1460   12.2500   93.6181   12.0913    2.1655    0.3447    2.4936  101.7211  935.0000    6.3642   57.0000 
1930.2984   12.2500   87.4431   12.1063    2.7655    0.3212    2.5144   96.4943  935.2500    5.9939   57.0000 
1930.4508   12.2500   78.1538   12.1063    3.3012    0.2666    2.5596   82.0804  935.5625    5.0767   57.0000 
1930.6032   12.2500   72.9980   12.0838    4.1488    0.1797    2.6101   72.3255  936.0000    3.1922   57.0000 
1930.7556   12.2500   74.0085   12.0612    7.2884    0.1407    2.6396   69.6095  938.0000    2.4818   57.0000 
1930.9080   12.2500   77.1070   12.0537   14.5447    0.1346    2.6397   69.8408  937.8750    2.2794   57.0000 
1931.0604   12.2500   75.1110   12.0838   14.1136    0.1514    2.6310   72.5279  935.8125    2.6670   57.0000 
1931.2128   12.2500   78.6368   12.0838   11.8260    0.1590    2.6136   74.5766  935.9375    2.5732   57.0000 
1931.3652   12.2500   81.7805   12.1026    8.1721    0.1901    2.5925   78.0698  934.8125    3.1863   57.0000 
1931.5176   12.2500   88.5169   12.1251    5.2854    0.2363    2.5721   84.6281  935.8750    4.3199   57.0000 
1931.6700   12.2500   88.9207   12.1026    3.8714    0.2757    2.5521   89.0943  936.2500    5.2296   57.0000 
1931.8224   12.2500   89.9311   12.1138    3.0229    0.2933    2.5513   91.1308  938.5625    5.8040   57.0000 
