~VERSION INFORMATION
 VERS.                 2.0:   CWLS LOG ASCII STANDARD - VERSION 2.0
 WRAP.                  NO:   SINGLE LINE PER DEPTH STEP
 CREA.                 30/01/2020 17:31:38
#CREATED USING IP VERSION 4.5.2019.2902 BY RMOTA ON 30/01/2020 17:31:38
~WELL INFORMATION
#MNEM.UNIT       DATA                          DESCRIPTION MNEMONIC
#---------      ---------------------------   --------------------------
 STRT    .M         5.9400                    : START DEPTH
 STOP    .M         3362.3976                 : STOP DEPTH
 STEP    .M         0.1524                    : STEP VALUE
 NULL    .      -999.0000                     : NULL VALUE
 DATE    .      30/01/2020                    : LAS file Creation Date
 WELL   .      7-MP-31D-BA        : Well Name
 COMP   .      PETROBRAS          : Company
 FLD    .      MASSAPE            : Field
 STATE  .      BAHIA              : State
 COUNT  .      BRASIL             : Country
 API    .      20240021426        : API Number
 UWI    .                         : Unique Well Identifier (UWI)
 LOC    .      N= 8.608.492,720 m : Location
 TOWN   .      CATU               : Township
 SCT    .      OH WIRELINE        : Section
 RANG   .      SCHLUMBERGER       : Range
 PDAT   .      NM                 : Permanent Datum
 EPDAT  .      0                  : Elevation of Permanent Datum
 LGMEA  .      MR                 : Log Measured from
 DRMEA  .      MR                 : Drill Measured From
 APDAT  .      66.4               : Elevation Above Permanent Datum
 KB     .      66.7               : KB Elevation
 DF     .      66.4               : DF Elevation
 GL     .      57                 : GL Elevation
 RWS    .      -999               : Def_Rw
 WST    .      -999               : Def_Rwt
 BHS    .      OPEN               : Completion Status
 PROV   .                         : Province
 SRVC   .                         : Contractor
 GDAT   .      WGS 84             : Geodatum
 LONG   .      -38.4314536115858  : Longitude
 LATI   .      -12.5867413889037  : Latitude
 COORDIN.                         : Grid System
 XCOORD .                         : X or East-West Coordinate
 YCOORD .                         : Y or North-South Coordinate
~CURVE INFORMATION
#MNEM              UNIT       API CODE   Curve Type Comments
#----------  --------------- ----------  ---------- -----------
 DEPTH      .M                         : Depth       
 CALI       .inch                      : Caliper     
 BS         .in                        : BitSize     
 GR         .gAPI                      : GammaRay    
 RT         .ohm.m                     : DeepRes     
 NPHI       .m3/m3                     : Neutron     
 RHOB       .g/cm3                     :             
 DT         .us/ft                     : Sonic       
 SP         .mV                        : SP          
 N_Res      .                          :             
 Res        .                          :             
 DRDN       .                          :             
 Lith_new   .                          :             
 DEPTH      .M                         : Depth       
~A  DEPTH    CALI       BS        GR        RT       NPHI      RHOB       DT        SP      N_Res      Res       DRDN    Lith_new   DEPTH   
# ...
2325.3156    8.8850    8.5000   57.7886    6.0203    0.0715    2.7109  110.0419  753.4272 -999.0000 -999.0000    1.5325   57.0000 2325.3156 
2325.4680    8.9518    8.5000   59.8039    6.4987    0.0734    2.6969  104.4094  754.3528 -999.0000 -999.0000    1.2248   57.0000 2325.4680 
2325.6204    8.8861    8.5000   68.5109    7.4367    0.1095    2.6564  103.0624  754.9852 -999.0000 -999.0000    1.4018   57.0000 2325.6204 
2325.7728    8.9069    8.5000   79.1839    6.9904    0.1650    2.5991  127.9933  755.1221 -999.0000 -999.0000    2.0868   57.0000 2325.7728 
2325.9252    8.8626    8.5000   95.6107    6.1041    0.2474    2.5450  137.7263  753.7214 -999.0000 -999.0000    3.8751   57.0000 2325.9252 
2326.0776    8.8615    8.5000  105.5726    4.5170    0.2721    2.5235  144.1834  753.4434 -999.0000 -999.0000    4.5368   57.0000 2326.0776 
2326.2300    8.9512    8.5000  112.9054    4.6564    0.2618    2.5405  144.7157  753.2545 -999.0000 -999.0000    4.8305   57.0000 2326.2300 
2326.3824    9.0656    8.5000  100.5884    8.0412    0.2231    2.6249  142.8388  752.2736 -999.0000 -999.0000    5.6035   57.0000 2326.3824 
2326.5348    9.0010    8.5000   90.3613   12.0864    0.1950    2.6792  139.3924  751.8839 -999.0000 -999.0000    5.1936   57.0000 2326.5348 
2326.6872    9.0442    8.5000   73.7120   21.0513    0.1768    2.6950  133.6241  752.3632 -999.0000 -999.0000    4.8440   57.0000 2326.6872 
2326.8396    8.9107    8.5000   70.0345   13.4936    0.1277    2.6660  122.5462  752.7411 -999.0000 -999.0000    2.2753   57.0000 2326.8396 
2326.9920    8.9523    8.5000   59.7965   12.1386    0.0768    2.6706  122.3848  753.4213 -999.0000 -999.0000    1.2796   57.0000 2326.9920 
2327.1444    8.8636    8.5000   55.0116   13.1075    0.0332    2.7058  126.1978  753.7426 -999.0000 -999.0000    0.3608   57.0000 2327.1444 
2327.2968    8.9063    8.5000   46.6162   17.0446    0.0203    2.7223  127.5813  753.8721 -999.0000 -999.0000    0.1929   54.0000 2327.2968 
2327.4492    8.9523    8.5000   48.2697   14.1114    0.0425    2.7150  132.9813  754.3632 -999.0000 -999.0000    0.5431   57.0000 2327.4492 
2327.6016    8.9309    8.5000   55.4038    6.1849    0.0968    2.6855  149.9939  754.4360 -999.0000 -999.0000    1.7138   57.0000 2327.6016 
2327.7540    8.9753    8.5000   70.9369    3.3694    0.1969    2.6425  167.3737  755.8411 -999.0000 -999.0000    4.0524   57.0000 2327.7540 
2327.9064    9.0661    8.5000   86.2283    2.6024    0.2674    2.5942  172.3371  755.9360 -999.0000 -999.0000    5.5350   57.0000 2327.9064 
2328.0588    9.0907    8.5000   95.0377    2.6141    0.3182    2.5542  180.2708  755.3883 -999.0000 -999.0000    6.4152   57.0000 2328.0588 
2328.2112    8.9566    8.5000  102.5202    2.7062    0.3102    2.5220  181.6352  755.8022 -999.0000 -999.0000    5.6653   57.0000 2328.2112 
2328.3636    8.8861    8.5000   99.8517    2.7502    0.3056    2.5127  184.7330  755.7515 -999.0000 -999.0000    5.4381   57.0000 2328.3636 
2328.5160    8.9293    8.5000   99.6390    2.7766    0.2961    2.5268  190.0400  754.7736 -999.0000 -999.0000    5.6015   57.0000 2328.5160 
2328.6684    9.0201    8.5000   93.6256    2.7968    0.3008    2.5544  190.3351  753.8957 -999.0000 -999.0000    6.2631   57.0000 2328.6684 
2328.8208    9.0223    8.5000   97.4092    2.7913    0.2890    2.5697  188.6360  753.1427 -999.0000 -999.0000    6.0662   57.0000 2328.8208 
2328.9732    8.9999    8.5000  103.7833    2.7739    0.2761    2.5672  185.1080  753.3691 -999.0000 -999.0000    5.4845   57.0000 2328.9732 
2329.1256    8.9769    8.5000  102.0604    2.7759    0.2725    2.5578  184.8082  753.2529 -999.0000 -999.0000    5.1766   57.0000 2329.1256 
2329.2780    8.9988    8.5000   99.5220    2.8611    0.2901    2.5486  185.5511  753.9823 -999.0000 -999.0000    5.5802   57.0000 2329.2780 
2329.4304    8.9545    8.5000   93.2573    2.8957    0.3321    2.5387  185.4885  754.1221 -999.0000 -999.0000    6.7650   57.0000 2329.4304 
2329.5828    8.9983    8.5000   94.7245    2.7518    0.3406    2.5281  186.2581  753.7589 -999.0000 -999.0000    6.8642   57.0000 2329.5828 
2329.7352    9.0554    8.5000  101.7102    2.5890    0.3488    2.5219  187.9640  752.9567 -999.0000 -999.0000    7.0361   57.0000 2329.7352 
2329.8876    9.1129    8.5000  102.0062    2.4538    0.3269    2.5187  189.5677  753.3036 -999.0000 -999.0000    6.2636   57.0000 2329.8876 
2330.0400    9.1367    8.5000  107.8239    2.3351    0.3456    2.5163  189.5625  753.4346 -999.0000 -999.0000    6.8036   57.0000 2330.0400 
2330.1924    9.2045    8.5000  107.4875    2.2560    0.3412    2.5103  190.4860  754.4749 -999.0000 -999.0000    6.5526   57.0000 2330.1924 
2330.3448    9.2510    8.5000  110.8542    2.2269    0.3365    2.5071  191.2425  754.8661 -999.0000 -999.0000    6.3401   57.0000 2330.3448 
2330.4972    9.2297    8.5000  110.0374    2.2376    0.3380    2.5066  189.7534  754.0817 -999.0000 -999.0000    6.4167   57.0000 2330.4972 
2330.6496    9.2291    8.5000  104.4214    2.2846    0.3493    2.5132  187.0424  753.8795 -999.0000 -999.0000    7.0019   57.0000 2330.6496 
2330.8020    9.1394    8.5000   96.4517    2.4003    0.3613    2.5381  180.4900  754.0580 -999.0000 -999.0000    8.0608   57.0000 2330.8020 
2330.9544    9.0811    8.5000   90.4584    2.6576    0.3125    2.5767  178.4856  753.0861 -999.0000 -999.0000    7.1904   57.0000 2330.9544 
2331.1068    8.9788    8.5000   87.4771    2.6893    0.2664    2.6123  177.3750  752.4523 -999.0000 -999.0000    6.3258   57.0000 2331.1068 
2331.2592    8.9764    8.5000   88.8262    2.4607    0.2452    2.6227  175.4405  751.5832 -999.0000 -999.0000    5.5339   57.0000 2331.2592 
2331.4116    8.9651    8.5000   93.3873    2.2709    0.2672    2.6016  171.7704  750.6472 -999.0000 -999.0000    5.7754   57.0000 2331.4116 
2331.5640    8.9312    8.5000   92.1777    2.2816    0.3032    2.5817  171.4530  750.3199 -999.0000 -999.0000    6.6568   57.0000 2331.5640 
2331.7164    8.9080    8.5000   92.4971    2.4809    0.2984    2.5804  173.7094  749.6412 -999.0000 -999.0000    6.6512   57.0000 2331.7164 
2331.8688    8.9074    8.5000   89.1239    2.8812    0.2668    2.6032  172.3127  749.8691 -999.0000 -999.0000    6.1320   57.0000 2331.8688 
2332.0212    8.9299    8.5000   88.1333    2.9862    0.2407    2.6159  170.7106  749.6920 -999.0000 -999.0000    5.2967   57.0000 2332.0212 
2332.1736    8.9080    8.5000   88.7545    2.5697    0.2571    2.5982  168.7890  751.1520 -999.0000 -999.0000    5.3414   57.0000 2332.1736 
2332.3260    8.9747    8.5000   93.2262    2.2817    0.2982    2.5665  170.5985  751.9198 -999.0000 -999.0000    6.0667   57.0000 2332.3260 
2332.4784    9.0885    8.5000   99.1451    2.2465    0.3238    2.5368  177.0028  751.4493 -999.0000 -999.0000    6.3484   57.0000 2332.4784 
2332.6308    9.1137    8.5000  103.0902    2.2493    0.3404    2.5152  182.5127  750.8883 -999.0000 -999.0000    6.5476   57.0000 2332.6308 
2332.7832    9.2713    8.5000   99.2631    2.1849    0.3135    2.5028  185.7880  749.7156 -999.0000 -999.0000    5.4551   57.0000 2332.7832 
2332.9356    9.1853    8.5000  102.2008    2.1623    0.3092    2.5045  188.8923  751.0300 -999.0000 -999.0000    5.4635   57.0000 2332.9356 
2333.0880    9.2056    8.5000  100.7159    2.1529    0.3002    2.5166  188.5137  751.3066 -999.0000 -999.0000    5.4333   57.0000 2333.0880 
2333.2404    9.2734    8.5000   99.6894    2.1329    0.3341    2.5270  189.2601  751.9227 -999.0000 -999.0000    6.6926   57.0000 2333.2404 
2333.3928    9.2751    8.5000   91.6320    2.1087    0.3501    2.5253  189.6654  753.7072 -999.0000 -999.0000    7.1667   57.0000 2333.3928 
2333.5452    9.3312    8.5000   91.7829    2.1662    0.3355    2.5275  185.7053  754.0551 -999.0000 -999.0000    6.7547   57.0000 2333.5452 
2333.6976    9.2989    8.5000   90.3683    2.2154    0.3280    2.5315  181.9140  753.5133 -999.0000 -999.0000    6.6107   57.0000 2333.6976 
2333.8500    9.1859    8.5000   91.3466    2.3368    0.3156    2.5403  180.4344  753.8661 -999.0000 -999.0000    6.3853   57.0000 2333.8500 
