~VERSION INFORMATION
 VERS.                 2.0:   CWLS LOG ASCII STANDARD - VERSION 2.0
 WRAP.                  NO:   SINGLE LINE PER DEPTH STEP
 CREA.                 30/01/2020 17:28:45
#CREATED USING IP VERSION 4.5.2019.2902 BY RMOTA ON 30/01/2020 17:28:45
~WELL INFORMATION
#MNEM.UNIT       DATA                          DESCRIPTION MNEMONIC
#---------      ---------------------------   --------------------------
 STRT    .M         5.0000                    : START DEPTH
 STOP    .M         2977.0000                 : STOP DEPTH
 STEP    .M         0.1000                    : STEP VALUE
 NULL    .      -999.0000                     : NULL VALUE
 DATE    .      30/01/2020                    : LAS file Creation Date
 WELL   .      7-MP-53D-BA      : Well Name
 COMP   .      PETROBRAS        : Company
 FLD    .      MASSAPE          : Field
 STATE  .      BAHIA            : State
 API    .      20240027945      : API Number
 UWI    .                       : Unique Well Identifier (UWI)
 LOC    .                       : Location
 TOWN   .      -999.25          : Township
 SCT    .      -999.25          : Section
 RANG   .      -999.25          : Range
 PDAT   .      NM               : Permanent Datum
 EPDAT  .      0.00             : Elevation of Permanent Datum
 LGMEA  .      MR               : Log Measured from
 DRMEA  .      MR               : Drill Measured From
 APDAT  .      64.90            : Elevation Above Permanent Datum
 KB     .      -999.25          : KB Elevation
 DF     .      64.90            : DF Elevation
 GL     .      56.80            : GL Elevation
 RWS    .      -999             : Def_Rw
 WST    .      -999             : Def_Rwt
 PROV   .                       : Province
 SRVC   .                       : Contractor
 GDAT   .      WGS 84           : Geodatum
 LONG   .      -38.4325436115265: Longitude
 LATI   .      0                : Latitude
 COORDIN.                       : Grid System
 XCOORD .                       : X or East-West Coordinate
 YCOORD .                       : Y or North-South Coordinate
~CURVE INFORMATION
#MNEM              UNIT       API CODE   Curve Type Comments
#----------  --------------- ----------  ---------- -----------
 DEPTH      .M                         : Depth       
 DEPTH      .M                         : Depth       
 DRDN       .                          :             
 GR         .api                       : GammaRay    
 CAL        .in                        : Caliper     
 Res        .                          :             
 N_Res      .                          :             
 ILD        .ohmm                      : DeepRes     
 RHOB       .g/cc                      : Density     Loaded from DLIS: 7-mp-53d-ba_raw-3.dlis
 NPHI       .dec                       : Neutron     Loaded from DLIS: 7-mp-53d-ba_raw-3.dlis
 Lith_new   .                          :             
~A  DEPTH   DEPTH      DRDN       GR       CAL       Res      N_Res      ILD       RHOB      NPHI    Lith_new 
# ...
2034.4000 2034.4000   -1.6834   62.0270    8.7499 -999.0000 -999.0000   13.1727    2.5569    0.0654   49.0000 
2034.5000 2034.5000   -1.6909   61.1871    8.7312 -999.0000 -999.0000   13.5754    2.5638    0.0610   49.0000 
2034.6000 2034.6000   -1.7989   58.4869    8.7146 -999.0000 -999.0000   13.7373    2.5636    0.0579   49.0000 
2034.7000 2034.7000   -1.8491   55.9436    8.7175 -999.0000 -999.0000   13.7529    2.5640    0.0561   49.0000 
2034.8000 2034.8000   -2.0235   52.1994    8.7493 -999.0000 -999.0000   13.5538    2.5524    0.0579   49.0000 
2034.9000 2034.9000   -1.9495   52.2308    8.7574 -999.0000 -999.0000   13.2844    2.5526    0.0600   49.0000 
2035.0000 2035.0000   -1.9058   52.4506    8.7552 -999.0000 -999.0000   12.8682    2.5530    0.0610   49.0000 
2035.1000 2035.1000   -1.6707   52.9294    8.7834 -999.0000 -999.0000   11.7704    2.5537    0.0677   49.0000 
2035.2000 2035.2000   -1.6334   53.5731    8.7603 -999.0000 -999.0000   11.1828    2.5540    0.0686   49.0000 
2035.3000 2035.3000   -1.4363   55.8887    8.7563 -999.0000 -999.0000   10.5947    2.5562    0.0732   49.0000 
2035.4000 2035.4000   -1.1086   61.8936    8.7662 -999.0000 -999.0000    9.4220    2.5681    0.0759   49.0000 
2035.5000 2035.5000   -0.9663   64.7508    8.7562 -999.0000 -999.0000    8.8608    2.5732    0.0771   25.0000 
2035.6000 2035.6000   -0.6959   67.1685    8.7161 -999.0000 -999.0000    8.3651    2.5768    0.0830   25.0000 
2035.7000 2035.7000   -0.3966   69.9472    8.7429 -999.0000 -999.0000    7.6550    2.5766    0.0921   25.0000 
2035.8000 2035.8000   -0.2287   70.2219    8.7440 -999.0000 -999.0000    7.4074    2.5764    0.0973   54.0000 
2035.9000 2035.9000   -0.1040   70.4731    8.7243 -999.0000 -999.0000    7.1850    2.5776    0.1003   54.0000 
2036.0000 2036.0000    0.1740   70.1591    8.7062 -999.0000 -999.0000    6.6677    2.5827    0.1056   54.0000 
2036.1000 2036.1000    0.3447   71.3287    8.7317 -999.0000 -999.0000    6.3110    2.5856    0.1090   57.0000 
2036.2000 2036.2000    0.5983   73.9819    8.7317 -999.0000 -999.0000    5.8920    2.5866    0.1160   57.0000 
2036.3000 2036.3000    0.9074   77.7025    8.7286 -999.0000 -999.0000    5.4661    2.5921    0.1220   57.0000 
2036.4000 2036.4000    1.2401   86.7216    8.7092 -999.0000 -999.0000    4.8419    2.5946    0.1304   57.0000 
2036.5000 2036.5000    1.7073   91.6355    8.7088 -999.0000 -999.0000    4.6940    2.5974    0.1428   57.0000 
2036.6000 2036.6000    1.8177   97.2950    8.7124 -999.0000 -999.0000    4.6456    2.5964    0.1467   57.0000 
2036.7000 2036.7000    1.8637  107.1304    8.7180 -999.0000 -999.0000    4.8046    2.6059    0.1424   57.0000 
2036.8000 2036.8000    1.9747  106.7929    8.7171 -999.0000 -999.0000    5.0026    2.6108    0.1428   57.0000 
2036.9000 2036.9000    1.7676  102.7426    8.7175 -999.0000 -999.0000    5.2678    2.6163    0.1332   57.0000 
2037.0000 2037.0000    1.1329   86.0701    8.7217 -999.0000 -999.0000    5.9130    2.6115    0.1171   57.0000 
2037.1000 2037.1000    0.6977   79.0448    8.7237 -999.0000 -999.0000    6.2308    2.6054    0.1077   57.0000 
2037.2000 2037.2000    0.2477   74.3429    8.7288 -999.0000 -999.0000    6.5020    2.5957    0.1000   54.0000 
2037.3000 2037.3000   -0.4366   69.9472    8.7124 -999.0000 -999.0000    6.8676    2.5847    0.0861   25.0000 
2037.4000 2037.4000   -0.5655   67.4824    8.7197 -999.0000 -999.0000    6.9836    2.5816    0.0841   25.0000 
2037.5000 2037.5000   -0.4538   65.1354    8.7312 -999.0000 -999.0000    7.0625    2.5834    0.0863   25.0000 
2037.6000 2037.6000   -0.4933   61.6816    8.7313 -999.0000 -999.0000    6.9383    2.5832    0.0853   25.0000 
2037.7000 2037.7000   -0.3651   61.8386    8.7150 -999.0000 -999.0000    6.6037    2.5822    0.0897   25.0000 
2037.8000 2037.8000   -0.2381   62.9297    8.7096 -999.0000 -999.0000    6.0872    2.5820    0.0937   54.0000 
2037.9000 2037.9000    0.0286   66.1873    8.7170 -999.0000 -999.0000    5.4989    2.5812    0.1021   54.0000 
2038.0000 2038.0000    1.0305   78.1107    8.6933 -999.0000 -999.0000    4.5586    2.5862    0.1292   57.0000 
2038.1000 2038.1000    1.8424   87.6950    8.6909 -999.0000 -999.0000    4.2960    2.5848    0.1544   57.0000 
2038.2000 2038.2000    2.3837   97.1380    8.6991 -999.0000 -999.0000    4.1651    2.5851    0.1705   57.0000 
2038.3000 2038.3000    2.3424  113.7241    8.7099 -999.0000 -999.0000    4.2663    2.5742    0.1758   57.0000 
2038.4000 2038.4000    2.1574  116.4321    8.7192 -999.0000 -999.0000    4.5240    2.5723    0.1713   57.0000 
2038.5000 2038.5000    1.9369  115.7257    8.7155 -999.0000 -999.0000    4.9541    2.5716    0.1651   57.0000 
2038.6000 2038.6000    1.7604  104.2183    8.7336 -999.0000 -999.0000    6.3991    2.5834    0.1528   57.0000 
2038.7000 2038.7000    1.4381   96.3452    8.7392 -999.0000 -999.0000    7.4034    2.5878    0.1405   57.0000 
2038.8000 2038.8000    1.0188   87.9697    8.7472 -999.0000 -999.0000    8.5528    2.5897    0.1267   57.0000 
2038.9000 2038.9000    0.0605   73.9191    8.7408 -999.0000 -999.0000   11.0337    2.5886    0.0987   54.0000 
2039.0000 2039.0000   -0.2568   67.6865    8.7431 -999.0000 -999.0000   12.2584    2.5903    0.0881   54.0000 
2039.1000 2039.1000   -0.5833   63.5969    8.7475 -999.0000 -999.0000   13.4367    2.5917    0.0775   25.0000 
2039.2000 2039.2000   -1.1018   56.8777    8.7356 -999.0000 -999.0000   15.5060    2.5866    0.0650   49.0000 
2039.3000 2039.3000   -1.3114   55.1744    8.7282 -999.0000 -999.0000   16.2802    2.5784    0.0636   49.0000 
2039.4000 2039.4000   -1.5436   53.7850    8.7134 -999.0000 -999.0000   16.8854    2.5726    0.0601   49.0000 
2039.5000 2039.5000   -1.6982   53.6594    8.7136 -999.0000 -999.0000   17.3127    2.5688    0.0578   49.0000 
2039.6000 2039.6000   -1.8830   51.7441    8.7112 -999.0000 -999.0000   16.9199    2.5710    0.0509   49.0000 
2039.7000 2039.7000   -1.8608   50.6295    8.7090 -999.0000 -999.0000   15.6473    2.5719    0.0510   49.0000 
2039.8000 2039.8000   -1.7012   50.0015    8.7160 -999.0000 -999.0000   13.6624    2.5754    0.0537   49.0000 
2039.9000 2039.9000   -0.8790   56.9248    8.7292 -999.0000 -999.0000    9.5286    2.5907    0.0692   25.0000 
2040.0000 2040.0000   -0.3064   65.2218    8.7367 -999.0000 -999.0000    8.1386    2.5982    0.0819   25.0000 
2040.1000 2040.1000    0.3550   76.1091    8.7297 -999.0000 -999.0000    7.2595    2.6042    0.0981   57.0000 
2040.2000 2040.2000    1.4048   93.5508    8.7094 -999.0000 -999.0000    6.5426    2.6017    0.1311   57.0000 
2040.3000 2040.3000    1.8847   96.4237    8.7116 -999.0000 -999.0000    6.4845    2.6091    0.1411   57.0000 
2040.4000 2040.4000    1.9902   93.1583    8.7106 -999.0000 -999.0000    6.5074    2.6156    0.1403   57.0000 
2040.5000 2040.5000    2.3585   85.3715    8.7177 -999.0000 -999.0000    6.5057    2.6362    0.1390   57.0000 
2040.6000 2040.6000    2.2363   84.1470    8.7223 -999.0000 -999.0000    6.4029    2.6375    0.1346   57.0000 
2040.7000 2040.7000    2.1142   85.7012    8.7103 -999.0000 -999.0000    6.2179    2.6376    0.1309   57.0000 
2040.8000 2040.8000    1.6422   87.5145    8.7315 -999.0000 -999.0000    5.6174    2.6266    0.1233   57.0000 
2040.9000 2040.9000    1.5609   88.8881    8.7335 -999.0000 -999.0000    5.2554    2.6180    0.1260   57.0000 
2041.0000 2041.0000    1.5455   90.3324    8.7346 -999.0000 -999.0000    4.9158    2.6090    0.1310   57.0000 
2041.1000 2041.1000    1.6234   94.2337    8.7344 -999.0000 -999.0000    4.6498    2.6008    0.1382   57.0000 
2041.2000 2041.2000    2.1750  104.1869    8.7204 -999.0000 -999.0000    4.5256    2.5966    0.1573   57.0000 
2041.3000 2041.3000    2.1628  108.4492    8.6999 -999.0000 -999.0000    4.7593    2.5919    0.1597   57.0000 
2041.4000 2041.4000    2.2245  110.0269    8.6908 -999.0000 -999.0000    5.2427    2.5895    0.1630   57.0000 
2041.5000 2041.5000    1.7603  103.1350    8.6927 -999.0000 -999.0000    6.9858    2.5796    0.1550   57.0000 
2041.6000 2041.6000    1.3212   95.3404    8.6835 -999.0000 -999.0000    8.1857    2.5803    0.1415   57.0000 
