~VERSION INFORMATION
 VERS.                 2.0:   CWLS LOG ASCII STANDARD - VERSION 2.0
 WRAP.                  NO:   SINGLE LINE PER DEPTH STEP
 CREA.                 06/02/2020 16:35:30
#CREATED USING IP VERSION 4.5.2019.2902 BY RMOTA ON 06/02/2020 16:35:30
~WELL INFORMATION
#MNEM.UNIT       DATA                          DESCRIPTION MNEMONIC
#---------      ---------------------------   --------------------------
 STRT    .M         15.6972                   : START DEPTH
 STOP    .M         2951.2260                 : STOP DEPTH
 STEP    .M         0.1524                    : STEP VALUE
 NULL    .      -999.0000                     : NULL VALUE
 DATE    .      06/02/2020                    : LAS file Creation Date
 WELL   .      7-MP-36D-BA       : Well Name
 COMP   .      PETROBRAS         : Company
 FLD    .      MASSAPE           : Field
 STATE  .      20240022534       : State
 COUNT  .      BRASIL            : Country
 API    .      20240022534       : API Number
 UWI    .                        : Unique Well Identifier (UWI)
 LOC    .      N= 8607444.13 M   : Location
 PDAT   .      NM                : Permanent Datum
 EPDAT  .      0                 : Elevation of Permanent Datum
 LGMEA  .      MR                : Log Measured from
 DRMEA  .      MR                : Drill Measured From
 APDAT  .      65.81             : Elevation Above Permanent Datum
 KB     .      66.11             : KB Elevation
 DF     .      65.81             : DF Elevation
 GL     .      56.41             : GL Elevation
 RWS    .      -999              : Def_Rw
 WST    .      -999              : Def_Rwt
 BHS    .      OPEN              : Completion Status
 PROV   .                        : Province
 SRVC   .                        : Contractor
 GDAT   .      WGS 84            : Geodatum
 LONG   .      -38.4351329444514 : Longitude
 LATI   .      -12.5962309720781 : Latitude
 COORDIN.                        : Grid System
 XCOORD .                        : X or East-West Coordinate
 YCOORD .                        : Y or North-South Coordinate
~CURVE INFORMATION
#MNEM              UNIT       API CODE   Curve Type Comments
#----------  --------------- ----------  ---------- -----------
 DEPTH      .M                         : Depth       
 BS         .in                        : BitSize     Loaded from DLIS: 7-mp-36d-ba_raw-1.dlis
 DCAL       .in                        :             Loaded from DLIS: 7-mp-36d-ba_raw-1.dlis
 GR         .gAPI                      : GammaRay    Loaded from DLIS: 7-mp-36d-ba_raw-1.dlis
 RT         .ohm.m                     : DeepRes     Loaded from DLIS: 7-mp-36d-ba_raw-1.dlis
 NPHI       .m3/m3                     : Neutron     Loaded from DLIS: 7-mp-36d-ba_raw-1.dlis
 RHOB       .g/cm3                     : Density     Loaded from DLIS: 7-mp-36d-ba_raw-1.dlis
 DT         .us/ft                     : Sonic       Loaded from DLIS: 7-mp-36d-ba_raw-1.dlis
 SP         .mV                        : SP          Loaded from DLIS: 7-mp-36d-ba_raw-1.dlis
 DRDN       .                          :             
 Lith_new   .                          :             
~A  DEPTH     BS       DCAL       GR        RT       NPHI      RHOB       DT        SP       DRDN    Lith_new 
# ...
 605.3328   12.2500   -0.0126   78.6294    9.6585    0.2990    2.4416   95.6539  296.8750    3.6354   57.0000 
 605.4852   12.2500   -0.0238   75.6442   12.0405    0.2996    2.4236   95.9383  298.9375    3.4260   57.0000 
 605.6376   12.2500   -0.0238   76.1403   14.1996    0.3381    2.4241   97.6245  300.7500    4.7705   57.0000 
 605.7900   12.2500   -0.0690   85.8140   13.6857    0.3522    2.4339  101.1155  302.5000    5.5440   57.0000 
 605.9424   12.2500   -0.0803   93.6008   11.5237    0.3747    2.4522  104.9713  305.1250    6.6149   57.0000 
 606.0948   12.2500   -0.0916   95.2539    9.3773    0.3772    2.4516  103.6832  307.8750    6.4945   57.0000 
 606.2472   12.2500   -0.1142   83.3769    9.0937    0.3684    2.4225  100.0952  310.6875    5.4519   57.0000 
 606.3996   12.2500   -0.1142   65.0193   12.0874    0.3306    2.3669   96.1922  312.7500    2.8873   57.0000 
 606.5520   12.2500   -0.1142   47.8648   18.8229    0.3031    2.2987   92.8994  313.5625    0.6632   57.0000 
 606.7044   12.2500   -0.1142   38.9859   30.7052    0.2945    2.2449   92.7090  313.2500   -0.5712   25.0000 
 606.8568   12.2500   -0.1029   36.8600   41.5465    0.3010    2.2141   93.1173  312.5625   -0.8164   25.0000 
 607.0092   12.2500   -0.1142   37.4024   52.8217    0.2678    2.1982   93.2315  311.3750   -2.1661   49.0000 
 607.1616   12.2500   -0.1142   41.4069   59.9500    0.2748    2.1947   93.2615  310.4375   -1.9411   49.0000 
 607.3140   12.2500   -0.1142   43.9132   66.9574    0.2591    2.1996   93.0544  309.5000   -2.3054   49.0000 
 607.4664   12.2500   -0.1368   40.4627   72.3613    0.2535    2.2096   92.6071  308.6250   -2.2981   49.0000 
 607.6188   12.2500   -0.1142   33.9516   77.5109    0.2307    2.2154   91.7121  307.5625   -2.9981   49.0000 
 607.7712   12.2500   -0.1368   29.6374   81.0518    0.2197    2.2126   91.2668  306.1875   -3.4212   49.0000 
 607.9236   12.2500   -0.1142   27.8451   76.2362    0.2190    2.2170   89.9247  304.6875   -3.3268   49.0000 
 608.0760   12.2500   -0.1142   23.8542   75.7869    0.2149    2.2213   90.0490  302.3750   -3.3671   49.0000 
 608.2284   12.2500   -0.1142   22.9316   74.6871    0.2218    2.2269   90.6639  299.8125   -3.0709   49.0000 
 608.3808   12.2500   -0.1142   25.9873   68.3930    0.2244    2.2218   91.4618  296.5000   -3.1365   49.0000 
 608.5332   12.2500   -0.1142   31.9628   62.7411    0.2318    2.2135   92.4754  293.9375   -3.0608   49.0000 
 608.6856   12.2500   -0.1029   31.8007   58.0911    0.2375    2.2095   92.8737  291.1875   -2.8825   49.0000 
 608.8380   12.2500   -0.1142   32.1188   55.5169    0.2421    2.2125   92.4204  288.3125   -2.6509   49.0000 
 608.9904   12.2500   -0.1142   28.3223   51.2740    0.2485    2.2156   91.9523  285.0000   -2.3963   49.0000 
 609.1428   12.2500   -0.1368   31.5554   47.4415    0.2496    2.2123   92.2215  281.1875   -2.4708   49.0000 
 609.2952   12.2500   -0.1142   33.4458   46.2528    0.2538    2.2114   92.9067  278.0000   -2.2904   49.0000 
 609.4476   12.2500   -0.1594   37.2484   45.2655    0.2503    2.2163   93.4870  274.3125   -2.2895   49.0000 
 609.6000   12.2500   -0.1368   36.9284   47.0042    0.2295    2.2247   93.3090  270.9375   -2.8045   49.0000 
 609.7524   12.2500   -0.1255   35.0808   39.6294    0.2124    2.2287   91.3708  267.8125   -3.3513   49.0000 
 609.9048   12.2500   -0.1368   33.9900   34.6786    0.2177    2.2256   90.8943  264.5625   -3.2563   49.0000 
 610.0572   12.2500   -0.1255   32.8459   31.4535    0.2291    2.2217   91.0534  261.6875   -2.9506   49.0000 
 610.2096   12.2500   -0.1594   41.3612   39.2171    0.2360    2.2283   95.2667  258.6875   -2.4153   49.0000 
 610.3620   12.2500   -0.1481   54.9202   27.8562    0.2679    2.2588  107.5462  255.9375   -0.6453   25.0000 
 610.5144   12.2500   -0.1255   77.6663   12.4633    0.3090    2.3016  119.1972  253.8750    1.6602   57.0000 
 610.6668   12.2500   -0.0690   90.6829    5.2181    0.3761    2.3348  129.4355  252.7500    4.2607   57.0000 
 610.8192   12.2500   -0.1368  100.7499    3.2454    0.4125    2.3331  137.5655  252.4375    5.4291   57.0000 
 610.9716   12.2500   -0.1255   99.5564    2.4569    0.4455    2.3318  137.0762  252.1250    6.4195   57.0000 
 611.1240   12.2500   -0.2046   98.2906    2.2239    0.4378    2.3346  136.4756  252.0625    6.4987   57.0000 
 611.2764   12.2500    0.1343   96.7751    2.1446    0.4161    2.3689  135.0219  251.6875    6.4029   57.0000 
 611.4288   12.2500    0.4732   95.0963    2.1492    0.4348    2.3849  132.8202  251.4375    7.2679   57.0000 
 611.5812   12.2500    0.2360   95.9471    2.0947    0.4305    2.3937  132.8118  251.1875    7.2476   57.0000 
 611.7336   12.2500   -0.1594   96.3358    2.0406    0.4349    2.4025  129.1169  251.0625    7.6674   57.0000 
 611.8860   12.2500   -0.1594   95.3027    2.0114    0.3930    2.4340  119.7887  251.0000    7.1045   57.0000 
 612.0384   12.2500   -0.1594   90.6557    2.4091    0.3358    2.4867  103.0601  250.8750    6.2804   57.0000 
 612.1908   12.2500   -0.1368   81.8609    3.8236    0.2833    2.5321   91.2570  251.0000    5.2868   57.0000 
 612.3432   12.2500   -0.1368   71.5560    6.6558    0.2047    2.5499   82.9918  251.2500    2.8673   57.0000 
 612.4956   12.2500   -0.1594   63.9299   12.1290    0.1991    2.5475   81.2728  251.8750    2.4925   57.0000 
 612.6480   12.2500   -0.1142   60.7201   15.3416    0.1878    2.5343   82.7135  252.7500    1.9203   57.0000 
 612.8004   12.2500   -0.0916   62.6727   15.7731    0.1910    2.5315   81.9456  253.1875    1.9236   57.0000 
 612.9528   12.2500   -0.1142   64.1520   16.6586    0.1707    2.5200   81.1763  253.8750    1.0515   57.0000 
 613.1052   12.2500   -0.1142   62.6969   15.8479    0.1435    2.5156   81.2290  254.3125    0.0511   54.0000 
 613.2576   12.2500   -0.1142   63.9603   15.9933    0.1602    2.5046   82.4602  255.1250    0.3273   57.0000 
 613.4100   12.2500   -0.0916   72.3341   13.4398    0.1860    2.4861   88.0249  255.6250    0.7747   57.0000 
 613.5624   12.2500   -0.0916   80.8310    9.4071    0.2363    2.4644   93.8009  256.3750    2.0357   57.0000 
 613.7148   12.2500   -0.0916   85.3888    7.2750    0.3157    2.4513  103.9847  256.8750    4.5211   57.0000 
 613.8672   12.2500   -0.1029   90.0044    6.0246    0.3597    2.4494  110.5026  257.2500    5.9599   57.0000 
 614.0196   12.2500   -0.1142   95.4280    4.7237    0.3975    2.4445  117.4742  257.6875    7.1106   57.0000 
 614.1720   12.2500   -0.1142  102.0603    3.6442    0.3974    2.4424  123.5644  257.9375    7.1012   57.0000 
 614.3244   12.2500   -0.0916  102.6301    2.8909    0.4268    2.4459  127.4905  258.3125    8.1762   57.0000 
 614.4768   12.2500   -0.0690  100.0764    2.5299    0.4509    2.4472  128.1815  258.6250    8.9533   57.0000 
 614.6292   12.2500   -0.1594   97.6021    2.3896    0.4319    2.4406  128.8041  258.8125    8.1312   57.0000 
 614.7816   12.2500   -0.0690  102.1218    2.2741    0.4353    2.4248  129.6232  259.1875    7.8949   57.0000 
 614.9340   12.2500   -0.1481  102.1800    2.2277    0.3900    2.4131  128.2864  259.1875    6.2059   57.0000 
 615.0864   12.2500    0.7330  103.3909    2.2458    0.3908    2.4089  128.7772  258.8125    6.2540   57.0000 
 615.2388   12.2500    1.1283   94.4816    2.3029    0.3783    2.4267  128.6545  258.2500    6.3028   57.0000 
 615.3912   12.2500    0.5297   97.5336    2.3630    0.3895    2.4449  127.5275  257.7500    6.9623   57.0000 
 615.5436   12.2500   -0.0690   99.2154    2.4143    0.4100    2.4556  127.9244  257.7500    7.8191   57.0000 
 615.6960   12.2500   -0.0690  102.7010    2.4450    0.4165    2.4546  127.0788  257.7500    7.9178   57.0000 
 615.8484   12.2500   -0.0916  101.5471    2.5355    0.4300    2.4479  126.0108  257.9375    8.2854   57.0000 
 616.0008   12.2500   -0.0690   96.9269    2.6577    0.4154    2.4510  124.9799  257.7500    7.9116   57.0000 
 616.1532   12.2500   -0.0803   90.9144    2.7232    0.4406    2.4612  120.9519  258.0625    9.0406   57.0000 
 616.3056   12.2500   -0.0916   87.5344    2.8849    0.4281    2.4890  110.7521  258.1250    9.2696   57.0000 
