~VERSION INFORMATION
 VERS.                 2.0:   CWLS LOG ASCII STANDARD - VERSION 2.0
 WRAP.                  NO:   SINGLE LINE PER DEPTH STEP
 CREA.                 06/02/2020 16:08:49
#CREATED USING IP VERSION 4.5.2019.2902 BY RMOTA ON 06/02/2020 16:08:49
~WELL INFORMATION
#MNEM.UNIT       DATA                          DESCRIPTION MNEMONIC
#---------      ---------------------------   --------------------------
 STRT    .M         -0.4572                   : START DEPTH
 STOP    .M         3564.6360                 : STOP DEPTH
 STEP    .M         0.1524                    : STEP VALUE
 NULL    .      -999.0000                     : NULL VALUE
 DATE    .      06/02/2020                    : LAS file Creation Date
 WELL   .      7-MP-28D-BA        : Well Name
 COMP   .      PETROBRAS          : Company
 FLD    .      MASSAPE            : Field
 STATE  .      BAHIA              : State
 COUNT  .      BRASIL             : Country
 API    .      20240021354        : API Number
 UWI    .                         : Unique Well Identifier (UWI)
 LOC    .      N= 8.609.866,070 m : Location
 TOWN   .      CATU               : Township
 SCT    .      OH WIRELINE        : Section
 RANG   .      SCHLUMBERGER       : Range
 PDAT   .      NM                 : Permanent Datum
 EPDAT  .      0                  : Elevation of Permanent Datum
 LGMEA  .      MR                 : Log Measured from
 DRMEA  .      MR                 : Drill Measured From
 APDAT  .      105.72             : Elevation Above Permanent Datum
 KB     .      106.02             : KB Elevation
 DF     .      105.72             : DF Elevation
 GL     .      96.31999           : GL Elevation
 RWS    .      -999               : Def_Rw
 WST    .      -999               : Def_Rwt
 BHS    .      OPEN               : Completion Status
 PROV   .                         : Province
 SRVC   .                         : Contractor
 GDAT   .      WGS 84             : Geodatum
 LONG   .      -38.4270011107127  : Longitude
 LATI   .      -12.5743130556742  : Latitude
 COORDIN.                         : Grid System
 XCOORD .                         : X or East-West Coordinate
 YCOORD .                         : Y or North-South Coordinate
~CURVE INFORMATION
#MNEM              UNIT       API CODE   Curve Type Comments
#----------  --------------- ----------  ---------- -----------
 DEPTH      .M                         : Depth       
 BS         .in                        : BitSize     
 GR         .gAPI                      : GammaRay    
 CAL        .in                        : Caliper     
 RT         .ohm.m                     : DeepRes     
 NPHI       .m3/m3                     : Neutron     
 RHOB       .g/cm3                     :             
 DT         .us/ft                     : Sonic       
 SP         .mV                        : SP          Loaded from DLIS: 7-mp-28d-ba_raw-2p.dlis
 DRDN       .                          :             
 Lith_new   .                          :             
~A  DEPTH     BS        GR       CAL        RT       NPHI      RHOB       DT        SP       DRDN    Lith_new 
# ...
1601.5716   12.2500   86.6187   12.5875    1.6863    0.4363    2.4535   99.8388  120.7500    8.5670   57.0000 
1601.7240   12.2500   87.2523   12.5875    1.7276    0.3713    2.4484  101.9036  120.5000    6.3165   57.0000 
1601.8764   12.2500   81.9910   12.6116    1.7188    0.3507    2.4453  101.5905  120.0625    5.6160   57.0000 
1602.0288   12.2500   84.0774   12.5393    1.7145    0.3116    2.4546  101.4012  119.1250    4.5309   57.0000 
1602.1812   12.2500   83.6939   12.5634    1.7135    0.3257    2.4461  102.8412  120.0625    4.6194   57.0000 
1602.3336   12.2500   79.2486   12.5875    1.7191    0.2964    2.4209  102.0430  119.5000    3.1324   57.0000 
1602.4860   12.2500   84.3486   12.4186    1.7228    0.3172    2.4030  102.6793  119.7500    3.6117   57.0000 
1602.6384   12.2500   89.8122   12.4669    1.6693    0.2989    2.4164  103.0090  120.0625    3.4868   57.0000 
1602.7908   12.2500  100.6845   12.5151    1.6492    0.3057    2.4462  105.3666  118.9375    4.2989   57.0000 
1602.9432   12.2500  101.3799   12.5393    1.5642    0.3138    2.4682  104.8680  117.7500    4.9174   57.0000 
1603.0956   12.2500   94.9046   12.5875    1.5475    0.3288    2.4782  104.1610  118.3750    5.5688   57.0000 
1603.2480   12.2500   86.8662   12.5875    1.5859    0.3256    2.4845  104.0921  117.6875    5.5683   57.0000 
1603.4004   12.2500   86.3347   12.5875    1.6253    0.3445    2.4830  102.5468  117.6875    6.1181   57.0000 
1603.5528   12.2500   85.1205   12.5996    1.6456    0.3617    2.4844  102.4318  116.0000    6.7926   57.0000 
1603.7052   12.2500   82.5705   12.6116    1.6625    0.3702    2.4894  101.9156  116.0000    7.1569   57.0000 
1603.8576   12.2500   79.5633   12.6237    1.7031    0.3486    2.4960  100.6379  114.8125    6.5685   57.0000 
1604.0100   12.2500   77.3374   12.6116    1.7648    0.3342    2.4924  100.1537  114.0000    5.9416   57.0000 
1604.1624   12.2500   84.9874   12.6599    1.8196    0.3591    2.4903  100.7034  115.0000    6.7831   57.0000 
1604.3148   12.2500   88.2260   12.6116    1.9037    0.3618    2.4905  102.6631  116.0625    6.8800   57.0000 
1604.4672   12.2500   93.8919   12.5875    1.9574    0.3496    2.4883  104.6902  114.3125    6.3227   57.0000 
1604.6196   12.2500   92.2692   12.5875    2.0051    0.3663    2.4656  105.3706  114.3125    6.3496   57.0000 
1604.7720   12.2500   89.0808   12.5875    2.0422    0.3511    2.4423  105.3231  114.6875    5.4154   57.0000 
1604.9244   12.2500   88.3121   12.5875    2.1281    0.3705    2.4318  105.8293  115.3125    6.0279   57.0000 
1605.0768   12.2500   90.3287   12.5875    2.1046    0.3326    2.4449  105.5692  116.8750    5.0776   57.0000 
1605.2292   12.2500   89.3169   12.5634    2.0872    0.3512    2.4559  105.2279  118.0000    5.8746   57.0000 
1605.3816   12.2500   88.8532   12.5634    2.0632    0.3615    2.4546  105.5263  117.6250    6.0269   57.0000 
1605.5340   12.2500   86.5400   12.5755    2.2609    0.3764    2.4290  107.9393  118.7500    5.9227   57.0000 
1605.6864   12.2500   88.1588   12.5634    2.5703    0.3794    2.3956  108.9579  118.9375    5.3403   57.0000 
1605.8388   12.2500   87.9270   12.5634    3.1487    0.3706    2.3734  109.3050  116.8750    4.7559   57.0000 
1605.9912   12.2500   83.3005   12.5393    3.4446    0.3588    2.3665  110.9370  116.0000    4.2600   57.0000 
1606.1436   12.2500   87.0385   12.5151    3.7594    0.3773    2.3662  109.6401  116.3750    4.9198   57.0000 
1606.2960   12.2500   93.6267   12.5755    4.0711    0.3504    2.3682  107.4277  116.3125    4.0752   57.0000 
1606.4484   12.2500   98.4845   12.6599    4.0575    0.3382    2.3806  106.8593  116.5625    4.0292   57.0000 
1606.6008   12.2500   94.0893   12.6116    3.3365    0.3233    2.4019  104.6772  117.2500    3.9551   57.0000 
1606.7532   12.2500   90.0346   12.6116    2.7537    0.3443    2.4240  104.6925  115.6250    5.0990   57.0000 
1606.9056   12.2500   87.9527   12.6116    2.3095    0.3622    2.4388  105.2555  115.6250    5.9053   57.0000 
1607.0580   12.2500   88.6649   12.6358    1.8911    0.3559    2.4495  104.1770  116.1875    5.9349   57.0000 
1607.2104   12.2500   81.6758   12.7444    1.8497    0.3477    2.4590  101.2475  115.8750    5.7973   57.0000 
1607.3628   12.2500   80.2878   12.6840    1.8301    0.3357    2.4582  102.2304  115.9375    5.2921   57.0000 
1607.5152   12.2500   79.2741   12.6840    1.8751    0.3432    2.4445   98.3691  117.1875    5.2176   57.0000 
1607.6676   12.2500   86.9078   12.6840    1.8620    0.3641    2.4272  101.1009  116.9375    5.5917   57.0000 
1607.8200   12.2500   85.7443   12.6116    1.8765    0.3622    2.4243  100.5200  117.1875    5.6107   57.0000 
1607.9724   12.2500   84.9481   12.7323    1.9199    0.3451    2.4344  101.9802  117.6875    5.2731   57.0000 
1608.1248   12.2500   84.0228   12.6599    1.9995    0.3121    2.4486   98.9194  117.6250    4.4618   57.0000 
1608.2772   12.2500   89.3424   12.6358    2.0581    0.3223    2.4580   99.4454  117.6875    4.9657   57.0000 
1608.4296   12.2500   92.0594   12.6599    2.0780    0.3426    2.4705   98.4123  118.7500    5.9130   57.0000 
1608.5820   12.2500   86.2762   12.8047    1.9534    0.3731    2.4807   98.2463  117.9375    7.1075   57.0000 
1608.7344   12.2500   82.1202   12.6358    1.9240    0.3763    2.4887   98.3679  117.5625    7.3565   57.0000 
1608.8868   12.2500   77.5639   12.6358    1.9854    0.3424    2.4904   97.9006  118.3125    6.2080   57.0000 
1609.0392   12.2500   80.3398   12.6599    1.9326    0.3573    2.4851   99.5256  120.0625    6.5393   57.0000 
1609.1916   12.2500   78.0083   12.6358    1.9452    0.3522    2.4703   98.1905  118.3125    6.0532   57.0000 
1609.3440   12.2500   78.1695   12.6599    1.8954    0.3545    2.4606   98.5926  118.3750    5.9825   57.0000 
1609.4964   12.2500   82.5647   12.6358    1.9061    0.2915    2.4604   98.3261  118.0000    4.0136   57.0000 
1609.6488   12.2500   85.6057   12.6116    1.9360    0.2764    2.4790   98.4126  118.3125    3.9057   57.0000 
1609.8012   12.2500   90.2322   12.6237    1.9196    0.2845    2.4936  100.2972  115.0000    4.4620   57.0000 
1609.9536   12.2500   88.7194   12.6599    1.9151    0.3206    2.5042   98.1155  117.0625    5.7376   57.0000 
1610.1060   12.2500   87.3159   12.6840    1.9164    0.3305    2.4887   98.3260  115.8125    5.6560   57.0000 
1610.2584   12.2500   85.9279   12.6840    1.9500    0.3316    2.4735   98.7654  117.4375    5.4384   57.0000 
1610.4108   12.2500   85.5225   12.6599    1.9658    0.3062    2.4608   96.5807  116.1875    4.3758   57.0000 
1610.5632   12.2500   89.6863   12.6720    1.9495    0.3195    2.4620   99.1937  115.8125    4.9381   57.0000 
1610.7156   12.2500   97.0887   12.6599    1.9309    0.3387    2.4678   99.7991  115.3125    5.6886   57.0000 
1610.8680   12.2500   97.2915   12.6358    1.9146    0.3648    2.4787   99.7297  116.7500    6.8243   57.0000 
1611.0204   12.2500   97.5228   12.6599    1.9252    0.3623    2.4897  101.3839  117.5625    6.9072   57.0000 
1611.1728   12.2500   90.7197   12.6840    1.8805    0.3644    2.4883  101.4577  116.3750    6.8485   57.0000 
1611.3252   12.2500   90.1853   12.7082    1.8718    0.3512    2.4767   99.6092  116.2500    6.1635   57.0000 
1611.4776   12.2500   87.8720   12.7082    1.9166    0.3478    2.4706  100.4167  116.2500    6.0257   57.0000 
1611.6300   12.2500   84.2655   12.6840    1.9419    0.3106    2.4762   98.0375  117.9375    4.9331   57.0000 
1611.7824   12.2500   82.9753   12.7082    2.0238    0.3013    2.4825   96.5610  117.3125    4.6860   57.0000 
1611.9348   12.2500   82.2813   12.6840    2.1461    0.2798    2.4761   95.8326  119.0000    3.7758   57.0000 
1612.0872   12.2500   85.5381   12.6840    2.1347    0.3129    2.4681   95.2907  118.4375    4.7578   57.0000 
1612.2396   12.2500   85.6083   12.7806    2.0882    0.3076    2.4721   94.6943  118.6875    4.8191   57.0000 
1612.3920   12.2500   89.0781   12.7564    2.0157    0.2998    2.4878   97.8638  118.3750    4.7992   57.0000 
1612.5444   12.2500   89.8891   12.7082    1.9355    0.2594    2.4942   99.4276  118.5000    3.5799   57.0000 
