~VERSION INFORMATION
 VERS.                 2.0:   CWLS LOG ASCII STANDARD - VERSION 2.0
 WRAP.                  NO:   SINGLE LINE PER DEPTH STEP
 CREA.                 06/02/2020 16:08:49
#CREATED USING IP VERSION 4.5.2019.2902 BY RMOTA ON 06/02/2020 16:08:49
~WELL INFORMATION
#MNEM.UNIT       DATA                          DESCRIPTION MNEMONIC
#---------      ---------------------------   --------------------------
 STRT    .M         -0.4572                   : START DEPTH
 STOP    .M         3564.6360                 : STOP DEPTH
 STEP    .M         0.1524                    : STEP VALUE
 NULL    .      -999.0000                     : NULL VALUE
 DATE    .      06/02/2020                    : LAS file Creation Date
 WELL   .      7-MP-28D-BA        : Well Name
 COMP   .      PETROBRAS          : Company
 FLD    .      MASSAPE            : Field
 STATE  .      BAHIA              : State
 COUNT  .      BRASIL             : Country
 API    .      20240021354        : API Number
 UWI    .                         : Unique Well Identifier (UWI)
 LOC    .      N= 8.609.866,070 m : Location
 TOWN   .      CATU               : Township
 SCT    .      OH WIRELINE        : Section
 RANG   .      SCHLUMBERGER       : Range
 PDAT   .      NM                 : Permanent Datum
 EPDAT  .      0                  : Elevation of Permanent Datum
 LGMEA  .      MR                 : Log Measured from
 DRMEA  .      MR                 : Drill Measured From
 APDAT  .      105.72             : Elevation Above Permanent Datum
 KB     .      106.02             : KB Elevation
 DF     .      105.72             : DF Elevation
 GL     .      96.31999           : GL Elevation
 RWS    .      -999               : Def_Rw
 WST    .      -999               : Def_Rwt
 BHS    .      OPEN               : Completion Status
 PROV   .                         : Province
 SRVC   .                         : Contractor
 GDAT   .      WGS 84             : Geodatum
 LONG   .      -38.4270011107127  : Longitude
 LATI   .      -12.5743130556742  : Latitude
 COORDIN.                         : Grid System
 XCOORD .                         : X or East-West Coordinate
 YCOORD .                         : Y or North-South Coordinate
~CURVE INFORMATION
#MNEM              UNIT       API CODE   Curve Type Comments
#----------  --------------- ----------  ---------- -----------
 DEPTH      .M                         : Depth       
 BS         .in                        : BitSize     
 GR         .gAPI                      : GammaRay    
 CAL        .in                        : Caliper     
 RT         .ohm.m                     : DeepRes     
 NPHI       .m3/m3                     : Neutron     
 RHOB       .g/cm3                     :             
 DT         .us/ft                     : Sonic       
 SP         .mV                        : SP          Loaded from DLIS: 7-mp-28d-ba_raw-2p.dlis
 DRDN       .                          :             
 Lith_new   .                          :             
~A  DEPTH     BS        GR       CAL        RT       NPHI      RHOB       DT        SP       DRDN    Lith_new 
# ...
 522.4272   12.2500   88.1200   13.4683    3.0219    0.4313    2.3741  128.2495  197.7500    7.0582   57.0000 
 522.5796   12.2500   90.3459   13.4683    2.8738    0.4219    2.4008  124.5312  198.5625    7.2292   57.0000 
 522.7320   12.2500   92.9376   13.6010    2.9608    0.3876    2.4252  121.8762  198.2500    6.5995   57.0000 
 522.8844   12.2500   94.8258   13.2149    3.5799    0.3867    2.4488  117.0015  197.9375    7.0001   57.0000 
 523.0368   12.2500   97.3147   12.8047    4.3692    0.3479    2.4654  113.1471  198.2500    5.9742   57.0000 
 523.1892   12.2500   98.0673   12.7806    5.2167    0.3585    2.4706  110.4096  197.1875    6.3771   57.0000 
 523.3416   12.2500   97.4456   12.7564    6.0983    0.3471    2.4747  107.7467  198.1875    6.1130   57.0000 
 523.4940   12.2500   94.1473   12.7806    7.5807    0.3407    2.4810  107.3409  197.2500    5.9983   57.0000 
 523.6464   12.2500   99.4086   12.8288    7.9837    0.3552    2.4836  107.5695  196.8125    6.5209   57.0000 
 523.7988   12.2500   95.6994   12.8168    6.9485    0.3510    2.4818  109.0602  197.2500    6.2835   57.0000 
 523.9512   12.2500   98.1277   12.8288    6.0248    0.3656    2.4728  113.4580  197.1875    6.5866   57.0000 
 524.1036   12.2500   92.9248   12.8530    5.2325    0.3511    2.4630  115.6118  195.7500    5.8685   57.0000 
 524.2560   12.2500   93.3438   12.8530    4.2917    0.3603    2.4465  119.1736  196.5000    5.8213   57.0000 
 524.4084   12.2500   92.1449   12.8650    3.7617    0.4005    2.4285  121.7620  196.9375    6.8045   57.0000 
 524.5608   12.2500   90.2653   12.8771    3.9709    0.4466    2.4173  122.7304  196.1875    8.2285   57.0000 
 524.7132   12.2500   89.8606   12.8771    4.3107    0.4394    2.4235  115.1813  196.4375    8.2034   57.0000 
 524.8656   12.2500   83.6015   12.9254    5.5451    0.3506    2.4430  105.2105  196.0625    5.7278   57.0000 
 525.0180   12.2500   76.9237   13.0701    8.2063    0.2620    2.4669   96.2366  195.0000    3.1899   57.0000 
 525.1704   12.2500   68.2860   12.9977   13.6854    0.2181    2.4824   89.8114  195.1875    2.0027   57.0000 
 525.3228   12.2500   64.6529   12.9736   16.1274    0.2403    2.4865   88.3195  195.9375    2.7078   57.0000 
 525.4752   12.2500   64.6953   13.0219   17.6279    0.2485    2.4824   89.2075  196.1250    2.8882   57.0000 
 525.6276   12.2500   62.8447   12.9254   18.7980    0.2649    2.4650   91.9132  196.8125    2.9267   57.0000 
 525.7800   12.2500   60.6147   12.9133   19.6721    0.2606    2.4328   91.3396  196.5625    2.1051   57.0000 
 525.9324   12.2500   54.2992   12.8409   20.9465    0.2478    2.3936   87.2133  195.4375    0.8879   57.0000 
 526.0848   12.2500   51.6344   12.7323   22.1519    0.2369    2.3735   85.9522  195.1875    0.3678   57.0000 
 526.2372   12.2500   46.5739   12.6116   22.6250    0.2229    2.3829   84.1960  195.4375    0.2143   54.0000 
 526.3896   12.2500   47.6182   12.6237   21.8949    0.2086    2.4063   83.6733  195.7500    0.2648   54.0000 
 526.5420   12.2500   50.8938   12.6116   17.6506    0.2159    2.4301   87.5009  194.6250    0.9233   57.0000 
 526.6944   12.2500   60.1697   12.6599   16.2583    0.2320    2.4494   87.4083  193.1250    1.8716   57.0000 
 526.8468   12.2500   64.0620   12.7202   14.9854    0.2683    2.4713   87.8970  191.3750    3.4826   57.0000 
 526.9992   12.2500   68.2736   12.8047   13.6319    0.2787    2.4841   88.4292  192.0625    4.0473   57.0000 
 527.1516   12.2500   68.6783   12.9012   12.4488    0.2623    2.4927   88.3835  192.2500    3.6069   57.0000 
 527.3040   12.2500   70.0571   12.9254   12.1751    0.2575    2.4893   88.8321  192.9375    3.3334   57.0000 
 527.4564   12.2500   71.7118   12.9736   11.4459    0.2781    2.4864   90.9470  193.1250    3.9923   57.0000 
 527.6088   12.2500   72.3628   13.0460    9.9622    0.3092    2.4872   94.3609  194.3125    5.0696   57.0000 
 527.7612   12.2500   77.4156   13.0701    8.7570    0.3697    2.4896   97.0278  194.0000    7.1266   57.0000 
 527.9136   12.2500   83.1051   13.0460    7.8298    0.3607    2.4895   99.8585  194.1250    6.7885   57.0000 
 528.0660   12.2500   89.5365   13.0943    6.4383    0.3660    2.4861  104.9919  193.6250    6.9190   57.0000 
 528.2184   12.2500   91.1558   13.0943    5.6331    0.3031    2.4875  106.9584  193.6250    4.8576   57.0000 
 528.3708   12.2500   91.2987   13.1305    5.5236    0.3267    2.4855  107.9255  194.0625    5.5743   57.0000 
 528.5232   12.2500   87.3001   13.1425    5.5643    0.3203    2.4796  109.2410  192.9375    5.2148   57.0000 
 528.6756   12.2500   87.7627   13.1425    5.5587    0.3517    2.4771  108.1393  191.6875    6.3089   57.0000 
 528.8280   12.2500   82.7542   13.1667    5.3670    0.3646    2.4868  110.8231  192.0000    6.9441   57.0000 
 528.9804   12.2500   84.3761   13.2149    5.1990    0.4105    2.4929  111.0436  192.7500    8.5631   57.0000 
 529.1328   12.2500   85.0338   13.2391    5.3509    0.3979    2.4946  108.7596  192.6250    8.1531   57.0000 
 529.2852   12.2500   89.8296   13.2270    6.0281    0.3604    2.4895  107.0641  192.1250    6.7395   57.0000 
 529.4376   12.2500   86.5404   13.2391    7.0855    0.3101    2.4829  103.4719  191.6250    4.9666   57.0000 
 529.5900   12.2500   85.4382   13.1667    7.7976    0.3318    2.4752  101.3878  190.6250    5.4987   57.0000 
 529.7424   12.2500   81.2507   13.1305    6.8647    0.3714    2.4773  105.0473  191.0000    7.0264   57.0000 
 529.8948   12.2500   82.4138   13.0701    5.6631    0.4106    2.4913  111.4535  192.3750    8.5933   57.0000 
 530.0472   12.2500   82.6165   13.0701    4.7729    0.4485    2.5007  117.6888  191.2500    9.9844   57.0000 
 530.1996   12.2500   83.9275   13.0701    3.9445    0.4004    2.4957  123.7367  188.4375    8.1809   57.0000 
 530.3520   12.2500   84.9092   13.0581    3.9867    0.3463    2.4842  116.8960  188.7500    6.1465   57.0000 
 530.5044   12.2500   80.8068   13.0460    5.0590    0.2841    2.4697  107.8386  190.3125    3.7429   57.0000 
 530.6568   12.2500   75.2384   12.9977    6.9710    0.2725    2.4524   98.6978  189.4375    3.0332   57.0000 
 530.8092   12.2500   67.5482   12.9495    9.4850    0.2606    2.4431   89.3549  189.4375    2.5394   57.0000 
 530.9616   12.2500   62.3249   12.9495   11.1342    0.2408    2.4464   88.3663  189.2500    2.0238   57.0000 
 531.1140   12.2500   59.4484   12.9012   12.6917    0.2244    2.4603   86.7910  186.8125    1.7849   57.0000 
 531.2664   12.2500   63.1976   12.8771   15.4717    0.2167    2.4701   86.1324  188.0625    1.6566   57.0000 
 531.4188   12.2500   68.0162   12.8288   15.9140    0.2420    2.4744   88.0063  187.2500    2.5677   57.0000 
 531.5712   12.2500   76.7175   12.8288   14.0136    0.2989    2.4748   91.2156  188.9375    4.4826   57.0000 
 531.7236   12.2500   82.6137   12.8168   11.8339    0.3317    2.4837   94.1988  188.3125    5.8106   57.0000 
 531.8760   12.2500   85.5120   12.8530   11.0037    0.3543    2.4929   96.4077  188.5000    6.7349   57.0000 
 532.0284   12.2500   84.9584   12.8047    9.6267    0.3360    2.5008   97.8360  189.6875    6.2184   57.0000 
 532.1808   12.2500   84.0959   12.7564    8.6614    0.3553    2.4910   98.6961  191.6250    6.5347   57.0000 
 532.3332   12.2500   79.5194   12.7323    8.6314    0.3119    2.4716   98.9622  193.2500    4.6837   57.0000 
 532.4856   12.2500   71.7765   12.6840   10.0506    0.3090    2.4429   99.4455  192.8125    3.8959   57.0000 
 532.6380   12.2500   60.8493   12.7564   12.0426    0.2759    2.3990  100.4241  191.6250    1.8625   57.0000 
 532.7904   12.2500   51.4241   12.7323   14.1544    0.2670    2.3473  102.5420  192.3125    0.4584   57.0000 
 532.9428   12.2500   43.3044   12.7082   15.6979    0.2626    2.2931  103.8433  192.4375   -0.6684   25.0000 
 533.0952   12.2500   37.0507   12.6840   16.2747    0.2652    2.2635  104.7370  191.8750   -1.0072   49.0000 
 533.2476   12.2500   33.9893   12.6599   15.4936    0.2476    2.2500  105.0121  191.1875   -1.7918   49.0000 
 533.4000   12.2500   32.3938   12.6599   15.4588    0.2355    2.2433  104.7362  191.0625   -2.3612   49.0000 
