~VERSION INFORMATION
 VERS.                 2.0:   CWLS LOG ASCII STANDARD - VERSION 2.0
 WRAP.                  NO:   SINGLE LINE PER DEPTH STEP
 CREA.                 28/08/2020 11:52:07
#CREATED USING IP VERSION 4.5.2019.2902 BY CANDIDO ON 28/08/2020 11:52:07
~WELL INFORMATION
#MNEM.UNIT       DATA                          DESCRIPTION MNEMONIC
#---------      ---------------------------   --------------------------
 STRT    .M         639.0000                  : START DEPTH
 STOP    .M         3007.1000                 : STOP DEPTH
 STEP    .M         0.1000                    : STEP VALUE
 NULL    .      -999.0000                     : NULL VALUE
 DATE    .      28/08/2020                    : LAS file Creation Date
 WELL   .      7-MP-55D-BA     : Well Name
 COMP   .      PETROBRAS       : Company
 FLD    .      MASSAPE         : Field
 STATE  .      BAHIA           : State
 COUNT  .      -999.25         : Country
 API    .      20240028408     : API Number
 UWI    .                      : Unique Well Identifier (UWI)
 LOC    .      -999.25         : Location
 TOWN   .      -999.25         : Township
 SCT    .      -999.25         : Section
 RANG   .      -999.25         : Range
 PDAT   .      NM              : Permanent Datum
 EPDAT  .      0.00            : Elevation of Permanent Datum
 LGMEA  .      MR              : Log Measured from
 DRMEA  .      MR              : Drill Measured From
 APDAT  .      65.67           : Elevation Above Permanent Datum
 KB     .      65.97           : KB Elevation
 DF     .      65.67           : DF Elevation
 GL     .      56.27           : GL Elevation
 RWS    .      -999            : Def_Rw
 WST    .      -999            : Def_Rwt
 PROV   .                      : Province
 SRVC   .                      : Contractor
 GDAT   .      WGS 84          : Geodatum
 LONG   .      -38.435231944455: Longitude
 LATI   .      0               : Latitude
 COORDIN.                      : Grid System
 XCOORD .                      : X or East-West Coordinate
 YCOORD .                      : Y or North-South Coordinate
~CURVE INFORMATION
#MNEM                UNIT       API CODE   Curve Type Comments
#----------    --------------- ----------  ---------- -----------
 DEPTH        .M                         : Depth       
 TVD          .M                         : Depth       
 TVDSS        .M                         : Depth       
 GR           .api                       : GammaRay    
 CAL          .in                        : Caliper     
 BS           .in                        : BitSize     
 Lith_new     .                          :             
 RT           .ohmm                      : DeepRes     
 NPHI         .decp                      : Neutron     
 RHOB         .g/cc                      : Density     
 Res          .                          :             
 N_Res        .                          :             
 VCLGR        .Dec                       : Vcl         
 Phi_Gaymard  .                          :             
 Phie_Gaymard .                          :             
 SwArch       .Dec                       :             
 SwSim        .Dec                       :             
~A  DEPTH    TVD      TVDSS       GR       CAL        BS     Lith_new     RT       NPHI      RHOB      Res      N_Res     VCLGR   Phi_Gaym~ Phie_Gay~   SwArch    SwSim   
# ...
2735.2000 2721.8283 -2656.1583   59.3874    8.9436    8.5000   49.0000   38.4129    0.1065    2.4560    1.0000    0.0000    0.2118    0.1180    0.0930    0.1364    0.1167 
2735.3000 2721.9283 -2656.2583   53.3876    8.9459    8.5000   49.0000   39.6166    0.1052    2.4376    1.0000    0.0000    0.1267    0.1242    0.1085    0.1154    0.1063 
2735.4000 2722.0282 -2656.3582   46.2581    8.9332    8.5000   49.0000   41.8222    0.1031    2.4205    1.0000    0.0000    0.0427    0.1299    0.1243    0.0991    0.0967 
2735.5000 2722.1282 -2656.4582   44.7390    8.9329    8.5000   49.0000   42.8772    0.0993    2.4186    1.0000    0.0000    0.0269    0.1291    0.1257    0.0973    0.0958 
2735.6000 2722.2281 -2656.5581   45.0138    8.9252    8.5000   49.0000   43.9651    0.0940    2.4177    1.0000    0.0000    0.0297    0.1275    0.1237    0.0983    0.0965 
2735.7000 2722.3280 -2656.6581   46.1817    8.9195    8.5000   49.0000   46.3822    0.0967    2.4256    1.0000    0.0000    0.0419    0.1254    0.1201    0.0977    0.0951 
2735.8000 2722.4280 -2656.7580   47.4947    8.8997    8.5000   49.0000   47.6419    0.0976    2.4294    1.0000    0.0000    0.0561    0.1242    0.1173    0.0984    0.0948 
2735.9000 2722.5279 -2656.8579   47.8076    8.9058    8.5000   49.0000   48.8001    0.0979    2.4343    1.0000    0.0000    0.0595    0.1225    0.1152    0.0987    0.0948 
2736.0000 2722.6279 -2656.9579   47.0214    8.8946    8.5000   49.0000   50.4053    0.0964    2.4314    1.0000    0.0000    0.0509    0.1230    0.1167    0.0961    0.0928 
2736.1000 2722.7278 -2657.0578   46.1894    8.8988    8.5000   49.0000   50.8040    0.0964    2.4300    1.0000    0.0000    0.0419    0.1235    0.1184    0.0944    0.0918 
2736.2000 2722.8278 -2657.1578   45.5711    8.9048    8.5000   49.0000   51.0144    0.0957    2.4274    1.0000    0.0000    0.0354    0.1243    0.1199    0.0933    0.0911 
2736.3000 2722.9277 -2657.2577   47.0519    8.8969    8.5000   49.0000   51.1917    0.0959    2.4289    1.0000    0.0000    0.0512    0.1238    0.1174    0.0950    0.0917 
2736.4000 2723.0277 -2657.3577   47.1130    8.9091    8.5000   49.0000   51.8517    0.0968    2.4435    1.0000    0.0000    0.0519    0.1185    0.1123    0.0976    0.0941 
2736.5000 2723.1276 -2657.4576   46.5558    8.9049    8.5000   49.0000   52.4077    0.0907    2.4502    1.0000    0.0000    0.0459    0.1134    0.1082    0.1009    0.0975 
2736.6000 2723.2275 -2657.5575   45.4108    8.9026    8.5000   49.0000   52.9665    0.0931    2.4553    1.0000    0.0000    0.0338    0.1125    0.1087    0.0992    0.0968 
2736.7000 2723.3275 -2657.6575   44.3345    8.9265    8.5000   49.0000   53.0175    0.0958    2.4465    1.0000    0.0000    0.0228    0.1169    0.1143    0.0946    0.0931 
2736.8000 2723.4274 -2657.7574   43.0368    8.9020    8.5000   49.0000   52.0580    0.0956    2.4378    1.0000    0.0000    0.0099    0.1202    0.1190    0.0922    0.0916 
2736.9000 2723.5274 -2657.8574   43.0139    8.9031    8.5000   49.0000   50.5186    0.0950    2.4250    1.0000    0.0000    0.0097    0.1250    0.1237    0.0910    0.0904 
2737.0000 2723.6273 -2657.9573   45.6550    8.9001    8.5000   49.0000   47.3848    0.0960    2.4200    1.0000    0.0000    0.0363    0.1273    0.1227    0.0950    0.0929 
2737.1000 2723.7273 -2658.0573   46.8840    8.9041    8.5000   49.0000   46.3922    0.0977    2.4235    1.0000    0.0000    0.0494    0.1266    0.1203    0.0975    0.0945 
2737.2000 2723.8272 -2658.1572   47.5557    8.8960    8.5000   49.0000   45.7493    0.0992    2.4319    1.0000    0.0000    0.0567    0.1239    0.1169    0.1004    0.0968 
2737.3000 2723.9271 -2658.2572   50.3648    8.9107    8.5000   49.0000   45.1808    0.1006    2.4292    1.0000    0.0000    0.0890    0.1255    0.1143    0.1033    0.0974 
2737.4000 2724.0271 -2658.3571   51.6167    8.9124    8.5000   49.0000   45.1824    0.1022    2.4244    1.0000    0.0000    0.1042    0.1280    0.1147    0.1030    0.0962 
2737.5000 2724.1270 -2658.4570   51.1740    8.9162    8.5000   49.0000   45.3868    0.1018    2.4212    1.0000    0.0000    0.0988    0.1291    0.1163    0.1015    0.0952 
2737.6000 2724.2270 -2658.5570   48.0137    8.9327    8.5000   49.0000   46.5990    0.1035    2.4269    1.0000    0.0000    0.0618    0.1276    0.1197    0.0970    0.0933 
2737.7000 2724.3269 -2658.6569   45.8306    8.9221    8.5000   49.0000   47.6017    0.1031    2.4320    1.0000    0.0000    0.0382    0.1254    0.1207    0.0950    0.0927 
2737.8000 2724.4269 -2658.7569   44.7925    8.9325    8.5000   49.0000   48.7370    0.0947    2.4339    1.0000    0.0000    0.0274    0.1213    0.1180    0.0965    0.0948 
2737.9000 2724.5268 -2658.8568   44.1284    8.9236    8.5000   49.0000   49.8250    0.0930    2.4358    1.0000    0.0000    0.0207    0.1199    0.1175    0.0959    0.0946 
2738.0000 2724.6267 -2658.9567   45.5024    8.9246    8.5000   49.0000   51.2947    0.0917    2.4300    1.0000    0.0000    0.0347    0.1217    0.1175    0.0951    0.0929 
2738.1000 2724.7267 -2659.0567   46.5023    8.9150    8.5000   49.0000   51.6618    0.0954    2.4251    1.0000    0.0000    0.0453    0.1251    0.1194    0.0932    0.0904 
2738.2000 2724.8266 -2659.1566   47.0138    8.9152    8.5000   49.0000   51.9405    0.0953    2.4195    1.0000    0.0000    0.0508    0.1272    0.1208    0.0922    0.0891 
2738.3000 2724.9266 -2659.2566   45.6321    8.9210    8.5000   49.0000   52.8136    0.0914    2.4179    1.0000    0.0000    0.0361    0.1265    0.1219    0.0912    0.0890 
2738.4000 2725.0265 -2659.3565   43.6398    8.9107    8.5000   49.0000   53.5223    0.0898    2.4214    1.0000    0.0000    0.0158    0.1245    0.1225    0.0900    0.0891 
2738.5000 2725.1264 -2659.4564   41.8155    8.9129    8.5000   49.0000   54.3769    0.0929    2.4226    1.0000    0.0000   -0.0038    0.1251    0.1256    0.0870    0.0870 
2738.6000 2725.2264 -2659.5564   40.7926    8.8857    8.5000   49.0000   56.2683    0.0939    2.4238    1.0000    0.0000   -0.0246    0.1250    0.1281    0.0854    0.0854 
2738.7000 2725.3263 -2659.6563   40.4415    8.8817    8.5000   49.0000   57.2000    0.0918    2.4243    1.0000    0.0000   -0.0318    0.1240    0.1280    0.0855    0.0855 
2738.8000 2725.4263 -2659.7563   40.3041    8.8882    8.5000   49.0000   58.0867    0.0905    2.4313    1.0000    0.0000   -0.0346    0.1208    0.1249    0.0868    0.0868 
2738.9000 2725.5262 -2659.8562   40.7392    8.8982    8.5000   49.0000   59.7918    0.0926    2.4405    1.0000    0.0000   -0.0257    0.1179    0.1210    0.0867    0.0867 
2739.0000 2725.6261 -2659.9562   41.3040    8.8896    8.5000   49.0000   60.8287    0.0901    2.4444    1.0000    0.0000   -0.0142    0.1154    0.1171    0.0877    0.0877 
2739.1000 2725.7261 -2660.0561   41.1208    8.8843    8.5000   49.0000   62.1927    0.0838    2.4448    1.0000    0.0000   -0.0179    0.1129    0.1149    0.0892    0.0892 
2739.2000 2725.8260 -2660.1560   41.6704    8.8924    8.5000   49.0000   65.5105    0.0852    2.4493    1.0000    0.0000   -0.0067    0.1116    0.1124    0.0874    0.0874 
2739.3000 2725.9260 -2660.2560   42.8460    8.8879    8.5000   49.0000   67.0912    0.0833    2.4493    1.0000    0.0000    0.0081    0.1109    0.1100    0.0879    0.0873 
2739.4000 2726.0259 -2660.3559   43.8230    8.8938    8.5000   49.0000   68.5438    0.0840    2.4477    1.0000    0.0000    0.0176    0.1118    0.1098    0.0873    0.0860 
2739.5000 2726.1258 -2660.4558   44.0978    8.9014    8.5000   49.0000   69.8817    0.0864    2.4464    1.0000    0.0000    0.0204    0.1132    0.1109    0.0855    0.0840 
2739.6000 2726.2258 -2660.5558   41.2277    8.8986    8.5000   49.0000   72.4540    0.0848    2.4428    1.0000    0.0000   -0.0158    0.1141    0.1159    0.0819    0.0819 
2739.7000 2726.3257 -2660.6557   39.4110    8.9099    8.5000   49.0000   73.9447    0.0836    2.4415    1.0000    0.0000   -0.0528    0.1141    0.1202    0.0812    0.0812 
2739.8000 2726.4257 -2660.7557   38.4110    8.9171    8.5000   49.0000   75.6048    0.0855    2.4346    1.0000    0.0000   -0.0732    0.1176    0.1262    0.0782    0.0782 
