~VERSION INFORMATION
 VERS.                 2.0:   CWLS LOG ASCII STANDARD - VERSION 2.0
 WRAP.                  NO:   SINGLE LINE PER DEPTH STEP
 CREA.                 30/01/2020 17:28:45
#CREATED USING IP VERSION 4.5.2019.2902 BY RMOTA ON 30/01/2020 17:28:45
~WELL INFORMATION
#MNEM.UNIT       DATA                          DESCRIPTION MNEMONIC
#---------      ---------------------------   --------------------------
 STRT    .M         5.0000                    : START DEPTH
 STOP    .M         2977.0000                 : STOP DEPTH
 STEP    .M         0.1000                    : STEP VALUE
 NULL    .      -999.0000                     : NULL VALUE
 DATE    .      30/01/2020                    : LAS file Creation Date
 WELL   .      7-MP-53D-BA      : Well Name
 COMP   .      PETROBRAS        : Company
 FLD    .      MASSAPE          : Field
 STATE  .      BAHIA            : State
 API    .      20240027945      : API Number
 UWI    .                       : Unique Well Identifier (UWI)
 LOC    .                       : Location
 TOWN   .      -999.25          : Township
 SCT    .      -999.25          : Section
 RANG   .      -999.25          : Range
 PDAT   .      NM               : Permanent Datum
 EPDAT  .      0.00             : Elevation of Permanent Datum
 LGMEA  .      MR               : Log Measured from
 DRMEA  .      MR               : Drill Measured From
 APDAT  .      64.90            : Elevation Above Permanent Datum
 KB     .      -999.25          : KB Elevation
 DF     .      64.90            : DF Elevation
 GL     .      56.80            : GL Elevation
 RWS    .      -999             : Def_Rw
 WST    .      -999             : Def_Rwt
 PROV   .                       : Province
 SRVC   .                       : Contractor
 GDAT   .      WGS 84           : Geodatum
 LONG   .      -38.4325436115265: Longitude
 LATI   .      0                : Latitude
 COORDIN.                       : Grid System
 XCOORD .                       : X or East-West Coordinate
 YCOORD .                       : Y or North-South Coordinate
~CURVE INFORMATION
#MNEM              UNIT       API CODE   Curve Type Comments
#----------  --------------- ----------  ---------- -----------
 DEPTH      .M                         : Depth       
 DEPTH      .M                         : Depth       
 DRDN       .                          :             
 GR         .api                       : GammaRay    
 CAL        .in                        : Caliper     
 Res        .                          :             
 N_Res      .                          :             
 ILD        .ohmm                      : DeepRes     
 RHOB       .g/cc                      : Density     Loaded from DLIS: 7-mp-53d-ba_raw-3.dlis
 NPHI       .dec                       : Neutron     Loaded from DLIS: 7-mp-53d-ba_raw-3.dlis
 Lith_new   .                          :             
~A  DEPTH   DEPTH      DRDN       GR       CAL       Res      N_Res      ILD       RHOB      NPHI    Lith_new 
# ...
2888.5000 2888.5000   -2.1084   63.7304    8.5932    1.0000    0.0000   16.8428    2.4901    0.0927   49.0000 
2888.6000 2888.6000   -2.4784   58.5104    8.5933    1.0000    0.0000   16.5579    2.4923    0.0803   49.0000 
2888.7000 2888.7000   -2.5135   56.0457    8.5971    1.0000    0.0000   16.4258    2.4945    0.0779   49.0000 
2888.8000 2888.8000   -2.3436   54.4836    8.6041    1.0000    0.0000   16.2286    2.4964    0.0819   49.0000 
2888.9000 2888.9000   -2.3314   53.0393    8.6030    1.0000    0.0000   15.9077    2.4971    0.0818   49.0000 
2889.0000 2889.0000   -2.5058   53.5574    8.6081    1.0000    0.0000   14.8060    2.4977    0.0762   49.0000 
2889.1000 2889.1000   -2.5126   56.3832    8.5988    1.0000    0.0000   14.1574    2.4972    0.0763   49.0000 
2889.2000 2889.2000   -2.3340   57.9374    8.6003    1.0000    0.0000   13.6000    2.4981    0.0811   49.0000 
2889.3000 2889.3000   -2.1391   56.9327    8.5891    1.0000    0.0000   12.9818    2.4957    0.0884   49.0000 
2889.4000 2889.4000   -2.1354   56.2576    8.5947    1.0000    0.0000   12.8467    2.4964    0.0881   49.0000 
2889.5000 2889.5000   -2.1519   59.1698    8.5970    1.0000    0.0000   12.7126    2.4955    0.0881   49.0000 
2889.6000 2889.6000   -1.9217   67.7729    8.5910    1.0000    0.0000   12.2933    2.4978    0.0937   49.0000 
2889.7000 2889.7000   -1.8966   69.5861    8.5857    1.0000    0.0000   12.1044    2.4969    0.0950   49.0000 
2889.8000 2889.8000   -1.9249   68.9660    8.5848    1.0000    0.0000   12.0307    2.4962    0.0945   49.0000 
2889.9000 2889.9000   -1.7926   67.3412    8.6001    1.0000    0.0000   12.2705    2.4940    0.0998   49.0000 
2890.0000 2890.0000   -1.6283   68.7227    8.6063    1.0000    0.0000   12.5107    2.4968    0.1031   49.0000 
2890.1000 2890.1000   -1.2719   68.5421    8.6029    1.0000    0.0000   12.7729    2.5037    0.1096   49.0000 
2890.2000 2890.2000   -0.7029   67.1292    8.6021    0.0000    1.0000   13.2817    2.5253    0.1137   25.0000 
2890.3000 2890.3000   -0.7494   64.7822    8.6046    0.0000    1.0000   13.5163    2.5251    0.1125   25.0000 
2890.4000 2890.4000   -0.8622   64.4447    8.6089    0.0000    1.0000   13.7236    2.5164    0.1143   25.0000 
2890.5000 2890.5000   -1.4751   62.9062    8.6095    1.0000    0.0000   13.8862    2.4981    0.1069   49.0000 
2890.6000 2890.6000   -2.0731   58.6910    8.6037    1.0000    0.0000   14.0678    2.4817    0.0988   49.0000 
2890.7000 2890.7000   -1.9909   55.9358    8.6026    1.0000    0.0000   14.1168    2.4835    0.1002   49.0000 
2890.8000 2890.8000   -1.9588   54.5935    8.6085    1.0000    0.0000   14.1595    2.4868    0.0992   49.0000 
2890.9000 2890.9000   -2.2187   51.4537    8.6062    1.0000    0.0000   14.2211    2.4792    0.0959   49.0000 
2891.0000 2891.0000   -2.4835   50.0957    8.6018    1.0000    0.0000   14.1955    2.4727    0.0919   49.0000 
2891.1000 2891.1000   -2.6590   48.8555    8.6057    1.0000    0.0000   14.0908    2.4689    0.0889   49.0000 
2891.2000 2891.2000   -2.6773   51.3046    8.6055    1.0000    0.0000   13.6158    2.4705    0.0874   49.0000 
2891.3000 2891.3000   -2.5434   53.7693    8.6134    1.0000    0.0000   13.2927    2.4748    0.0888   49.0000 
2891.4000 2891.4000   -2.5272   56.4303    8.6102    1.0000    0.0000   12.9735    2.4780    0.0874   49.0000 
2891.5000 2891.5000   -2.5362   59.4995    8.5983    1.0000    0.0000   12.4925    2.4805    0.0856   49.0000 
2891.6000 2891.6000   -2.3868   62.3881    8.5977    1.0000    0.0000   12.3381    2.4776    0.0918   49.0000 
2891.7000 2891.7000   -2.2213   66.1559    8.5943    1.0000    0.0000   12.2069    2.4798    0.0955   49.0000 
2891.8000 2891.8000   -1.8599   70.0806    8.5795    1.0000    0.0000   12.0708    2.4890    0.1008   49.0000 
2891.9000 2891.9000   -1.3861   73.5266    8.5914    1.0000    0.0000   11.7585    2.5148    0.0995   49.0000 
2892.0000 2892.0000   -1.0407   73.7150    8.5884    1.0000    0.0000   11.5898    2.5270    0.1026   49.0000 
2892.1000 2892.1000   -0.6193   75.0023    8.5807    0.0000    1.0000   11.4306    2.5332    0.1115   25.0000 
2892.2000 2892.2000   -0.2309   78.6837    8.5963    0.0000    1.0000   11.2554    2.5460    0.1155   54.0000 
2892.3000 2892.3000   -0.0993   79.8219    8.6017    0.0000    1.0000   11.2815    2.5518    0.1159   54.0000 
2892.4000 2892.4000    0.0747   81.1406    8.6054    0.0000    1.0000   11.3805    2.5575    0.1177   54.0000 
2892.5000 2892.5000    0.1515   86.0544    8.6257    0.0000    1.0000   11.6949    2.5625    0.1170   54.0000 
2892.6000 2892.6000   -0.0077   87.9815    8.6229    0.0000    1.0000   11.8599    2.5626    0.1122   54.0000 
2892.7000 2892.7000   -0.0385   87.3159    8.6195    0.0000    1.0000   12.0019    2.5602    0.1127   54.0000 
2892.8000 2892.8000   -0.0855   78.2402    8.6264    0.0000    1.0000   12.1174    2.5476    0.1189   54.0000 
2892.9000 2892.9000   -0.3466   73.2542    8.6346    0.0000    1.0000   12.0783    2.5351    0.1185   25.0000 
2893.0000 2893.0000   -0.7542   69.8499    8.6341    0.0000    1.0000   12.0105    2.5208    0.1149   25.0000 
2893.1000 2893.1000   -1.4347   66.9369    8.6439    1.0000    0.0000   11.9470    2.5036    0.1048   49.0000 
2893.2000 2893.2000   -1.6343   67.7187    8.6342    1.0000    0.0000   11.9953    2.4988    0.1017   49.0000 
2893.3000 2893.3000   -1.5976   69.0210    8.6178    1.0000    0.0000   12.1037    2.5004    0.1018   49.0000 
2893.4000 2893.4000   -1.5293   69.4801    8.6190    1.0000    0.0000   12.2659    2.5003    0.1039   49.0000 
2893.5000 2893.5000   -1.5856   66.1637    8.6180    1.0000    0.0000   12.6085    2.5025    0.1009   49.0000 
2893.6000 2893.6000   -1.7080   65.3670    8.5922    1.0000    0.0000   12.6419    2.5048    0.0959   49.0000 
2893.7000 2893.7000   -1.7710   66.1323    8.5934    1.0000    0.0000   12.4846    2.5082    0.0919   49.0000 
2893.8000 2893.8000   -1.4799   68.1418    8.5993    1.0000    0.0000   11.6249    2.5292    0.0881   49.0000 
2893.9000 2893.9000   -1.2145   68.2909    8.6151    1.0000    0.0000   11.0700    2.5413    0.0888   49.0000 
2894.0000 2894.0000   -0.7873   68.8875    8.6091    0.0000    1.0000   10.5576    2.5531    0.0945   25.0000 
2894.1000 2894.1000   -0.3962   75.2456    8.5825    0.0000    1.0000    9.9374    2.5470    0.1099   25.0000 
2894.2000 2894.2000   -0.3434   79.4451    8.6007    0.0000    1.0000    9.8568    2.5376    0.1171   25.0000 
2894.3000 2894.3000   -0.2599   83.2836    8.6104    0.0000    1.0000    9.8750    2.5293    0.1246   54.0000 
2894.4000 2894.4000    0.1179   88.8410    8.6167    0.0000    1.0000    9.9950    2.5435    0.1274   54.0000 
2894.5000 2894.5000    0.3408   88.2759    8.6130    0.0000    1.0000   10.0256    2.5558    0.1267   57.0000 
2894.6000 2894.6000    0.5947   84.9791    8.6121    0.0000    1.0000   10.0227    2.5640    0.1294   57.0000 
2894.7000 2894.7000    0.7269   75.5439    8.6433    0.0000    1.0000    9.9631    2.5568    0.1377   57.0000 
2894.8000 2894.8000    0.3807   74.5313    8.6581    0.0000    1.0000    9.9493    2.5479    0.1327   57.0000 
2894.9000 2894.9000   -0.0404   75.3241    8.6578    0.0000    1.0000    9.9665    2.5414    0.1239   54.0000 
2895.0000 2895.0000   -0.2986   76.5251    8.6600    0.0000    1.0000   10.0105    2.5358    0.1196   54.0000 
2895.1000 2895.1000   -0.3512   77.2708    8.6731    0.0000    1.0000   10.2081    2.5263    0.1237   25.0000 
2895.2000 2895.2000   -0.4006   78.3070    8.7424    0.0000    1.0000   10.4584    2.5180    0.1272   25.0000 
2895.3000 2895.3000   -0.4002   79.5786    8.7757    0.0000    1.0000   10.8999    2.5148    0.1291   25.0000 
2895.4000 2895.4000   -0.1052   81.1249    8.7297    0.0000    1.0000   11.9907    2.5309    0.1283   54.0000 
2895.5000 2895.5000    0.2202   79.3588    8.7630    0.0000    1.0000   12.3232    2.5476    0.1280   54.0000 
2895.6000 2895.6000    0.6723   79.1312    8.7236    0.0000    1.0000   12.4774    2.5671    0.1299   57.0000 
2895.7000 2895.7000    0.5431   80.7796    8.5968    0.0000    1.0000   12.4202    2.5875    0.1138   57.0000 
