~VERSION INFORMATION
 VERS.                 2.0:   CWLS LOG ASCII STANDARD - VERSION 2.0
 WRAP.                  NO:   SINGLE LINE PER DEPTH STEP
 CREA.                 30/01/2020 17:28:45
#CREATED USING IP VERSION 4.5.2019.2902 BY RMOTA ON 30/01/2020 17:28:45
~WELL INFORMATION
#MNEM.UNIT       DATA                          DESCRIPTION MNEMONIC
#---------      ---------------------------   --------------------------
 STRT    .M         5.0000                    : START DEPTH
 STOP    .M         2977.0000                 : STOP DEPTH
 STEP    .M         0.1000                    : STEP VALUE
 NULL    .      -999.0000                     : NULL VALUE
 DATE    .      30/01/2020                    : LAS file Creation Date
 WELL   .      7-MP-53D-BA      : Well Name
 COMP   .      PETROBRAS        : Company
 FLD    .      MASSAPE          : Field
 STATE  .      BAHIA            : State
 API    .      20240027945      : API Number
 UWI    .                       : Unique Well Identifier (UWI)
 LOC    .                       : Location
 TOWN   .      -999.25          : Township
 SCT    .      -999.25          : Section
 RANG   .      -999.25          : Range
 PDAT   .      NM               : Permanent Datum
 EPDAT  .      0.00             : Elevation of Permanent Datum
 LGMEA  .      MR               : Log Measured from
 DRMEA  .      MR               : Drill Measured From
 APDAT  .      64.90            : Elevation Above Permanent Datum
 KB     .      -999.25          : KB Elevation
 DF     .      64.90            : DF Elevation
 GL     .      56.80            : GL Elevation
 RWS    .      -999             : Def_Rw
 WST    .      -999             : Def_Rwt
 PROV   .                       : Province
 SRVC   .                       : Contractor
 GDAT   .      WGS 84           : Geodatum
 LONG   .      -38.4325436115265: Longitude
 LATI   .      0                : Latitude
 COORDIN.                       : Grid System
 XCOORD .                       : X or East-West Coordinate
 YCOORD .                       : Y or North-South Coordinate
~CURVE INFORMATION
#MNEM              UNIT       API CODE   Curve Type Comments
#----------  --------------- ----------  ---------- -----------
 DEPTH      .M                         : Depth       
 DEPTH      .M                         : Depth       
 DRDN       .                          :             
 GR         .api                       : GammaRay    
 CAL        .in                        : Caliper     
 Res        .                          :             
 N_Res      .                          :             
 ILD        .ohmm                      : DeepRes     
 RHOB       .g/cc                      : Density     Loaded from DLIS: 7-mp-53d-ba_raw-3.dlis
 NPHI       .dec                       : Neutron     Loaded from DLIS: 7-mp-53d-ba_raw-3.dlis
 Lith_new   .                          :             
~A  DEPTH   DEPTH      DRDN       GR       CAL       Res      N_Res      ILD       RHOB      NPHI    Lith_new 
# ...
2180.4000 2180.4000    5.0881   98.8335    8.8874 -999.0000 -999.0000    1.9530    2.5555    0.2693   57.0000 
2180.5000 2180.5000    5.3692  100.0031    8.8634 -999.0000 -999.0000    1.9466    2.5559    0.2775   57.0000 
2180.6000 2180.6000    5.1045  100.9921    8.8473 -999.0000 -999.0000    1.9700    2.5561    0.2695   57.0000 
2180.7000 2180.7000    5.5131  102.7661    8.8362 -999.0000 -999.0000    2.0288    2.5602    0.2793   57.0000 
2180.8000 2180.8000    5.4843  108.3707    8.8444 -999.0000 -999.0000    2.2292    2.5709    0.2720   57.0000 
2180.9000 2180.9000    5.4517  109.5559    8.8449 -999.0000 -999.0000    2.3327    2.5763    0.2678   57.0000 
2181.0000 2181.0000    5.8499  108.8495    8.8471 -999.0000 -999.0000    2.3998    2.5804    0.2773   57.0000 
2181.1000 2181.1000    5.7238  102.5149    8.8480 -999.0000 -999.0000    2.4088    2.5846    0.2710   57.0000 
2181.2000 2181.2000    5.6041  100.4819    8.8504 -999.0000 -999.0000    2.3658    2.5875    0.2656   57.0000 
2181.3000 2181.3000    5.2131   98.8178    8.8363 -999.0000 -999.0000    2.2961    2.5872    0.2541   57.0000 
2181.4000 2181.4000    4.6784  100.3563    8.8541 -999.0000 -999.0000    2.1116    2.5759    0.2448   57.0000 
2181.5000 2181.5000    4.7508  101.3375    8.8595 -999.0000 -999.0000    2.0131    2.5677    0.2519   57.0000 
2181.6000 2181.6000    4.5520  101.1255    8.8470 -999.0000 -999.0000    1.9225    2.5651    0.2475   57.0000 
2181.7000 2181.7000    4.9899  100.4034    8.8519 -999.0000 -999.0000    1.7702    2.5775    0.2532   57.0000 
2181.8000 2181.8000    5.4953  101.2590    8.8435 -999.0000 -999.0000    1.7037    2.5852    0.2637   57.0000 
2181.9000 2181.9000    5.7566  103.0173    8.8410 -999.0000 -999.0000    1.6474    2.5888    0.2694   57.0000 
2182.0000 2182.0000    6.1599  100.9686    8.8452 -999.0000 -999.0000    1.5679    2.5930    0.2790   57.0000 
2182.1000 2182.1000    6.5389   98.4332    8.8498 -999.0000 -999.0000    1.5425    2.5965    0.2883   57.0000 
2182.2000 2182.2000    5.9832   95.5288    8.8400 -999.0000 -999.0000    1.5291    2.5975    0.2710   57.0000 
2182.3000 2182.3000    5.9719   94.2886    8.8345 -999.0000 -999.0000    1.5335    2.5960    0.2716   57.0000 
2182.4000 2182.4000    5.4592   95.0029    8.8320 -999.0000 -999.0000    1.6312    2.5829    0.2640   57.0000 
2182.5000 2182.5000    5.3942   97.0673    8.8388 -999.0000 -999.0000    1.7392    2.5790    0.2644   57.0000 
2182.6000 2182.6000    5.8787   98.4489    8.8507 -999.0000 -999.0000    1.8807    2.5722    0.2830   57.0000 
2182.7000 2182.7000    5.4987   97.6875    8.8429 -999.0000 -999.0000    2.1328    2.5686    0.2738   57.0000 
2182.8000 2182.8000    5.1876   94.9009    8.8461 -999.0000 -999.0000    2.1594    2.5670    0.2654   57.0000 
2182.9000 2182.9000    4.9887   94.5005    8.8584 -999.0000 -999.0000    2.1101    2.5711    0.2570   57.0000 
2183.0000 2183.0000    5.0095  100.4662    8.8640 -999.0000 -999.0000    1.9243    2.5677    0.2597   57.0000 
2183.1000 2183.1000    5.3490  103.9906    8.8591 -999.0000 -999.0000    1.8502    2.5661    0.2708   57.0000 
2183.2000 2183.2000    5.1322  105.3407    8.8600 -999.0000 -999.0000    1.8014    2.5598    0.2681   57.0000 
2183.3000 2183.3000    4.9525  104.5008    8.8602 -999.0000 -999.0000    1.7548    2.5581    0.2637   57.0000 
2183.4000 2183.4000    4.7543  104.5558    8.8559 -999.0000 -999.0000    1.7511    2.5565    0.2587   57.0000 
2183.5000 2183.5000    4.7646  104.4145    8.8467 -999.0000 -999.0000    1.7613    2.5566    0.2590   57.0000 
2183.6000 2183.6000    5.0784  102.2716    8.8489 -999.0000 -999.0000    1.8140    2.5516    0.2714   57.0000 
2183.7000 2183.7000    5.2829   99.6184    8.8481 -999.0000 -999.0000    1.8474    2.5523    0.2771   57.0000 
2183.8000 2183.8000    5.3525   98.6922    8.8502 -999.0000 -999.0000    1.8715    2.5542    0.2781   57.0000 
2183.9000 2183.9000    5.4350   98.6608    8.8541 -999.0000 -999.0000    1.8645    2.5595    0.2774   57.0000 
2184.0000 2184.0000    5.1632  102.4129    8.8523 -999.0000 -999.0000    1.7571    2.5698    0.2630   57.0000 
2184.1000 2184.1000    5.2628  106.2434    8.8593 -999.0000 -999.0000    1.7151    2.5752    0.2628   57.0000 
2184.2000 2184.2000    5.0772  110.3095    8.8621 -999.0000 -999.0000    1.6994    2.5788    0.2550   57.0000 
2184.3000 2184.3000    5.0858  112.9391    8.8759 -999.0000 -999.0000    1.7085    2.5786    0.2554   57.0000 
2184.4000 2184.4000    5.1279  111.4477    8.8746 -999.0000 -999.0000    1.7215    2.5756    0.2585   57.0000 
2184.5000 2184.5000    5.3832  108.9044    8.8726 -999.0000 -999.0000    1.7325    2.5721    0.2682   57.0000 
2184.6000 2184.6000    5.6240  107.3973    8.8805 -999.0000 -999.0000    1.7407    2.5681    0.2779   57.0000 
2184.7000 2184.7000    5.2523  106.2905    8.8790 -999.0000 -999.0000    1.7466    2.5691    0.2661   57.0000 
2184.8000 2184.8000    5.0994  104.7834    8.8762 -999.0000 -999.0000    1.7677    2.5710    0.2604   57.0000 
2184.9000 2184.9000    5.0959   98.8256    8.8783 -999.0000 -999.0000    1.9256    2.5692    0.2614   57.0000 
2185.0000 2185.0000    5.3854   96.3452    8.8822 -999.0000 -999.0000    2.0996    2.5649    0.2726   57.0000 
2185.1000 2185.1000    5.6046   94.4848    8.8787 -999.0000 -999.0000    2.3577    2.5607    0.2817   57.0000 
2185.2000 2185.2000    5.4345   96.8790    8.8832 -999.0000 -999.0000    3.1328    2.5575    0.2785   57.0000 
2185.3000 2185.3000    5.1732   99.7048    8.8831 -999.0000 -999.0000    3.5834    2.5593    0.2696   57.0000 
2185.4000 2185.4000    4.8185  102.8054    8.8779 -999.0000 -999.0000    3.9487    2.5644    0.2559   57.0000 
2185.5000 2185.5000    5.1270  103.4255    8.8769 -999.0000 -999.0000    4.1043    2.5728    0.2601   57.0000 
2185.6000 2185.6000    5.7732   99.9560    8.8793 -999.0000 -999.0000    3.6826    2.5903    0.2690   57.0000 
2185.7000 2185.7000    5.8496   95.8036    8.8719 -999.0000 -999.0000    3.2581    2.5938    0.2692   57.0000 
2185.8000 2185.8000    5.5677   94.6654    8.8858 -999.0000 -999.0000    2.8333    2.5899    0.2631   57.0000 
2185.9000 2185.9000    4.7593   97.0595    8.8826 -999.0000 -999.0000    2.2568    2.5773    0.2464   57.0000 
2186.0000 2186.0000    4.6084   99.4614    8.8882 -999.0000 -999.0000    2.1023    2.5744    0.2436   57.0000 
2186.1000 2186.1000    4.6394  100.8822    8.8852 -999.0000 -999.0000    2.0043    2.5787    0.2420   57.0000 
2186.2000 2186.2000    5.1116  101.1883    8.8916 -999.0000 -999.0000    1.9199    2.5874    0.2509   57.0000 
2186.3000 2186.3000    5.2802  100.8665    8.8967 -999.0000 -999.0000    1.9069    2.5881    0.2555   57.0000 
2186.4000 2186.4000    5.3085  100.1679    8.9028 -999.0000 -999.0000    1.9033    2.5885    0.2562   57.0000 
2186.5000 2186.5000    6.0551  102.2088    8.9066 -999.0000 -999.0000    1.9227    2.5858    0.2802   57.0000 
2186.6000 2186.6000    5.7965  105.4192    8.9123 -999.0000 -999.0000    1.9541    2.5837    0.2737   57.0000 
2186.7000 2186.7000    6.1511  109.1949    8.9120 -999.0000 -999.0000    1.9982    2.5746    0.2898   57.0000 
2186.8000 2186.8000    5.8231  106.3376    8.9298 -999.0000 -999.0000    2.0492    2.5688    0.2834   57.0000 
2186.9000 2186.9000    5.4996  102.6798    8.9911 -999.0000 -999.0000    2.0172    2.5717    0.2720   57.0000 
2187.0000 2187.0000    5.4704  100.1365    9.0311 -999.0000 -999.0000    1.9451    2.5819    0.2650   57.0000 
2187.1000 2187.1000    5.6266  100.1287    8.9431 -999.0000 -999.0000    1.8582    2.5886    0.2656   57.0000 
2187.2000 2187.2000    5.9099   99.0376    8.9180 -999.0000 -999.0000    1.7144    2.5914    0.2725   57.0000 
2187.3000 2187.3000    5.5912   97.6953    8.9220 -999.0000 -999.0000    1.6619    2.5822    0.2684   57.0000 
2187.4000 2187.4000    5.3338   98.5195    8.9291 -999.0000 -999.0000    1.6229    2.5722    0.2667   57.0000 
2187.5000 2187.5000    5.6114  106.6124    8.9198 -999.0000 -999.0000    1.5868    2.5672    0.2780   57.0000 
2187.6000 2187.6000    5.3807  109.7129    8.9124 -999.0000 -999.0000    1.5799    2.5731    0.2676   57.0000 
