~VERSION INFORMATION
 VERS.                 2.0:   CWLS LOG ASCII STANDARD - VERSION 2.0
 WRAP.                  NO:   SINGLE LINE PER DEPTH STEP
 CREA.                 28/08/2020 11:52:07
#CREATED USING IP VERSION 4.5.2019.2902 BY CANDIDO ON 28/08/2020 11:52:07
~WELL INFORMATION
#MNEM.UNIT       DATA                          DESCRIPTION MNEMONIC
#---------      ---------------------------   --------------------------
 STRT    .M         639.0000                  : START DEPTH
 STOP    .M         3007.1000                 : STOP DEPTH
 STEP    .M         0.1000                    : STEP VALUE
 NULL    .      -999.0000                     : NULL VALUE
 DATE    .      28/08/2020                    : LAS file Creation Date
 WELL   .      7-MP-55D-BA     : Well Name
 COMP   .      PETROBRAS       : Company
 FLD    .      MASSAPE         : Field
 STATE  .      BAHIA           : State
 COUNT  .      -999.25         : Country
 API    .      20240028408     : API Number
 UWI    .                      : Unique Well Identifier (UWI)
 LOC    .      -999.25         : Location
 TOWN   .      -999.25         : Township
 SCT    .      -999.25         : Section
 RANG   .      -999.25         : Range
 PDAT   .      NM              : Permanent Datum
 EPDAT  .      0.00            : Elevation of Permanent Datum
 LGMEA  .      MR              : Log Measured from
 DRMEA  .      MR              : Drill Measured From
 APDAT  .      65.67           : Elevation Above Permanent Datum
 KB     .      65.97           : KB Elevation
 DF     .      65.67           : DF Elevation
 GL     .      56.27           : GL Elevation
 RWS    .      -999            : Def_Rw
 WST    .      -999            : Def_Rwt
 PROV   .                      : Province
 SRVC   .                      : Contractor
 GDAT   .      WGS 84          : Geodatum
 LONG   .      -38.435231944455: Longitude
 LATI   .      0               : Latitude
 COORDIN.                      : Grid System
 XCOORD .                      : X or East-West Coordinate
 YCOORD .                      : Y or North-South Coordinate
~CURVE INFORMATION
#MNEM                UNIT       API CODE   Curve Type Comments
#----------    --------------- ----------  ---------- -----------
 DEPTH        .M                         : Depth       
 TVD          .M                         : Depth       
 TVDSS        .M                         : Depth       
 GR           .api                       : GammaRay    
 CAL          .in                        : Caliper     
 BS           .in                        : BitSize     
 Lith_new     .                          :             
 RT           .ohmm                      : DeepRes     
 NPHI         .decp                      : Neutron     
 RHOB         .g/cc                      : Density     
 Res          .                          :             
 N_Res        .                          :             
 VCLGR        .Dec                       : Vcl         
 Phi_Gaymard  .                          :             
 Phie_Gaymard .                          :             
 SwArch       .Dec                       :             
 SwSim        .Dec                       :             
~A  DEPTH    TVD      TVDSS       GR       CAL        BS     Lith_new     RT       NPHI      RHOB      Res      N_Res     VCLGR   Phi_Gaym~ Phie_Gay~   SwArch    SwSim   
# ...
2486.1000 2472.9248 -2407.2548   51.1129    8.6667    8.5000   49.0000   19.0177    0.0977    2.4732    1.0000    0.0000    0.0771    0.1078    0.0995    0.1850    0.1780 
2486.2000 2473.0246 -2407.3546   54.3876    8.6795    8.5000   49.0000   18.2161    0.1049    2.4790    1.0000    0.0000    0.1031    0.1092    0.0979    0.1920    0.1825 
2486.3000 2473.1245 -2407.4545   59.1584    8.6551    8.5000   49.0000   17.4312    0.1031    2.4936    1.0000    0.0000    0.1439    0.1033    0.0885    0.2189    0.2026 
2486.4000 2473.2243 -2407.5543   58.3188    8.6328    8.5000   49.0000   17.5408    0.0973    2.5007    1.0000    0.0000    0.1365    0.0981    0.0847    0.2285    0.2116 
2486.5000 2473.3241 -2407.6541   56.6547    8.6283    8.5000   49.0000   17.7809    0.0945    2.5027    1.0000    0.0000    0.1221    0.0960    0.0843    0.2274    0.2121 
2486.6000 2473.4239 -2407.7539   54.6777    8.6459    8.5000   49.0000   17.6933    0.0914    2.4958    1.0000    0.0000    0.1055    0.0969    0.0867    0.2211    0.2086 
2486.7000 2473.5238 -2407.8538   55.2731    8.6397    8.5000   49.0000   17.5994    0.0881    2.4854    1.0000    0.0000    0.1104    0.0991    0.0882    0.2197    0.2068 
2486.8000 2473.6236 -2407.9536   55.6013    8.6359    8.5000   49.0000   17.8127    0.0865    2.4747    1.0000    0.0000    0.1132    0.1024    0.0908    0.2135    0.2009 
2486.9000 2473.7234 -2408.0534   55.0670    8.6732    8.5000   49.0000   18.4139    0.0896    2.4627    1.0000    0.0000    0.1087    0.1082    0.0964    0.1972    0.1865 
2487.0000 2473.8233 -2408.1533   50.6931    8.6867    8.5000   49.0000   20.4566    0.0886    2.4587    1.0000    0.0000    0.0739    0.1093    0.1012    0.1776    0.1710 
2487.1000 2473.9231 -2408.2531   50.3495    8.6760    8.5000   49.0000   21.3867    0.0819    2.4651    1.0000    0.0000    0.0713    0.1042    0.0967    0.1825    0.1755 
2487.2000 2474.0229 -2408.3529   50.4717    8.6799    8.5000   49.0000   21.6276    0.0821    2.4770    1.0000    0.0000    0.0722    0.0997    0.0925    0.1885    0.1808 
2487.3000 2474.1227 -2408.4527   58.4943    8.6916    8.5000   49.0000   18.0759    0.0848    2.5033    1.0000    0.0000    0.1380    0.0912    0.0786    0.2468    0.2263 
2487.4000 2474.2226 -2408.5526   67.5322    8.6784    8.5000   25.0000   14.5657    0.1114    2.5236    0.0000    1.0000    0.2250    0.0985    0.0764    0.2894    0.2533 
2487.5000 2474.3224 -2408.6524   82.0203    8.6895    8.5000   57.0000   11.1101    0.1329    2.5459    0.0000    1.0000    0.3991    0.1059    0.0636    0.4424    0.3365 
2487.6000 2474.4222 -2408.7522  112.0346    8.6722    8.5000   57.0000    6.6413    0.1589    2.5978    0.0000    1.0000    0.9518    0.1150    0.0055    1.3000    0.5600 
2487.7000 2474.5221 -2408.8521  121.7748    8.6481    8.5000   57.0000    5.5392    0.1920    2.6184    0.0000    1.0000    1.1051    0.1366    0.0000    1.3000    0.6391 
2487.8000 2474.6219 -2408.9519  125.6525    8.6320    8.5000   57.0000    4.9024    0.2371    2.6337    0.0000    1.0000    1.1575    0.1678    0.0000    1.3000    0.7222 
2487.9000 2474.7217 -2409.0517  126.2021    8.6300    8.5000   57.0000    4.4259    0.2362    2.6452    0.0000    1.0000    1.1649    0.1670    0.0000    1.3000    0.7999 
2488.0000 2474.8215 -2409.1515  123.8052    8.6216    8.5000   57.0000    4.4237    0.2228    2.6391    0.0000    1.0000    1.1325    0.1576    0.0000    1.3000    0.8003 
2488.1000 2474.9214 -2409.2514  121.4084    8.6483    8.5000   57.0000    4.5446    0.2030    2.6306    0.0000    1.0000    1.1001    0.1438    0.0000    1.3000    0.7790 
2488.2000 2475.0212 -2409.3512  110.2789    8.6569    8.5000   57.0000    5.2412    0.2053    2.6181    0.0000    1.0000    0.9102    0.1459    0.0131    1.3000    0.7416 
2488.3000 2475.1210 -2409.4510  103.8746    8.6744    8.5000   57.0000    5.8686    0.2022    2.6158    0.0000    1.0000    0.7696    0.1439    0.0331    1.3000    0.6571 
2488.4000 2475.2209 -2409.5509   97.8366    8.7206    8.5000   57.0000    6.6800    0.1858    2.6092    0.0000    1.0000    0.6517    0.1328    0.0462    1.1090    0.5861 
2488.5000 2475.3207 -2409.6507   92.1421    8.7294    8.5000   57.0000    7.6100    0.1785    2.5942    0.0000    1.0000    0.5520    0.1289    0.0577    0.7109    0.4717 
2488.6000 2475.4205 -2409.7505   81.3562    8.7256    8.5000   57.0000    9.4982    0.1724    2.5585    0.0000    1.0000    0.3900    0.1292    0.0788    0.3819    0.3131 
2488.7000 2475.5204 -2409.8504   75.5854    8.7092    8.5000   54.0000   10.4081    0.1275    2.5455    0.0000    1.0000    0.3159    0.1026    0.0702    0.4021    0.3339 
2488.8000 2475.6202 -2409.9502   70.3489    8.7008    8.5000   25.0000   11.3618    0.1056    2.5404    0.0000    1.0000    0.2552    0.0906    0.0675    0.3940    0.3355 
2488.9000 2475.7200 -2410.0500   58.2577    8.7433    8.5000   49.0000   13.4961    0.0823    2.5395    1.0000    0.0000    0.1359    0.0779    0.0673    0.3372    0.3090 
2489.0000 2475.8198 -2410.1498   53.9678    8.6843    8.5000   49.0000   14.4680    0.0428    2.5447    1.0000    0.0000    0.0997    0.0579    0.0521    0.4687    0.4261 
2489.1000 2475.9197 -2410.2497   50.5862    8.6394    8.5000   49.0000   15.2499    0.0323    2.5517    1.0000    0.0000    0.0731    0.0514    0.0476    0.5050    0.4665 
2489.2000 2476.0195 -2410.3495   46.4489    8.6417    8.5000   49.0000   16.3167    0.0274    2.5715    1.0000    0.0000    0.0428    0.0416    0.0398    0.5208    0.4948 
2489.3000 2476.1193 -2410.4493   44.2200    8.6611    8.5000   49.0000   16.6622    0.0235    2.5818    1.0000    0.0000    0.0274    0.0360    0.0350    0.5451    0.5262 
2489.4000 2476.2192 -2410.5492   42.4796    8.6486    8.5000   49.0000   16.9270    0.0219    2.5887    1.0000    0.0000    0.0158    0.0326    0.0321    0.5509    0.5396 
2489.5000 2476.3190 -2410.6490   41.8231    8.6571    8.5000   49.0000   17.3944    0.0228    2.5908    1.0000    0.0000    0.0116    0.0321    0.0317    0.5320    0.5240 
2489.6000 2476.4188 -2410.7488   43.0826    8.6545    8.5000   49.0000   17.6781    0.0240    2.5810    1.0000    0.0000    0.0198    0.0365    0.0358    0.5061    0.4936 
2489.7000 2476.5187 -2410.8487   43.9452    8.6591    8.5000   49.0000   18.0209    0.0287    2.5702    1.0000    0.0000    0.0256    0.0425    0.0414    0.4480    0.4352 
2489.8000 2476.6185 -2410.9485   45.1131    8.6272    8.5000   49.0000   18.8332    0.0325    2.5527    1.0000    0.0000    0.0335    0.0510    0.0493    0.3907    0.3773 
2489.9000 2476.7183 -2411.0483   46.9069    8.6261    8.5000   49.0000   19.2461    0.0392    2.5522    1.0000    0.0000    0.0460    0.0535    0.0511    0.3677    0.3512 
2490.0000 2476.8182 -2411.1482   49.5252    8.6172    8.5000   49.0000   19.5933    0.0558    2.5551    1.0000    0.0000    0.0651    0.0594    0.0556    0.3217    0.3036 
2490.1000 2476.9180 -2411.2480   52.5632    8.6127    8.5000   49.0000   19.7591    0.0650    2.5617    1.0000    0.0000    0.0885    0.0618    0.0564    0.3192    0.2950 
2490.2000 2477.0178 -2411.3478   59.3264    8.5994    8.5000   25.0000   18.7308    0.0775    2.5891    0.0000    1.0000    0.1454    0.0618    0.0528    0.3910    0.3366 
2490.3000 2477.1177 -2411.4477   63.0133    8.6105    8.5000   57.0000   17.2001    0.1019    2.6050    0.0000    1.0000    0.1797    0.0751    0.0616    0.3782    0.3209 
2490.4000 2477.2175 -2411.5475   66.9521    8.6333    8.5000   57.0000   15.1609    0.1171    2.6160    0.0000    1.0000    0.2189    0.0843    0.0659    0.3906    0.3256 
2490.5000 2477.3173 -2411.6473   78.2723    8.6313    8.5000   57.0000   11.0755    0.1346    2.6236    0.0000    1.0000    0.3494    0.0960    0.0624    0.6235    0.4462 
2490.6000 2477.4172 -2411.7472   85.6461    8.6618    8.5000   57.0000    9.5155    0.1466    2.6249    0.0000    1.0000    0.4506    0.1043    0.0573    0.8721    0.5257 
2490.7000 2477.5170 -2411.8470   92.9436    8.6617    8.5000   57.0000    8.3872    0.1532    2.6314    0.0000    1.0000    0.5654    0.1087    0.0472    1.3000    0.6308 
