~VERSION INFORMATION
 VERS.                 2.0:   CWLS LOG ASCII STANDARD - VERSION 2.0
 WRAP.                  NO:   SINGLE LINE PER DEPTH STEP
 CREA.                 30/01/2020 17:28:45
#CREATED USING IP VERSION 4.5.2019.2902 BY RMOTA ON 30/01/2020 17:28:45
~WELL INFORMATION
#MNEM.UNIT       DATA                          DESCRIPTION MNEMONIC
#---------      ---------------------------   --------------------------
 STRT    .M         5.0000                    : START DEPTH
 STOP    .M         2977.0000                 : STOP DEPTH
 STEP    .M         0.1000                    : STEP VALUE
 NULL    .      -999.0000                     : NULL VALUE
 DATE    .      30/01/2020                    : LAS file Creation Date
 WELL   .      7-MP-53D-BA      : Well Name
 COMP   .      PETROBRAS        : Company
 FLD    .      MASSAPE          : Field
 STATE  .      BAHIA            : State
 API    .      20240027945      : API Number
 UWI    .                       : Unique Well Identifier (UWI)
 LOC    .                       : Location
 TOWN   .      -999.25          : Township
 SCT    .      -999.25          : Section
 RANG   .      -999.25          : Range
 PDAT   .      NM               : Permanent Datum
 EPDAT  .      0.00             : Elevation of Permanent Datum
 LGMEA  .      MR               : Log Measured from
 DRMEA  .      MR               : Drill Measured From
 APDAT  .      64.90            : Elevation Above Permanent Datum
 KB     .      -999.25          : KB Elevation
 DF     .      64.90            : DF Elevation
 GL     .      56.80            : GL Elevation
 RWS    .      -999             : Def_Rw
 WST    .      -999             : Def_Rwt
 PROV   .                       : Province
 SRVC   .                       : Contractor
 GDAT   .      WGS 84           : Geodatum
 LONG   .      -38.4325436115265: Longitude
 LATI   .      0                : Latitude
 COORDIN.                       : Grid System
 XCOORD .                       : X or East-West Coordinate
 YCOORD .                       : Y or North-South Coordinate
~CURVE INFORMATION
#MNEM              UNIT       API CODE   Curve Type Comments
#----------  --------------- ----------  ---------- -----------
 DEPTH      .M                         : Depth       
 DEPTH      .M                         : Depth       
 DRDN       .                          :             
 GR         .api                       : GammaRay    
 CAL        .in                        : Caliper     
 Res        .                          :             
 N_Res      .                          :             
 ILD        .ohmm                      : DeepRes     
 RHOB       .g/cc                      : Density     Loaded from DLIS: 7-mp-53d-ba_raw-3.dlis
 NPHI       .dec                       : Neutron     Loaded from DLIS: 7-mp-53d-ba_raw-3.dlis
 Lith_new   .                          :             
~A  DEPTH   DEPTH      DRDN       GR       CAL       Res      N_Res      ILD       RHOB      NPHI    Lith_new 
# ...
1968.7000 1968.7000    4.8482  102.4286    8.7669 -999.0000 -999.0000    2.7848    2.6254    0.2202   57.0000 
1968.8000 1968.8000    4.9258  108.8573    8.7960 -999.0000 -999.0000    2.4903    2.6124    0.2303   57.0000 
1968.9000 1968.9000    4.6254  108.4256    8.7330 -999.0000 -999.0000    2.4688    2.6050    0.2258   57.0000 
1969.0000 1969.0000    4.3925  105.2780    8.7242 -999.0000 -999.0000    2.5485    2.5944    0.2251   57.0000 
1969.1000 1969.1000    3.8037   98.7628    8.7396 -999.0000 -999.0000    3.0529    2.5941    0.2077   57.0000 
1969.2000 1969.2000    3.6078   96.6749    8.7341 -999.0000 -999.0000    3.4448    2.6020    0.1970   57.0000 
1969.3000 1969.3000    3.5068   94.1944    8.7621 -999.0000 -999.0000    3.8620    2.6165    0.1853   57.0000 
1969.4000 1969.4000    3.4346   90.1833    8.7480 -999.0000 -999.0000    4.6062    2.6353    0.1719   57.0000 
1969.5000 1969.5000    3.5220   89.2649    8.7628 -999.0000 -999.0000    4.9573    2.6381    0.1728   57.0000 
1969.6000 1969.6000    3.2322   88.4564    8.7721 -999.0000 -999.0000    5.3355    2.6354    0.1657   57.0000 
1969.7000 1969.7000    2.8302   86.9964    8.7960 -999.0000 -999.0000    5.7109    2.6349    0.1540   57.0000 
1969.8000 1969.8000    2.1220   84.1862    8.8061 -999.0000 -999.0000    5.9603    2.6245    0.1390   57.0000 
1969.9000 1969.9000    2.0382   82.0355    8.8062 -999.0000 -999.0000    5.5739    2.6213    0.1384   57.0000 
1970.0000 1970.0000    1.9892   81.6038    8.7978 -999.0000 -999.0000    4.9186    2.6146    0.1409   57.0000 
1970.1000 1970.1000    2.2812   84.9634    8.7926 -999.0000 -999.0000    3.5709    2.6012    0.1577   57.0000 
1970.2000 1970.2000    2.2139   87.9619    8.7955 -999.0000 -999.0000    3.1090    2.5858    0.1649   57.0000 
1970.3000 1970.3000    2.3398   91.2587    8.7938 -999.0000 -999.0000    2.8282    2.5662    0.1805   57.0000 
1970.4000 1970.4000    3.1926   96.3844    8.7573 -999.0000 -999.0000    2.8024    2.5324    0.2263   57.0000 
1970.5000 1970.5000    2.9260   98.8727    8.7657 -999.0000 -999.0000    3.0669    2.5341    0.2173   57.0000 
1970.6000 1970.6000    2.4693  101.8634    8.7579 -999.0000 -999.0000    3.5475    2.5466    0.1961   57.0000 
1970.7000 1970.7000    2.7735  102.6170    8.7466 -999.0000 -999.0000    5.2980    2.5951    0.1761   57.0000 
1970.8000 1970.8000    2.7878   97.8444    8.7508 -999.0000 -999.0000    6.5328    2.6175    0.1631   57.0000 
1970.9000 1970.9000    2.4911   89.5475    8.7517 -999.0000 -999.0000    7.8313    2.6330    0.1449   57.0000 
1971.0000 1971.0000    1.6657   76.2818    8.7020 -999.0000 -999.0000    9.9667    2.6428    0.1143   57.0000 
1971.1000 1971.1000    1.3598   73.0007    8.7011 -999.0000 -999.0000   10.6177    2.6406    0.1064   57.0000 
1971.2000 1971.2000    1.3124   72.2942    8.7288 -999.0000 -999.0000   10.8882    2.6440    0.1030   57.0000 
1971.3000 1971.3000    1.2315   71.7055    8.7262 -999.0000 -999.0000   10.7317    2.6446    0.1002   57.0000 
1971.4000 1971.4000    1.3310   70.7243    8.7233 -999.0000 -999.0000    9.5737    2.6411    0.1053   57.0000 
1971.5000 1971.5000    1.1168   70.5516    8.7284 -999.0000 -999.0000    8.9915    2.6286    0.1063   57.0000 
1971.6000 1971.6000    0.8925   72.2393    8.7382 -999.0000 -999.0000    8.5749    2.6175    0.1063   57.0000 
1971.7000 1971.7000    1.1188   78.6680    8.7443 -999.0000 -999.0000    8.1173    2.6058    0.1201   57.0000 
1971.8000 1971.8000    1.3794   81.2584    8.7424 -999.0000 -999.0000    7.9641    2.6028    0.1297   57.0000 
1971.9000 1971.9000    1.4005   81.8863    8.7423 -999.0000 -999.0000    7.8406    2.5999    0.1321   57.0000 
1972.0000 1972.0000    0.8815   79.7984    8.7491 -999.0000 -999.0000    7.7745    2.5874    0.1240   57.0000 
1972.1000 1972.1000    0.8784   78.5581    8.7578 -999.0000 -999.0000    7.8295    2.5880    0.1236   57.0000 
1972.2000 1972.2000    0.8003   76.5251    8.7645 -999.0000 -999.0000    7.8821    2.5875    0.1215   57.0000 
1972.3000 1972.3000    0.9354   75.6617    8.7692 -999.0000 -999.0000    7.7594    2.5915    0.1232   57.0000 
1972.4000 1972.4000    1.0771   76.6742    8.7492 -999.0000 -999.0000    7.5473    2.5895    0.1286   57.0000 
1972.5000 1972.5000    1.0835   79.2410    8.7431 -999.0000 -999.0000    7.2519    2.5916    0.1275   57.0000 
1972.6000 1972.6000    1.1118   79.9632    8.7607 -999.0000 -999.0000    6.4925    2.5929    0.1276   57.0000 
1972.7000 1972.7000    1.2150   78.4404    8.7639 -999.0000 -999.0000    6.0635    2.5946    0.1297   57.0000 
1972.8000 1972.8000    1.2387   77.4121    8.7821 -999.0000 -999.0000    5.6323    2.5909    0.1326   57.0000 
1972.9000 1972.9000    1.4214   77.8988    8.7859 -999.0000 -999.0000    5.2357    2.5912    0.1379   57.0000 
1973.0000 1973.0000    2.0037   81.5724    8.7675 -999.0000 -999.0000    4.6554    2.5980    0.1513   57.0000 
1973.1000 1973.1000    2.1142   83.4719    8.7637 -999.0000 -999.0000    4.4623    2.6031    0.1516   57.0000 
1973.2000 1973.2000    2.3894   85.3244    8.7539 -999.0000 -999.0000    4.2966    2.6045    0.1590   57.0000 
1973.3000 1973.3000    2.5802   87.8991    8.7722 -999.0000 -999.0000    3.9760    2.5925    0.1719   57.0000 
1973.4000 1973.4000    2.1547   90.2539    8.7541 -999.0000 -999.0000    3.8477    2.5877    0.1620   57.0000 
1973.5000 1973.5000    2.1017   94.4377    8.7618 -999.0000 -999.0000    3.7869    2.5798    0.1652   57.0000 
1973.6000 1973.6000    2.2480   99.7676    8.7351 -999.0000 -999.0000    3.8799    2.5787    0.1702   57.0000 
1973.7000 1973.7000    2.1789   98.1035    8.7517 -999.0000 -999.0000    3.9753    2.5761    0.1697   57.0000 
1973.8000 1973.8000    2.4882   92.5303    8.7498 -999.0000 -999.0000    4.0763    2.5770    0.1784   57.0000 
1973.9000 1973.9000    2.2536   83.4484    8.7324 -999.0000 -999.0000    4.2315    2.5806    0.1692   57.0000 
1974.0000 1974.0000    2.1812   83.0559    8.7545 -999.0000 -999.0000    4.2141    2.5883    0.1625   57.0000 
1974.1000 1974.1000    2.3297   84.2020    8.7572 -999.0000 -999.0000    4.0852    2.5987    0.1607   57.0000 
1974.2000 1974.2000    2.5487   86.7766    8.7679 -999.0000 -999.0000    3.5861    2.5953    0.1693   57.0000 
1974.3000 1974.3000    2.6471   87.0278    8.7473 -999.0000 -999.0000    3.3363    2.5813    0.1806   57.0000 
1974.4000 1974.4000    2.7833   87.3182    8.7459 -999.0000 -999.0000    3.1423    2.5607    0.1971   57.0000 
1974.5000 1974.5000    2.9896   88.4250    8.7592 -999.0000 -999.0000    3.0085    2.5523    0.2083   57.0000 
1974.6000 1974.6000    3.2487   93.5743    8.7636 -999.0000 -999.0000    2.8665    2.5580    0.2127   57.0000 
1974.7000 1974.7000    3.9054   94.9166    8.7741 -999.0000 -999.0000    2.8380    2.5640    0.2288   57.0000 
1974.8000 1974.8000    3.7521   94.6575    8.7774 -999.0000 -999.0000    2.8353    2.5573    0.2282   57.0000 
1974.9000 1974.9000    3.3752   91.3607    8.7744 -999.0000 -999.0000    2.8782    2.5447    0.2244   57.0000 
1975.0000 1975.0000    3.3338   89.8693    8.7724 -999.0000 -999.0000    2.8911    2.5432    0.2241   57.0000 
1975.1000 1975.1000    3.5895   89.3277    8.7725 -999.0000 -999.0000    2.8806    2.5501    0.2276   57.0000 
1975.2000 1975.2000    3.6401   93.8726    8.7680 -999.0000 -999.0000    2.7903    2.5471    0.2309   57.0000 
1975.3000 1975.3000    3.3170   96.7063    8.7644 -999.0000 -999.0000    2.7292    2.5427    0.2239   57.0000 
1975.4000 1975.4000    3.3472   97.5462    8.7627 -999.0000 -999.0000    2.6790    2.5384    0.2274   57.0000 
1975.5000 1975.5000    3.7904   94.7988    8.7568 -999.0000 -999.0000    2.6290    2.5414    0.2389   57.0000 
1975.6000 1975.6000    3.5225   92.9620    8.7629 -999.0000 -999.0000    2.6053    2.5449    0.2287   57.0000 
1975.7000 1975.7000    3.4667   92.6873    8.7458 -999.0000 -999.0000    2.5625    2.5464    0.2262   57.0000 
1975.8000 1975.8000    3.7771   95.2619    8.7592 -999.0000 -999.0000    2.4081    2.5496    0.2336   57.0000 
1975.9000 1975.9000    4.0628   97.3578    8.7757 -999.0000 -999.0000    2.3091    2.5513    0.2411   57.0000 
