~VERSION INFORMATION
 VERS.                 2.0:   CWLS LOG ASCII STANDARD - VERSION 2.0
 WRAP.                  NO:   SINGLE LINE PER DEPTH STEP
 CREA.                 30/01/2020 17:28:45
#CREATED USING IP VERSION 4.5.2019.2902 BY RMOTA ON 30/01/2020 17:28:45
~WELL INFORMATION
#MNEM.UNIT       DATA                          DESCRIPTION MNEMONIC
#---------      ---------------------------   --------------------------
 STRT    .M         5.0000                    : START DEPTH
 STOP    .M         2977.0000                 : STOP DEPTH
 STEP    .M         0.1000                    : STEP VALUE
 NULL    .      -999.0000                     : NULL VALUE
 DATE    .      30/01/2020                    : LAS file Creation Date
 WELL   .      7-MP-53D-BA      : Well Name
 COMP   .      PETROBRAS        : Company
 FLD    .      MASSAPE          : Field
 STATE  .      BAHIA            : State
 API    .      20240027945      : API Number
 UWI    .                       : Unique Well Identifier (UWI)
 LOC    .                       : Location
 TOWN   .      -999.25          : Township
 SCT    .      -999.25          : Section
 RANG   .      -999.25          : Range
 PDAT   .      NM               : Permanent Datum
 EPDAT  .      0.00             : Elevation of Permanent Datum
 LGMEA  .      MR               : Log Measured from
 DRMEA  .      MR               : Drill Measured From
 APDAT  .      64.90            : Elevation Above Permanent Datum
 KB     .      -999.25          : KB Elevation
 DF     .      64.90            : DF Elevation
 GL     .      56.80            : GL Elevation
 RWS    .      -999             : Def_Rw
 WST    .      -999             : Def_Rwt
 PROV   .                       : Province
 SRVC   .                       : Contractor
 GDAT   .      WGS 84           : Geodatum
 LONG   .      -38.4325436115265: Longitude
 LATI   .      0                : Latitude
 COORDIN.                       : Grid System
 XCOORD .                       : X or East-West Coordinate
 YCOORD .                       : Y or North-South Coordinate
~CURVE INFORMATION
#MNEM              UNIT       API CODE   Curve Type Comments
#----------  --------------- ----------  ---------- -----------
 DEPTH      .M                         : Depth       
 DEPTH      .M                         : Depth       
 DRDN       .                          :             
 GR         .api                       : GammaRay    
 CAL        .in                        : Caliper     
 Res        .                          :             
 N_Res      .                          :             
 ILD        .ohmm                      : DeepRes     
 RHOB       .g/cc                      : Density     Loaded from DLIS: 7-mp-53d-ba_raw-3.dlis
 NPHI       .dec                       : Neutron     Loaded from DLIS: 7-mp-53d-ba_raw-3.dlis
 Lith_new   .                          :             
~A  DEPTH   DEPTH      DRDN       GR       CAL       Res      N_Res      ILD       RHOB      NPHI    Lith_new 
# ...
2392.1000 2392.1000    5.7481   97.1694    8.8089    0.0000    1.0000    1.8431    2.6069    0.2583   57.0000 
2392.2000 2392.2000    5.7677  102.5385    8.8285    0.0000    1.0000    1.8627    2.5778    0.2764   57.0000 
2392.3000 2392.3000    5.5102  105.7332    8.8460    0.0000    1.0000    1.8891    2.5646    0.2765   57.0000 
2392.4000 2392.4000    4.9813  109.7443    8.8554    0.0000    1.0000    1.8954    2.5486    0.2703   57.0000 
2392.5000 2392.5000    5.2636  109.1635    8.8620    0.0000    1.0000    1.8752    2.5546    0.2751   57.0000 
2392.6000 2392.6000    5.2507  108.9751    8.8763    0.0000    1.0000    1.8483    2.5604    0.2713   57.0000 
2392.7000 2392.7000    5.4140  108.8024    8.9473    0.0000    1.0000    1.8042    2.5717    0.2694   57.0000 
2392.8000 2392.8000    4.9483  107.6642    8.9218    0.0000    1.0000    1.8102    2.5682    0.2575   57.0000 
2392.9000 2392.9000    4.5573  106.6595    8.9419    0.0000    1.0000    1.8548    2.5596    0.2510   57.0000 
2393.0000 2393.0000    5.0803  103.0801    9.0415    0.0000    1.0000    2.1054    2.5526    0.2708   57.0000 
2393.1000 2393.1000    5.2509  102.8838    9.0414    0.0000    1.0000    2.3216    2.5533    0.2755   57.0000 
2393.2000 2393.2000    4.8457  101.1020    9.0737    0.0000    1.0000    2.5931    2.5553    0.2622   57.0000 
2393.3000 2393.3000    4.3646   99.1632    9.1600    0.0000    1.0000    3.1817    2.5579    0.2462   57.0000 
2393.4000 2393.4000    4.1326   96.6356    9.1687    0.0000    1.0000    3.4184    2.5601    0.2379   57.0000 
2393.5000 2393.5000    3.9088   94.6732    9.1961    0.0000    1.0000    3.5597    2.5664    0.2274   57.0000 
2393.6000 2393.6000    3.6443   92.8129    9.2353    0.0000    1.0000    3.5631    2.5716    0.2164   57.0000 
2393.7000 2393.7000    3.5752   90.3324    9.1793    0.0000    1.0000    3.1994    2.5889    0.2039   57.0000 
2393.8000 2393.8000    3.6343   90.3167    9.0659    0.0000    1.0000    2.9361    2.5956    0.2017   57.0000 
2393.9000 2393.9000    3.7863   91.3058    9.0462    0.0000    1.0000    2.6829    2.6001    0.2035   57.0000 
2394.0000 2394.0000    4.2581   96.1725    9.0241    0.0000    1.0000    2.3316    2.5868    0.2257   57.0000 
2394.1000 2394.1000    4.6555   99.0062    9.0207    0.0000    1.0000    2.2600    2.5797    0.2418   57.0000 
2394.2000 2394.2000    4.6618   99.9089    9.0004    0.0000    1.0000    2.2426    2.5740    0.2455   57.0000 
2394.3000 2394.3000    6.3743   99.8539    9.0073    0.0000    1.0000    2.2557    2.5770    0.2950   57.0000 
2394.4000 2394.4000    6.4279   98.6215    9.0217    0.0000    1.0000    2.2579    2.5768    0.2968   57.0000 
2394.5000 2394.5000    5.8131   97.7659    9.0456    0.0000    1.0000    2.2662    2.5807    0.2760   57.0000 
2394.6000 2394.6000    5.0644   96.2039    9.0303    0.0000    1.0000    2.3100    2.5789    0.2546   57.0000 
2394.7000 2394.7000    5.1274   96.6278    9.0920    0.0000    1.0000    2.3171    2.5783    0.2568   57.0000 
2394.8000 2394.8000    5.0573   98.5431    9.0395    0.0000    1.0000    2.2962    2.5724    0.2583   57.0000 
2394.9000 2394.9000    4.9395  102.8603    8.8986    0.0000    1.0000    2.1997    2.5701    0.2561   57.0000 
2395.0000 2395.0000    5.0848  104.0691    8.9205    0.0000    1.0000    2.1582    2.5752    0.2574   57.0000 
2395.1000 2395.1000    5.3050  105.4820    8.9319    0.0000    1.0000    2.1497    2.5867    0.2571   57.0000 
2395.2000 2395.2000    5.7528  106.6281    8.9367    0.0000    1.0000    2.1969    2.5963    0.2648   57.0000 
2395.3000 2395.3000    5.8773  114.5404    8.9258    0.0000    1.0000    2.5366    2.5990    0.2669   57.0000 
2395.4000 2395.4000    5.5296  116.7618    8.9194    0.0000    1.0000    2.8629    2.5878    0.2632   57.0000 
2395.5000 2395.5000    4.9579  114.6032    8.9161    0.0000    1.0000    3.3178    2.5752    0.2536   57.0000 
2395.6000 2395.6000    4.6608  100.8979    8.9316    0.0000    1.0000    4.4651    2.5843    0.2392   57.0000 
2395.7000 2395.7000    4.5646   94.0531    8.8828    0.0000    1.0000    4.7972    2.6060    0.2233   57.0000 
2395.8000 2395.8000    4.4842   89.1707    8.8554    0.0000    1.0000    4.6858    2.6359    0.2030   57.0000 
2395.9000 2395.9000    4.0588   82.1061    8.8838    0.0000    1.0000    3.6248    2.6681    0.1709   57.0000 
2396.0000 2396.0000    3.9413   79.6571    8.9227    0.0000    1.0000    3.1184    2.6677    0.1676   57.0000 
2396.1000 2396.1000    3.5644   80.7089    8.9547    0.0000    1.0000    2.7534    2.6491    0.1675   57.0000 
2396.2000 2396.2000    3.2413   91.1409    8.9729    0.0000    1.0000    2.4024    2.6023    0.1859   57.0000 
2396.3000 2396.3000    3.3571   97.8601    8.9904    0.0000    1.0000    2.3512    2.5757    0.2053   57.0000 
2396.4000 2396.4000    3.6972  102.9074    9.0058    0.0000    1.0000    2.3292    2.5596    0.2252   57.0000 
2396.5000 2396.5000    4.9486  103.8729    9.0586    0.0000    1.0000    2.2211    2.5407    0.2740   57.0000 
2396.6000 2396.6000    4.8290  101.1334    9.0675    0.0000    1.0000    2.1131    2.5407    0.2705   57.0000 
2396.7000 2396.7000    4.3788   98.0328    9.0758    0.0000    1.0000    1.9973    2.5447    0.2545   57.0000 
2396.8000 2396.8000    4.1093   95.7172    9.0628    0.0000    1.0000    1.8993    2.5498    0.2434   57.0000 
2396.9000 2396.9000    4.5578   96.8946    9.1285    0.0000    1.0000    1.7942    2.5556    0.2534   57.0000 
2397.0000 2397.0000    4.3333   97.0909    9.1172    0.0000    1.0000    1.7834    2.5513    0.2492   57.0000 
2397.1000 2397.1000    4.4119   96.9731    9.0860    0.0000    1.0000    1.7883    2.5452    0.2552   57.0000 
2397.2000 2397.2000    4.6125   95.5916    9.0291    0.0000    1.0000    1.7972    2.5447    0.2616   57.0000 
2397.3000 2397.3000    4.6438   95.3169    9.0312    0.0000    1.0000    1.7924    2.5463    0.2615   57.0000 
2397.4000 2397.4000    4.7405   94.4770    9.0228    0.0000    1.0000    1.7845    2.5505    0.2619   57.0000 
2397.5000 2397.5000    4.9643   96.0940    9.0448    0.0000    1.0000    1.7440    2.5532    0.2670   57.0000 
2397.6000 2397.6000    5.1513   97.5148    9.0597    0.0000    1.0000    1.7024    2.5592    0.2690   57.0000 
2397.7000 2397.7000    5.3338   98.9591    9.0705    0.0000    1.0000    1.6516    2.5620    0.2728   57.0000 
2397.8000 2397.8000    6.4018   98.6137    9.0945    0.0000    1.0000    1.5589    2.5579    0.3073   57.0000 
2397.9000 2397.9000    5.8475  100.8430    9.1005    0.0000    1.0000    1.5281    2.5478    0.2967   57.0000 
2398.0000 2398.0000    5.5033  104.3439    9.0994    0.0000    1.0000    1.5085    2.5383    0.2921   57.0000 
2398.1000 2398.1000    5.2492  112.2169    9.1040    0.0000    1.0000    1.4973    2.5336    0.2873   57.0000 
2398.2000 2398.2000    5.3147  113.2374    9.1133    0.0000    1.0000    1.4965    2.5380    0.2866   57.0000 
2398.3000 2398.3000    5.4014  113.1903    9.1122    0.0000    1.0000    1.4921    2.5442    0.2855   57.0000 
2398.4000 2398.4000    5.3336  113.1667    9.1080    0.0000    1.0000    1.4829    2.5487    0.2808   57.0000 
2398.5000 2398.5000    4.9783  110.0976    9.0735    0.0000    1.0000    1.4591    2.5470    0.2711   57.0000 
2398.6000 2398.6000    4.7073  109.1085    9.0304    0.0000    1.0000    1.4509    2.5457    0.2638   57.0000 
2398.7000 2398.7000    4.5632  107.9311    9.0329    0.0000    1.0000    1.4472    2.5447    0.2601   57.0000 
2398.8000 2398.8000    5.5119  106.9970    8.9944    0.0000    1.0000    1.4453    2.5520    0.2842   57.0000 
2398.9000 2398.9000    5.7089  103.7708    8.9893    0.0000    1.0000    1.4468    2.5579    0.2865   57.0000 
2399.0000 2399.0000    6.1473  100.4112    9.0056    0.0000    1.0000    1.4508    2.5642    0.2959   57.0000 
2399.1000 2399.1000    6.2446   98.3390    9.0136    0.0000    1.0000    1.4588    2.5710    0.2947   57.0000 
2399.2000 2399.2000    5.9852  100.7880    9.0377    0.0000    1.0000    1.4597    2.5730    0.2858   57.0000 
2399.3000 2399.3000    6.0568  104.3988    9.0437    0.0000    1.0000    1.4545    2.5740    0.2873   57.0000 
