~VERSION INFORMATION
 VERS.                 2.0:   CWLS LOG ASCII STANDARD - VERSION 2.0
 WRAP.                  NO:   SINGLE LINE PER DEPTH STEP
 CREA.                 28/08/2020 11:52:07
#CREATED USING IP VERSION 4.5.2019.2902 BY CANDIDO ON 28/08/2020 11:52:07
~WELL INFORMATION
#MNEM.UNIT       DATA                          DESCRIPTION MNEMONIC
#---------      ---------------------------   --------------------------
 STRT    .M         639.0000                  : START DEPTH
 STOP    .M         3007.1000                 : STOP DEPTH
 STEP    .M         0.1000                    : STEP VALUE
 NULL    .      -999.0000                     : NULL VALUE
 DATE    .      28/08/2020                    : LAS file Creation Date
 WELL   .      7-MP-55D-BA     : Well Name
 COMP   .      PETROBRAS       : Company
 FLD    .      MASSAPE         : Field
 STATE  .      BAHIA           : State
 COUNT  .      -999.25         : Country
 API    .      20240028408     : API Number
 UWI    .                      : Unique Well Identifier (UWI)
 LOC    .      -999.25         : Location
 TOWN   .      -999.25         : Township
 SCT    .      -999.25         : Section
 RANG   .      -999.25         : Range
 PDAT   .      NM              : Permanent Datum
 EPDAT  .      0.00            : Elevation of Permanent Datum
 LGMEA  .      MR              : Log Measured from
 DRMEA  .      MR              : Drill Measured From
 APDAT  .      65.67           : Elevation Above Permanent Datum
 KB     .      65.97           : KB Elevation
 DF     .      65.67           : DF Elevation
 GL     .      56.27           : GL Elevation
 RWS    .      -999            : Def_Rw
 WST    .      -999            : Def_Rwt
 PROV   .                      : Province
 SRVC   .                      : Contractor
 GDAT   .      WGS 84          : Geodatum
 LONG   .      -38.435231944455: Longitude
 LATI   .      0               : Latitude
 COORDIN.                      : Grid System
 XCOORD .                      : X or East-West Coordinate
 YCOORD .                      : Y or North-South Coordinate
~CURVE INFORMATION
#MNEM                UNIT       API CODE   Curve Type Comments
#----------    --------------- ----------  ---------- -----------
 DEPTH        .M                         : Depth       
 TVD          .M                         : Depth       
 TVDSS        .M                         : Depth       
 GR           .api                       : GammaRay    
 CAL          .in                        : Caliper     
 BS           .in                        : BitSize     
 Lith_new     .                          :             
 RT           .ohmm                      : DeepRes     
 NPHI         .decp                      : Neutron     
 RHOB         .g/cc                      : Density     
 Res          .                          :             
 N_Res        .                          :             
 VCLGR        .Dec                       : Vcl         
 Phi_Gaymard  .                          :             
 Phie_Gaymard .                          :             
 SwArch       .Dec                       :             
 SwSim        .Dec                       :             
~A  DEPTH    TVD      TVDSS       GR       CAL        BS     Lith_new     RT       NPHI      RHOB      Res      N_Res     VCLGR   Phi_Gaym~ Phie_Gay~   SwArch    SwSim   
# ...
2063.1000 2053.0192 -1987.3492   85.1958    8.5958    8.5000   57.0000    4.1042    0.1346    2.6156    0.0000    1.0000    0.4791    0.0965    0.0503    1.3000    1.0743 
2063.2000 2053.1178 -1987.4478   87.9209    8.6110    8.5000   57.0000    3.7183    0.1497    2.6128    0.0000    1.0000    0.5210    0.1073    0.0514    1.3000    1.0522 
2063.3000 2053.2164 -1987.5464   90.2032    8.6343    8.5000   57.0000    3.3841    0.1615    2.6022    0.0000    1.0000    0.5578    0.1164    0.0515    1.3000    1.0003 
2063.4000 2053.3151 -1987.6451   94.8978    8.6403    8.5000   57.0000    2.8743    0.1746    2.5946    0.0000    1.0000    0.6386    0.1262    0.0456    1.3000    1.0736 
2063.5000 2053.4137 -1987.7437   98.0809    8.6449    8.5000   57.0000    2.6796    0.1913    2.5981    0.0000    1.0000    0.6975    0.1374    0.0416    1.3000    1.1039 
2063.6000 2053.5123 -1987.8423  102.3555    8.6553    8.5000   57.0000    2.5238    0.2069    2.6013    0.0000    1.0000    0.7823    0.1481    0.0322    1.3000    1.3000 
2063.7000 2053.6109 -1987.9409  109.0805    8.6626    8.5000   57.0000    2.3272    0.2182    2.5947    0.0000    1.0000    0.9300    0.1564    0.0110    1.3000    1.3000 
2063.8000 2053.7096 -1988.0396  111.8820    8.6554    8.5000   57.0000    2.2791    0.2354    2.5849    0.0000    1.0000    0.9971    0.1692    0.0005    1.3000    1.3000 
2063.9000 2053.8082 -1988.1382  113.3094    8.6539    8.5000   57.0000    2.2562    0.2298    2.5780    0.0000    1.0000    1.0175    0.1660    0.0000    1.3000    1.3000 
2064.0000 2053.9068 -1988.2368  112.8972    8.6513    8.5000   57.0000    2.2569    0.2221    2.5608    0.0000    1.0000    1.0120    0.1625    0.0000    1.3000    1.3000 
2064.1000 2054.0054 -1988.3354  109.9889    8.6469    8.5000   57.0000    2.2737    0.2198    2.5554    0.0000    1.0000    0.9513    0.1616    0.0079    1.3000    1.3000 
2064.2000 2054.1041 -1988.4341  105.1035    8.6524    8.5000   57.0000    2.3065    0.2140    2.5501    0.0000    1.0000    0.8404    0.1584    0.0253    1.3000    1.3000 
2064.3000 2054.2027 -1988.5327   96.3557    8.6549    8.5000   57.0000    2.4387    0.2216    2.5546    0.0000    1.0000    0.6652    0.1629    0.0546    0.9104    0.7401 
2064.4000 2054.3013 -1988.6313   93.5696    8.6385    8.5000   57.0000    2.5298    0.2184    2.5602    0.0000    1.0000    0.6151    0.1601    0.0616    0.8797    0.7259 
2064.5000 2054.4000 -1988.7300   93.4322    8.6569    8.5000   57.0000    2.6180    0.2071    2.5667    0.0000    1.0000    0.6127    0.1515    0.0587    0.9528    0.7691 
2064.6000 2054.4986 -1988.8286   93.2948    8.6707    8.5000   57.0000    2.6866    0.2038    2.5715    0.0000    1.0000    0.6103    0.1487    0.0580    0.9885    0.7878 
2064.7000 2054.5972 -1988.9272   96.9664    8.6708    8.5000   57.0000    2.7595    0.2017    2.5799    0.0000    1.0000    0.6765    0.1464    0.0473    1.1968    0.8773 
2064.8000 2054.6958 -1989.0258   99.4167    8.6892    8.5000   57.0000    2.8071    0.2009    2.5830    0.0000    1.0000    0.7233    0.1455    0.0403    1.3000    0.9262 
2064.9000 2054.7945 -1989.1245  101.1113    8.6718    8.5000   57.0000    2.9000    0.1997    2.5850    0.0000    1.0000    0.7569    0.1445    0.0351    1.3000    0.9592 
2065.0000 2054.8931 -1989.2231   97.6610    8.6778    8.5000   57.0000    3.2551    0.1941    2.5853    0.0000    1.0000    0.6896    0.1406    0.0436    1.2704    0.8579 
2065.1000 2054.9917 -1989.3217   92.7604    8.6668    8.5000   57.0000    3.4879    0.1740    2.5861    0.0000    1.0000    0.6010    0.1266    0.0505    1.2067    0.8503 
2065.2000 2055.0904 -1989.4204   87.9972    8.6664    8.5000   57.0000    3.7127    0.1710    2.5924    0.0000    1.0000    0.5222    0.1239    0.0592    1.0402    0.7853 
2065.3000 2055.1890 -1989.5190   82.3867    8.6704    8.5000   57.0000    3.9622    0.1583    2.6073    0.0000    1.0000    0.4380    0.1137    0.0639    1.0196    0.7962 
2065.4000 2055.2876 -1989.6176   82.6615    8.7174    8.5000   57.0000    3.9425    0.1554    2.6155    0.0000    1.0000    0.4419    0.1111    0.0620    1.1367    0.8624 
2065.5000 2055.3862 -1989.7162   84.5240    8.6948    8.5000   57.0000    3.8235    0.1477    2.6158    0.0000    1.0000    0.4690    0.1057    0.0561    1.3000    0.9789 
2065.6000 2055.4849 -1989.8149   86.4171    8.6774    8.5000   57.0000    3.3898    0.1430    2.6150    0.0000    1.0000    0.4976    0.1024    0.0515    1.3000    1.1641 
2065.7000 2055.5835 -1989.9135   86.1499    8.6623    8.5000   57.0000    3.1650    0.1477    2.6103    0.0000    1.0000    0.4935    0.1061    0.0537    1.3000    1.1159 
2065.8000 2055.6821 -1990.0121   87.0583    8.6901    8.5000   57.0000    2.9701    0.1749    2.6039    0.0000    1.0000    0.5075    0.1255    0.0618    1.1944    0.9287 
2065.9000 2055.7808 -1990.1108   92.8673    8.7040    8.5000   57.0000    2.7152    0.1878    2.5838    0.0000    1.0000    0.6028    0.1364    0.0542    1.1902    0.9069 
2066.0000 2055.8794 -1990.2094   94.0276    8.7194    8.5000   57.0000    2.6629    0.1942    2.5743    0.0000    1.0000    0.6231    0.1418    0.0534    1.1031    0.8542 
2066.1000 2055.9780 -1990.3080   93.9512    8.7179    8.5000   57.0000    2.6452    0.1888    2.5734    0.0000    1.0000    0.6218    0.1382    0.0523    1.1395    0.8771 
2066.2000 2056.0767 -1990.4067   92.7604    8.6847    8.5000   57.0000    2.6362    0.1882    2.5760    0.0000    1.0000    0.6010    0.1375    0.0549    1.1234    0.8760 
2066.3000 2056.1753 -1990.5053   94.9665    8.7042    8.5000   57.0000    2.5724    0.1913    2.5860    0.0000    1.0000    0.6399    0.1385    0.0499    1.3000    0.9741 
2066.4000 2056.2739 -1990.6039   97.2030    8.7110    8.5000   57.0000    2.5270    0.2037    2.5855    0.0000    1.0000    0.6809    0.1472    0.0470    1.3000    0.9594 
2066.5000 2056.3726 -1990.7026   99.3862    8.7197    8.5000   57.0000    2.5026    0.2094    2.5859    0.0000    1.0000    0.7227    0.1511    0.0419    1.3000    0.9786 
2066.6000 2056.4712 -1990.8012  100.6609    8.7434    8.5000   57.0000    2.5814    0.2074    2.5932    0.0000    1.0000    0.7479    0.1490    0.0376    1.3000    1.0436 
2066.7000 2056.5698 -1990.8998   98.7068    8.7261    8.5000   57.0000    2.6849    0.2033    2.6035    0.0000    1.0000    0.7095    0.1454    0.0422    1.3000    1.0847 
2066.8000 2056.6684 -1990.9985   96.7374    8.7104    8.5000   57.0000    2.8096    0.1963    2.6084    0.0000    1.0000    0.6723    0.1402    0.0459    1.3000    1.0894 
2066.9000 2056.7671 -1991.0971   91.2337    8.7065    8.5000   57.0000    2.9811    0.1954    2.6069    0.0000    1.0000    0.5750    0.1396    0.0593    1.2130    0.9080 
2067.0000 2056.8657 -1991.1957   91.5162    8.6873    8.5000   57.0000    2.9725    0.1959    2.5987    0.0000    1.0000    0.5797    0.1406    0.0591    1.1599    0.8778 
2067.1000 2056.9643 -1991.2943   93.0429    8.7012    8.5000   57.0000    2.8985    0.1942    2.5946    0.0000    1.0000    0.6059    0.1397    0.0551    1.2175    0.9041 
2067.2000 2057.0630 -1991.3930   97.9893    8.7064    8.5000   57.0000    2.6389    0.1919    2.5816    0.0000    1.0000    0.6958    0.1394    0.0424    1.3000    0.9824 
2067.3000 2057.1616 -1991.4916   99.7068    8.7238    8.5000   57.0000    2.5022    0.2026    2.5773    0.0000    1.0000    0.7290    0.1472    0.0399    1.3000    0.9571 
2067.4000 2057.2602 -1991.5902  100.2793    8.7652    8.5000   57.0000    2.3872    0.2351    2.5723    0.0000    1.0000    0.7403    0.1702    0.0442    1.2783    0.9339 
2067.5000 2057.3589 -1991.6889   99.3938    8.7975    8.5000   57.0000    2.2590    0.2401    2.5683    0.0000    1.0000    0.7229    0.1740    0.0482    1.0506    0.8265 
2067.6000 2057.4575 -1991.7875   97.4702    8.8038    8.5000   57.0000    2.2423    0.2468    2.5698    0.0000    1.0000    0.6860    0.1785    0.0561    0.9654    0.7839 
2067.7000 2057.5561 -1991.8861   96.3252    8.8279    8.5000   57.0000    2.2481    0.2370    2.5727    0.0000    1.0000    0.6646    0.1714    0.0575    1.0041    0.8136 
