~VERSION INFORMATION
 VERS.                 2.0:   CWLS LOG ASCII STANDARD - VERSION 2.0
 WRAP.                  NO:   SINGLE LINE PER DEPTH STEP
 CREA.                 28/08/2020 11:52:07
#CREATED USING IP VERSION 4.5.2019.2902 BY CANDIDO ON 28/08/2020 11:52:07
~WELL INFORMATION
#MNEM.UNIT       DATA                          DESCRIPTION MNEMONIC
#---------      ---------------------------   --------------------------
 STRT    .M         639.0000                  : START DEPTH
 STOP    .M         3007.1000                 : STOP DEPTH
 STEP    .M         0.1000                    : STEP VALUE
 NULL    .      -999.0000                     : NULL VALUE
 DATE    .      28/08/2020                    : LAS file Creation Date
 WELL   .      7-MP-55D-BA     : Well Name
 COMP   .      PETROBRAS       : Company
 FLD    .      MASSAPE         : Field
 STATE  .      BAHIA           : State
 COUNT  .      -999.25         : Country
 API    .      20240028408     : API Number
 UWI    .                      : Unique Well Identifier (UWI)
 LOC    .      -999.25         : Location
 TOWN   .      -999.25         : Township
 SCT    .      -999.25         : Section
 RANG   .      -999.25         : Range
 PDAT   .      NM              : Permanent Datum
 EPDAT  .      0.00            : Elevation of Permanent Datum
 LGMEA  .      MR              : Log Measured from
 DRMEA  .      MR              : Drill Measured From
 APDAT  .      65.67           : Elevation Above Permanent Datum
 KB     .      65.97           : KB Elevation
 DF     .      65.67           : DF Elevation
 GL     .      56.27           : GL Elevation
 RWS    .      -999            : Def_Rw
 WST    .      -999            : Def_Rwt
 PROV   .                      : Province
 SRVC   .                      : Contractor
 GDAT   .      WGS 84          : Geodatum
 LONG   .      -38.435231944455: Longitude
 LATI   .      0               : Latitude
 COORDIN.                      : Grid System
 XCOORD .                      : X or East-West Coordinate
 YCOORD .                      : Y or North-South Coordinate
~CURVE INFORMATION
#MNEM                UNIT       API CODE   Curve Type Comments
#----------    --------------- ----------  ---------- -----------
 DEPTH        .M                         : Depth       
 TVD          .M                         : Depth       
 TVDSS        .M                         : Depth       
 GR           .api                       : GammaRay    
 CAL          .in                        : Caliper     
 BS           .in                        : BitSize     
 Lith_new     .                          :             
 RT           .ohmm                      : DeepRes     
 NPHI         .decp                      : Neutron     
 RHOB         .g/cc                      : Density     
 Res          .                          :             
 N_Res        .                          :             
 VCLGR        .Dec                       : Vcl         
 Phi_Gaymard  .                          :             
 Phie_Gaymard .                          :             
 SwArch       .Dec                       :             
 SwSim        .Dec                       :             
~A  DEPTH    TVD      TVDSS       GR       CAL        BS     Lith_new     RT       NPHI      RHOB      Res      N_Res     VCLGR   Phi_Gaym~ Phie_Gay~   SwArch    SwSim   
# ...
 751.8000  751.7704 -686.1004   96.0719   12.3869   12.2500   57.0000    8.3676    0.2536    2.5614 -999.0000 -999.0000    0.0000 -999.0000 -999.0000 -999.0000 -999.0000 
 751.9000  751.8704 -686.2004   97.5183   12.4093   12.2500   57.0000    8.1057    0.2598    2.5614 -999.0000 -999.0000    0.0000 -999.0000 -999.0000 -999.0000 -999.0000 
 752.0000  751.9704 -686.3004  101.7197   12.4368   12.2500   57.0000    7.7028    0.2602    2.5608 -999.0000 -999.0000    0.0000 -999.0000 -999.0000 -999.0000 -999.0000 
 752.1000  752.0704 -686.4004  102.6323   12.4265   12.2500   57.0000    7.5785    0.2492    2.5601 -999.0000 -999.0000    0.0000 -999.0000 -999.0000 -999.0000 -999.0000 
 752.2000  752.1704 -686.5004  103.7945   12.4214   12.2500   57.0000    7.5079    0.2446    2.5599 -999.0000 -999.0000    0.0000 -999.0000 -999.0000 -999.0000 -999.0000 
 752.3000  752.2704 -686.6004  103.6740   12.4137   12.2500   57.0000    7.5368    0.2338    2.5599 -999.0000 -999.0000    0.0000 -999.0000 -999.0000 -999.0000 -999.0000 
 752.4000  752.3704 -686.7004  102.4687   12.4054   12.2500   57.0000    7.6234    0.2326    2.5611 -999.0000 -999.0000    0.0000 -999.0000 -999.0000 -999.0000 -999.0000 
 752.5000  752.4704 -686.8004   97.9230   12.4105   12.2500   57.0000    7.7231    0.2349    2.5622 -999.0000 -999.0000    0.0000 -999.0000 -999.0000 -999.0000 -999.0000 
 752.6000  752.5704 -686.9004   91.7931   12.4080   12.2500   57.0000    7.8619    0.2434    2.5618 -999.0000 -999.0000    0.0000 -999.0000 -999.0000 -999.0000 -999.0000 
 752.7000  752.6704 -687.0004   90.6653   12.4080   12.2500   57.0000    7.8910    0.2485    2.5619 -999.0000 -999.0000    0.0000 -999.0000 -999.0000 -999.0000 -999.0000 
 752.8000  752.7704 -687.1004   93.8852   12.3933   12.2500   57.0000    7.9217    0.2567    2.5612 -999.0000 -999.0000    0.0000 -999.0000 -999.0000 -999.0000 -999.0000 
 752.9000  752.8703 -687.2003   94.4189   12.3939   12.2500   57.0000    8.1315    0.2586    2.5639 -999.0000 -999.0000    0.0000 -999.0000 -999.0000 -999.0000 -999.0000 
 753.0000  752.9703 -687.3003   92.3010   12.3965   12.2500   57.0000    8.3756    0.2552    2.5703 -999.0000 -999.0000    0.0000 -999.0000 -999.0000 -999.0000 -999.0000 
 753.1000  753.0703 -687.4003   87.1354   12.4067   12.2500   57.0000    8.7402    0.2447    2.5771 -999.0000 -999.0000    0.0000 -999.0000 -999.0000 -999.0000 -999.0000 
 753.2000  753.1703 -687.5003   81.3413   12.4221   12.2500   57.0000    9.7926    0.2180    2.5896 -999.0000 -999.0000    0.0000 -999.0000 -999.0000 -999.0000 -999.0000 
 753.3000  753.2703 -687.6003   80.3771   12.4137   12.2500   57.0000   10.3741    0.2104    2.5922 -999.0000 -999.0000    0.0000 -999.0000 -999.0000 -999.0000 -999.0000 
 753.4000  753.3703 -687.7003   81.2036   12.4265   12.2500   57.0000   10.8828    0.2063    2.5913 -999.0000 -999.0000    0.0000 -999.0000 -999.0000 -999.0000 -999.0000 
 753.5000  753.4703 -687.8003   82.4950   12.4208   12.2500   57.0000   11.2460    0.2067    2.5889 -999.0000 -999.0000    0.0000 -999.0000 -999.0000 -999.0000 -999.0000 
 753.6000  753.5703 -687.9003   88.8487   12.4310   12.2500   57.0000   11.4811    0.2128    2.5868 -999.0000 -999.0000    0.0000 -999.0000 -999.0000 -999.0000 -999.0000 
 753.7000  753.6703 -688.0003   90.7686   12.4310   12.2500   57.0000   11.4081    0.2088    2.5836 -999.0000 -999.0000    0.0000 -999.0000 -999.0000 -999.0000 -999.0000 
 753.8000  753.7703 -688.1003   90.4328   12.4105   12.2500   57.0000   11.2533    0.2096    2.5791 -999.0000 -999.0000    0.0000 -999.0000 -999.0000 -999.0000 -999.0000 
 753.9000  753.8703 -688.2003   87.0751   12.4105   12.2500   57.0000   10.7867    0.2151    2.5666 -999.0000 -999.0000    0.0000 -999.0000 -999.0000 -999.0000 -999.0000 
 754.0000  753.9703 -688.3003   85.6029   12.3984   12.2500   57.0000   10.4949    0.2227    2.5616 -999.0000 -999.0000    0.0000 -999.0000 -999.0000 -999.0000 -999.0000 
 754.1000  754.0703 -688.4003   87.3679   12.4041   12.2500   57.0000   10.1804    0.2249    2.5616 -999.0000 -999.0000    0.0000 -999.0000 -999.0000 -999.0000 -999.0000 
 754.2000  754.1703 -688.5003   94.3931   12.4240   12.2500   57.0000    9.5702    0.2323    2.5657 -999.0000 -999.0000    0.0000 -999.0000 -999.0000 -999.0000 -999.0000 
 754.3000  754.2703 -688.6003   99.4124   12.4035   12.2500   57.0000    9.3274    0.2433    2.5677 -999.0000 -999.0000    0.0000 -999.0000 -999.0000 -999.0000 -999.0000 
 754.4000  754.3703 -688.7003  100.0236   12.4112   12.2500   57.0000    9.1505    0.2495    2.5671 -999.0000 -999.0000    0.0000 -999.0000 -999.0000 -999.0000 -999.0000 
 754.5000  754.4703 -688.8003   95.4090   12.3933   12.2500   57.0000    8.9664    0.2422    2.5557 -999.0000 -999.0000    0.0000 -999.0000 -999.0000 -999.0000 -999.0000 
 754.6000  754.5703 -688.9003   90.7427   12.3939   12.2500   57.0000    8.8897    0.2387    2.5495 -999.0000 -999.0000    0.0000 -999.0000 -999.0000 -999.0000 -999.0000 
 754.7000  754.6703 -689.0003   90.2348   12.4118   12.2500   57.0000    8.7631    0.2318    2.5453 -999.0000 -999.0000    0.0000 -999.0000 -999.0000 -999.0000 -999.0000 
 754.8000  754.7703 -689.1003   89.5288   12.4144   12.2500   57.0000    8.3108    0.2472    2.5403 -999.0000 -999.0000    0.0000 -999.0000 -999.0000 -999.0000 -999.0000 
 754.9000  754.8702 -689.2002   90.5103   12.4067   12.2500   57.0000    8.0360    0.2579    2.5428 -999.0000 -999.0000    0.0000 -999.0000 -999.0000 -999.0000 -999.0000 
 755.0000  754.9702 -689.3002   90.6911   12.3888   12.2500   57.0000    7.7887    0.2666    2.5450 -999.0000 -999.0000    0.0000 -999.0000 -999.0000 -999.0000 -999.0000 
 755.1000  755.0702 -689.4002   92.5335   12.3651   12.2500   57.0000    7.6101    0.2834    2.5462 -999.0000 -999.0000    0.0000 -999.0000 -999.0000 -999.0000 -999.0000 
 755.2000  755.1702 -689.5002   93.7646   12.3798   12.2500   57.0000    7.5891    0.2721    2.5501 -999.0000 -999.0000    0.0000 -999.0000 -999.0000 -999.0000 -999.0000 
 755.3000  755.2702 -689.6002   91.2765   12.3907   12.2500   57.0000    7.8023    0.2698    2.5481 -999.0000 -999.0000    0.0000 -999.0000 -999.0000 -999.0000 -999.0000 
 755.4000  755.3702 -689.7002   86.5155   12.4240   12.2500   57.0000    8.1933    0.2680    2.5410 -999.0000 -999.0000    0.0000 -999.0000 -999.0000 -999.0000 -999.0000 
 755.5000  755.4702 -689.8002   73.2227   12.4528   12.2500   57.0000    9.5503    0.2337    2.5119 -999.0000 -999.0000    0.0000 -999.0000 -999.0000 -999.0000 -999.0000 
 755.6000  755.5702 -689.9002   66.1802   12.4656   12.2500   57.0000   10.4814    0.2204    2.4894 -999.0000 -999.0000    0.0000 -999.0000 -999.0000 -999.0000 -999.0000 
 755.7000  755.6702 -690.0002   59.1291   12.4809   12.2500   57.0000   11.4952    0.2111    2.4678 -999.0000 -999.0000    0.0000 -999.0000 -999.0000 -999.0000 -999.0000 
 755.8000  755.7702 -690.1002   55.3410   12.4547   12.2500   57.0000   13.1588    0.2039    2.4448 -999.0000 -999.0000    0.0000 -999.0000 -999.0000 -999.0000 -999.0000 
 755.9000  755.8702 -690.2002   56.9510   12.4470   12.2500   57.0000   13.4912    0.2061    2.4451 -999.0000 -999.0000    0.0000 -999.0000 -999.0000 -999.0000 -999.0000 
 756.0000  755.9702 -690.3002   59.4219   12.4419   12.2500   57.0000   13.4124    0.2102    2.4528 -999.0000 -999.0000    0.0000 -999.0000 -999.0000 -999.0000 -999.0000 
 756.1000  756.0702 -690.4002   59.4821   12.4073   12.2500   57.0000   12.3582    0.2198    2.4702 -999.0000 -999.0000    0.0000 -999.0000 -999.0000 -999.0000 -999.0000 
 756.2000  756.1702 -690.5002   61.4709   12.4157   12.2500   57.0000   11.6063    0.2153    2.4750 -999.0000 -999.0000    0.0000 -999.0000 -999.0000 -999.0000 -999.0000 
 756.3000  756.2702 -690.6002   65.1729   12.4150   12.2500   57.0000   10.8198    0.2175    2.4791 -999.0000 -999.0000    0.0000 -999.0000 -999.0000 -999.0000 -999.0000 
 756.4000  756.3702 -690.7002   79.5333   12.4579   12.2500   57.0000    9.4159    0.2414    2.4923 -999.0000 -999.0000    0.0000 -999.0000 -999.0000 -999.0000 -999.0000 
