~VERSION INFORMATION
 VERS.                 2.0:   CWLS LOG ASCII STANDARD - VERSION 2.0
 WRAP.                  NO:   SINGLE LINE PER DEPTH STEP
 CREA.                 06/02/2020 16:44:49
#CREATED USING IP VERSION 4.5.2019.2902 BY RMOTA ON 06/02/2020 16:44:49
~WELL INFORMATION
#MNEM.UNIT       DATA                          DESCRIPTION MNEMONIC
#---------      ---------------------------   --------------------------
 STRT    .M         1550.0001                 : START DEPTH
 STOP    .M         2926.1001                 : STOP DEPTH
 STEP    .M         0.1000                    : STEP VALUE
 NULL    .      -999.0000                     : NULL VALUE
 DATE    .      06/02/2020                    : LAS file Creation Date
 WELL   .      7-MP-47DP-BA    : Well Name
 COMP   .      PETROBRAS       : Company
 FLD    .      MASSAPE         : Field
 STATE  .      BAHIA           : State
 API    .      20240025025     : API Number
 UWI    .                      : Unique Well Identifier (UWI)
 LOC    .      20240025025     : Location
 PDAT   .      NM              : Permanent Datum
 EPDAT  .      0.0             : Elevation of Permanent Datum
 LGMEA  .      MR              : Log Measured from
 DRMEA  .      MR              : Drill Measured From
 APDAT  .      65.68           : Elevation Above Permanent Datum
 KB     .      -999.25         : KB Elevation
 DF     .      65.68           : DF Elevation
 GL     .      56.28           : GL Elevation
 RWS    .      -999            : Def_Rw
 WST    .      -999            : Def_Rwt
 PROV   .                      : Province
 SRVC   .                      : Contractor
 GDAT   .      WGS 84          : Geodatum
 LONG   .      -38.435024444394: Longitude
 LATI   .      0               : Latitude
 COORDIN.                      : Grid System
 XCOORD .                      : X or East-West Coordinate
 YCOORD .                      : Y or North-South Coordinate
~CURVE INFORMATION
#MNEM              UNIT       API CODE   Curve Type Comments
#----------  --------------- ----------  ---------- -----------
 DEPTH      .M                         : Depth       
 BS         .in                        : BitSize     
 CAL        .in                        : Caliper     
 GR         .api                       : GammaRay    
 ILD        .ohmm                      : DeepRes     
 NPHI       .decp                      : Neutron     
 RHOB       .g/cc                      : Density     
 DT         .uspf                      : Sonic       
 DRDN       .                          :             
 Lith_new   .                          :             
~A  DEPTH     BS       CAL        GR       ILD       NPHI      RHOB       DT       DRDN    Lith_new 
# ...
2646.0001    8.5000    8.6489   38.5695  125.7243    0.1007    2.3184   78.7731   -5.2757   49.0000 
2646.1001    8.5000    8.6598   38.4880  103.7626    0.0997    2.3165   78.0595   -5.3459   49.0000 
2646.2001    8.5000    8.6681   38.4193  115.5898    0.0944    2.3199   77.6629   -5.4556   49.0000 
2646.3001    8.5000    8.6656   38.8745  156.7541    0.0912    2.3243   77.2979   -5.4732   49.0000 
2646.4001    8.5000    8.6637   40.8152  159.8140    0.0892    2.3280   76.9311   -5.4660   49.0000 
2646.5001    8.5000    8.6703   46.2428  152.5461    0.0880    2.3382   76.1915   -5.3030   49.0000 
2646.6001    8.5000    8.6834   48.8447  152.4197    0.0854    2.3445   76.4365   -5.2638   49.0000 
2646.7001    8.5000    8.6910   48.2170  111.2012    0.0870    2.3503   76.3262   -5.0928   49.0000 
2646.8001    8.5000    8.6879   45.9633   84.3123    0.0940    2.3656   77.2179   -4.5551   49.0000 
2646.9001    8.5000    8.6917   45.0049   79.9726    0.1003    2.3723   77.6500   -4.2091   49.0000 
2647.0001    8.5000    8.6790   45.8259   77.3903    0.1052    2.3754   78.5394   -3.9866   49.0000 
2647.1001    8.5000    8.7095   44.0561   67.8735    0.1174    2.3754   79.5613   -3.5803   49.0000 
2647.2001    8.5000    8.6988   43.5226   68.8253    0.1235    2.3690   80.3946   -3.5040   49.0000 
2647.3001    8.5000    8.7102   43.3805   73.2596    0.1234    2.3621   80.8635   -3.6443   49.0000 
2647.4001    8.5000    8.6931   42.6377  100.1814    0.1173    2.3463   81.0659   -4.1645   49.0000 
2647.5001    8.5000    8.6733   40.4239  122.4902    0.1170    2.3372   81.1669   -4.3565   49.0000 
2647.6001    8.5000    8.6764   36.7821  156.2978    0.1184    2.3301   81.1409   -4.4518   49.0000 
2647.7001    8.5000    8.6885   33.0061  209.1269    0.1155    2.3219   80.9965   -4.7107   49.0000 
2647.8001    8.5000    8.7068   29.2685  317.8090    0.1134    2.3095   80.0898   -5.0307   49.0000 
2647.9001    8.5000    8.7114   29.1535  403.5419    0.1135    2.3076   79.9732   -5.0636   49.0000 
2648.0001    8.5000    8.7220   29.8627  481.5654    0.1150    2.3067   80.1223   -5.0331   49.0000 
2648.1001    8.5000    8.7063   30.6821  556.5302    0.1048    2.3126   79.2609   -5.2568   49.0000 
2648.2001    8.5000    8.7017   30.2077  458.5941    0.0985    2.3189   78.3539   -5.3395   49.0000 
2648.3001    8.5000    8.7063   30.6310  429.2943    0.0994    2.3252   78.0556   -5.1835   49.0000 
2648.4001    8.5000    8.6865   32.6052  671.2454    0.0923    2.3399   76.0502   -5.1259   49.0000 
2648.5001    8.5000    8.6868   34.4453  628.2745    0.0913    2.3497   75.2472   -4.9640   49.0000 
2648.6001    8.5000    8.6689   35.9004  576.1507    0.0893    2.3591   74.4294   -4.8403   49.0000 
2648.7001    8.5000    8.6654   41.2161  438.3036    0.0889    2.3787   73.8003   -4.4630   49.0000 
2648.8001    8.5000    8.6699   43.3198  471.5274    0.0930    2.3878   73.6856   -4.1431   49.0000 
2648.9001    8.5000    8.6730   43.4300  208.2942    0.0964    2.3952   74.0895   -3.8829   49.0000 
2649.0001    8.5000    8.7093   39.5326  131.4446    0.0962    2.4056   74.4403   -3.6817   49.0000 
2649.1001    8.5000    8.7321   37.8890  109.5278    0.0923    2.4094   74.9909   -3.7365   49.0000 
2649.2001    8.5000    8.7565   39.2739   93.3286    0.0896    2.4109   75.1062   -3.7960   49.0000 
2649.3001    8.5000    8.7765   40.7114   81.5819    0.0897    2.4117   75.1969   -3.7747   49.0000 
2649.4001    8.5000    8.8026   43.4907   67.1224    0.1031    2.4191   74.7337   -3.1819   49.0000 
2649.5001    8.5000    8.8148   44.2765   62.2899    0.1099    2.4224   74.5722   -2.8890   49.0000 
2649.6001    8.5000    8.8164   46.1166   55.8144    0.1151    2.4269   74.7630   -2.6260   49.0000 
2649.7001    8.5000    8.8156   52.9402   41.0802    0.1153    2.4311   74.8951   -2.5357   49.0000 
2649.8001    8.5000    8.8096   59.3037   34.0915    0.1166    2.4312   75.7745   -2.4912   49.0000 
2649.9001    8.5000    8.8126   67.7757   27.9039    0.1217    2.4329   76.8064   -2.2836   49.0000 
2650.0001    8.5000    8.8284   81.9787   19.2013    0.1338    2.4528   78.3621   -1.4846   49.0000 
2650.1001    8.5000    8.8330   85.8696   16.3340    0.1362    2.4721   79.2394   -1.0179   49.0000 
2650.2001    8.5000    8.8513   86.4894   14.3435    0.1429    2.4945   79.6508   -0.3486   25.0000 
2650.3001    8.5000    8.8528   86.3073   12.2671    0.1601    2.5372   80.5520    1.0806   57.0000 
2650.4001    8.5000    8.8497   82.2917   11.8962    0.1635    2.5468   80.7312    1.3861   57.0000 
2650.5001    8.5000    8.8437   75.0976   11.8910    0.1661    2.5473   81.2951    1.4823   57.0000 
2650.6001    8.5000    8.8345   64.5556   12.8560    0.1665    2.5367   81.0911    1.2859   57.0000 
2650.7001    8.5000    8.8193   49.6386   13.9222    0.1627    2.4899   81.2111    0.2206   54.0000 
2650.8001    8.5000    8.8064   46.9408   15.3692    0.1537    2.4587   81.4325   -0.7043   25.0000 
2650.9001    8.5000    8.8160   46.8641   17.4198    0.1469    2.4286   81.3990   -1.5335   49.0000 
2651.0001    8.5000    8.8464   46.1789   22.9602    0.1302    2.3819   80.9964   -3.0216   49.0000 
2651.1001    8.5000    8.8495   45.4841   26.9250    0.1275    2.3680   80.9539   -3.3908   49.0000 
2651.2001    8.5000    8.8609   44.1855   31.3815    0.1240    2.3598   80.8021   -3.6704   49.0000 
2651.3001    8.5000    8.8239   41.2720   43.3234    0.1213    2.3498   80.4284   -3.9605   49.0000 
2651.4001    8.5000    8.8148   39.3937   49.1252    0.1170    2.3485   79.8660   -4.1300   49.0000 
2651.5001    8.5000    8.8087   38.2053   55.4136    0.1139    2.3495   79.1449   -4.2155   49.0000 
2651.6001    8.5000    8.7977   37.5472   67.5597    0.1095    2.3556   77.8175   -4.2378   49.0000 
2651.7001    8.5000    8.8007   38.8154   68.1394    0.1076    2.3621   77.1084   -4.1706   49.0000 
2651.8001    8.5000    8.8007   42.1074   63.3631    0.1079    2.3694   76.4036   -4.0145   49.0000 
2651.9001    8.5000    8.8037   48.5045   44.9525    0.1085    2.3846   75.6639   -3.6899   49.0000 
2652.0001    8.5000    8.8163   52.6495   35.8888    0.1106    2.3969   75.7000   -3.3756   49.0000 
2652.1001    8.5000    8.8099   57.2145   29.5187    0.1130    2.4091   75.5931   -3.0525   49.0000 
2652.2001    8.5000    8.8103   63.2873   22.6677    0.1209    2.4233   75.8415   -2.5049   49.0000 
2652.3001    8.5000    8.8103   72.5515   21.6973    0.1333    2.4564   77.0396   -1.4295   49.0000 
2652.4001    8.5000    8.8042   72.4621   22.0343    0.1355    2.4671   77.1736   -1.1413   49.0000 
2652.5001    8.5000    8.7999   69.9224   23.2679    0.1336    2.4728   77.7207   -1.0910   49.0000 
2652.6001    8.5000    8.7973   59.7685   27.8514    0.1221    2.4608   78.7041   -1.7137   49.0000 
2652.7001    8.5000    8.8018   54.9288   30.7348    0.1133    2.4451   78.3496   -2.3229   49.0000 
2652.8001    8.5000    8.7942   50.8270   33.8041    0.1092    2.4292   77.7314   -2.7781   49.0000 
2652.9001    8.5000    8.7920   47.7506   37.7949    0.1119    2.4069   77.8980   -3.1318   49.0000 
2653.0001    8.5000    8.7980   50.3574   36.3450    0.1133    2.4055   77.7607   -3.1136   49.0000 
2653.1001    8.5000    8.7965   55.7146   32.4472    0.1177    2.4101   77.6900   -2.8731   49.0000 
2653.2001    8.5000    8.8129   71.9254   22.8907    0.1293    2.4300   78.7956   -2.0896   49.0000 
2653.3001    8.5000    8.8136   78.2985   19.4356    0.1403    2.4445   79.5904   -1.4325   49.0000 
2653.4001    8.5000    8.8150   79.6594   17.1602    0.1481    2.4584   80.1197   -0.8945   25.0000 
2653.5001    8.5000    8.8182   68.0248   15.4648    0.1467    2.4777   81.1339   -0.5566   25.0000 
2653.6001    8.5000    8.8246   60.3196   15.7649    0.1447    2.4781   81.1077   -0.6161   25.0000 
2653.7001    8.5000    8.8136   55.2594   16.7440    0.1423    2.4704   80.6336   -0.8482   25.0000 
2653.8001    8.5000    8.7983   52.6718   20.6536    0.1379    2.4569   80.2557   -1.2646   49.0000 
2653.9001    8.5000    8.7643   50.7551   23.6469    0.1285    2.4187   80.3160   -2.3414   49.0000 
