~VERSION INFORMATION
 VERS.                 2.0:   CWLS LOG ASCII STANDARD - VERSION 2.0
 WRAP.                  NO:   SINGLE LINE PER DEPTH STEP
 CREA.                 06/02/2020 16:07:36
#CREATED USING IP VERSION 4.5.2019.2902 BY RMOTA ON 06/02/2020 16:07:36
~WELL INFORMATION
#MNEM.UNIT       DATA                          DESCRIPTION MNEMONIC
#---------      ---------------------------   --------------------------
 STRT    .M         18.4404                   : START DEPTH
 STOP    .M         3544.2144                 : STOP DEPTH
 STEP    .M         0.1524                    : STEP VALUE
 NULL    .      -999.0000                     : NULL VALUE
 DATE    .      06/02/2020                    : LAS file Creation Date
 WELL   .      7-MP-25-BA         : Well Name
 COMP   .      PETROBRAS          : Company
 FLD    .      MASSAPE            : Field
 STATE  .      20240021268        : State
 COUNT  .      BRASIL             : Country
 API    .      20240021268        : API Number
 UWI    .                         : Unique Well Identifier (UWI)
 LOC    .      N= 8.607.478,570 m : Location
 TOWN   .      CTU                : Township
 SCT    .      OH WIRELINE        : Section
 RANG   .      SCHLUMBERGER       : Range
 PDAT   .      NM                 : Permanent Datum
 EPDAT  .      0                  : Elevation of Permanent Datum
 LGMEA  .      MR                 : Log Measured from
 DRMEA  .      MR                 : Drill Measured From
 APDAT  .      65.76              : Elevation Above Permanent Datum
 KB     .      66.06              : KB Elevation
 DF     .      65.76              : DF Elevation
 GL     .      56.36              : GL Elevation
 RWS    .      -999               : Def_Rw
 WST    .      -999               : Def_Rwt
 BHS    .      OPEN               : Completion Status
 PROV   .                         : Province
 MDEC   .      -23.10323          : Magnetic Declination
 SRVC   .                         : Contractor
 GDAT   .      WGS 84             : Geodatum
 LONG   .      -38.4344958333174  : Longitude
 LATI   .      -12.5959183332655  : Latitude
 COORDIN.                         : Grid System
 XCOORD .                         : X or East-West Coordinate
 YCOORD .                         : Y or North-South Coordinate
~CURVE INFORMATION
#MNEM              UNIT       API CODE   Curve Type Comments
#----------  --------------- ----------  ---------- -----------
 DEPTH      .M                         : Depth       
 BS         .in                        : BitSize     
 GR         .gAPI                      : GammaRay    
 CAL        .inch                      : Caliper     
 RT         .ohm.m                     : DeepRes     
 NPHI       .m3/m3                     : Neutron     
 RHOB       .g/cm3                     : Density     
 DT         .us/ft                     : Sonic       
 SP         .mV                        : SP          
 DRDN       .                          :             
 Lith_new   .                          :             
~A  DEPTH     BS        GR       CAL        RT       NPHI      RHOB       DT        SP       DRDN    Lith_new 
# ...
2621.7372    8.5000  126.6649 -999.0000    5.3173    0.2392    2.6772  148.0591 1002.9375    6.5185   57.0000 
2621.8896    8.5000  128.6595 -999.0000    5.4210    0.2763    2.6588  144.1026 1003.0000    7.3840   57.0000 
2622.0420    8.5000  128.1026 -999.0000    5.5236    0.2904    2.6401  130.6903 1003.0000    7.4820   57.0000 
2622.1944    8.5000  115.7128 -999.0000    5.5640    0.2714    2.6151  125.1401 1003.0000    6.3475   57.0000 
2622.3468    8.5000   85.2197 -999.0000    5.8055    0.1862    2.5983  120.9184 1002.9375    3.1715   57.0000 
2622.4992    8.5000   59.0451 -999.0000    7.8435    0.1164    2.5750  116.5087 1003.0000    0.3819   57.0000 
2622.6516    8.5000   47.9099 -999.0000   13.3331    0.0902    2.5503  113.7760 1002.7500   -0.9896   25.0000 
2622.8040    8.5000   46.0053 -999.0000   17.0462    0.0863    2.5321  113.5294 1002.6250   -1.4832   49.0000 
2622.9564    8.5000   50.9123 -999.0000   17.6401    0.0839    2.5421  113.2244 1003.0625   -1.3605   49.0000 
2623.1088    8.5000   53.5229 -999.0000   17.7029    0.0912    2.5624  112.8957 1003.2500   -0.7138   25.0000 
2623.2612    8.5000   58.8529 -999.0000   18.1108    0.0958    2.5771  113.4099 1003.0000   -0.2646   54.0000 
2623.4136    8.5000   55.1026 -999.0000   18.2444    0.0945    2.5802  113.6910 1002.7500   -0.2442   54.0000 
2623.5660    8.5000   59.8922 -999.0000   18.6490    0.0924    2.5739  113.5167 1003.0625   -0.4402   25.0000 
2623.7184    8.5000   60.9227 -999.0000   18.4592    0.0924    2.5670  114.0637 1002.7500   -0.5813   25.0000 
2623.8708    8.5000   62.0307 -999.0000   18.2855    0.0928    2.5674  114.2783 1002.6250   -0.5568   25.0000 
2624.0232    8.5000   59.1253 -999.0000   18.0748    0.0869    2.5711  114.0620 1002.6250   -0.6822   25.0000 
2624.1756    8.5000   57.9061 -999.0000   17.9745    0.0891    2.5688  114.8215 1002.7500   -0.6542   25.0000 
2624.3280    8.5000   63.0019 -999.0000   17.9329    0.0905    2.5576  114.1580 1002.7500   -0.8306   25.0000 
2624.4804    8.5000   64.9851 -999.0000   17.8001    0.0924    2.5531  114.0759 1002.6875   -0.8572   25.0000 
2624.6328    8.5000   64.6076 -999.0000   17.7944    0.0946    2.5643  114.1410 1002.7500   -0.5590   25.0000 
2624.7852    8.5000   63.8176 -999.0000   17.6475    0.0910    2.5810  114.1274 1002.6250   -0.3473   25.0000 
2624.9376    8.5000   57.0632 -999.0000   17.8557    0.0885    2.5793  114.1329 1002.2500   -0.4657   25.0000 
2625.0900    8.5000   59.2914 -999.0000   17.9748    0.0830    2.5686  113.9710 1002.3125   -0.8633   25.0000 
2625.2424    8.5000   62.0084 -999.0000   18.0667    0.0851    2.5633  113.7659 1002.3125   -0.8991   25.0000 
2625.3948    8.5000   69.4174 -999.0000   18.0177    0.0910    2.5719  114.0436 1002.2500   -0.5279   25.0000 
2625.5472    8.5000   68.0985 -999.0000   17.8725    0.0912    2.5836  113.7019 1002.5000   -0.2870   54.0000 
2625.6996    8.5000   60.6343 -999.0000   17.9859    0.0946    2.5927  113.4912 1002.0625    0.0092   54.0000 
2625.8520    8.5000   61.4284 -999.0000   18.0328    0.0959    2.5907  113.2607 1002.0625    0.0108   54.0000 
2626.0044    8.5000   62.2178 -999.0000   18.0787    0.0920    2.5814  113.0443 1002.3125   -0.3064   25.0000 
2626.1568    8.5000   70.0318 -999.0000   18.0864    0.0865    2.5662  112.8669 1002.0625   -0.7907   25.0000 
2626.3092    8.5000   69.2769 -999.0000   17.9771    0.0844    2.5612  113.1593 1002.2500   -0.9633   25.0000 
2626.4616    8.5000   67.5454 -999.0000   18.0924    0.0890    2.5664  113.4392 1002.1875   -0.7053   25.0000 
2626.6140    8.5000   63.9796 -999.0000   17.7746    0.0893    2.5821  114.1313 1001.8750   -0.3811   25.0000 
2626.7664    8.5000   58.8531 -999.0000   17.6204    0.0855    2.5933  114.0950 1001.8125   -0.2856   54.0000 
2626.9188    8.5000   57.9738 -999.0000   17.4615    0.0824    2.6013  114.2299 1001.8125   -0.2263   54.0000 
2627.0712    8.5000   59.0380 -999.0000   17.3925    0.0809    2.5975  114.2789 1001.6875   -0.3529   25.0000 
2627.2236    8.5000   62.2411 -999.0000   17.5738    0.0838    2.5996  114.2152 1001.8125   -0.2150   54.0000 
2627.3760    8.5000   60.5397 -999.0000   17.6266    0.0822    2.5990  114.0594 1001.3750   -0.2791   54.0000 
2627.5284    8.5000   57.7409 -999.0000   17.4293    0.0804    2.6008  113.4853 1001.6875   -0.3043   25.0000 
2627.6808    8.5000   56.2671 -999.0000   17.5343    0.0754    2.5977  113.1259 1001.6250   -0.5319   25.0000 
2627.8332    8.5000   61.8625 -999.0000   17.6576    0.0741    2.5860  112.8517 1001.8125   -0.8111   25.0000 
2627.9856    8.5000   63.7537 -999.0000   17.5690    0.0768    2.5808  112.7433 1001.6875   -0.8228   25.0000 
2628.1380    8.5000   62.0047 -999.0000   17.6333    0.0836    2.5745  113.1326 1001.8750   -0.7238   25.0000 
2628.2904    8.5000   56.9468 -999.0000   17.6785    0.0834    2.5658  113.8587 1001.6250   -0.9046   25.0000 
2628.4428    8.5000   53.3595 -999.0000   17.7138    0.0825    2.5613  114.3326 1001.5000   -1.0243   49.0000 
2628.5952    8.5000   53.0627 -999.0000   17.4940    0.0828    2.5570  115.2107 1001.6250   -1.1023   49.0000 
2628.7476    8.5000   56.0479 -999.0000   17.4494    0.0878    2.5658  115.4349 1001.5625   -0.7557   25.0000 
2628.9000    8.5000   57.1421 -999.0000   17.4352    0.0873    2.5624  115.5701 1001.5000   -0.8425   25.0000 
2629.0524    8.5000   64.6186 -999.0000   17.3318    0.0882    2.5575  115.5095 1001.3125   -0.9087   25.0000 
2629.2048    8.5000   66.1629 -999.0000   17.1058    0.0843    2.5514  115.2748 1001.5000   -1.1613   49.0000 
2629.3572    8.5000   65.8251 -999.0000   16.9586    0.0804    2.5459  115.2165 1001.2500   -1.4029   49.0000 
2629.5096    8.5000   58.2214 -999.0000   17.1605    0.0767    2.5425  114.7070 1001.5000   -1.5932   49.0000 
2629.6620    8.5000   54.4467 -999.0000   17.4828    0.0780    2.5351  114.8878 1001.3750   -1.6987   49.0000 
2629.8144    8.5000   53.4749 -999.0000   17.2586    0.0842    2.5325  114.6204 1001.1875   -1.5423   49.0000 
2629.9668    8.5000   55.4592 -999.0000   17.1230    0.0764    2.5565  114.3677 1001.0000   -1.3243   49.0000 
2630.1192    8.5000   55.4592 -999.0000   17.2863    0.0751    2.5776  113.5650 1001.0000   -0.9469   25.0000 
2630.2716    8.5000   61.2296 -999.0000   17.4940    0.0724    2.6056  112.8318 1001.1875   -0.4752   25.0000 
2630.4240    8.5000   58.7469 -999.0000   18.1892    0.0742    2.6045  112.5002 1001.0000   -0.4379   25.0000 
2630.5764    8.5000   58.1510 -999.0000   18.9725    0.0718    2.6074  111.5722 1000.9375   -0.4570   25.0000 
2630.7288    8.5000   54.5399 -999.0000   18.5480    0.0729    2.5981  111.6304 1000.5000   -0.6090   25.0000 
2630.8812    8.5000   59.2874 -999.0000   18.0346    0.0754    2.5989  111.8665 1000.8125   -0.5069   25.0000 
2631.0336    8.5000   60.8271 -999.0000   17.4096    0.0797    2.5942  112.9160 1000.6875   -0.4591   25.0000 
2631.1860    8.5000   61.6394 -999.0000   17.9622    0.0785    2.5856  113.5784 1001.0000   -0.6739   25.0000 
2631.3384    8.5000   59.5633 -999.0000   17.9394    0.0767    2.5699  114.3369 1000.5625   -1.0453   49.0000 
2631.4908    8.5000   56.7047 -999.0000   17.8559    0.0761    2.5528  114.6235 1000.5625   -1.4069   49.0000 
2631.6432    8.5000   53.5559 -999.0000   17.6070    0.0753    2.5453  115.4185 1000.6250   -1.5837   49.0000 
2631.7956    8.5000   52.3918 -999.0000   17.4137    0.0760    2.5416  115.0465 1000.5000   -1.6346   49.0000 
2631.9480    8.5000   53.5814 -999.0000   17.6648    0.0748    2.5458  115.3893 1000.5000   -1.5897   49.0000 
2632.1004    8.5000   51.4975 -999.0000   17.6590    0.0774    2.5461  114.9744 1000.4375   -1.4990   49.0000 
2632.2528    8.5000   51.1206 -999.0000   18.1500    0.0816    2.5484  114.5876 1000.4375   -1.3142   49.0000 
2632.4052    8.5000   48.2191 -999.0000   17.6657    0.0808    2.5536  114.4015 1000.1875   -1.2341   49.0000 
2632.5576    8.5000   48.2435 -999.0000   17.8747    0.0763    2.5574  114.0851 1000.2500   -1.3087   49.0000 
2632.7100    8.5000   47.1422 -999.0000   17.9927    0.0765    2.5631  113.7609 1000.1875   -1.1861   49.0000 
